% program   : RTKPOST demo5 b34k
% inp file  : C:\Users\XU\Desktop\6102_Lab\AAE6102_Laboratory-main\GNSS Data\UrbanNav - Medium\20210521.medium-urban.whampoa.ublox.f9p.obs
% inp file  : C:\Users\XU\Desktop\6102_Lab\AAE6102_Laboratory-main\GNSS Data\UrbanNav - Medium\hksc141g.21o
% inp file  : C:\Users\XU\Desktop\6102_Lab\AAE6102_Laboratory-main\GNSS Data\UrbanNav - Medium\hksc141g.21*
% obs start : 2021/05/21 06:29:02.0 GPST (week2158 455342.0s)
% obs end   : 2021/05/21 06:54:39.0 GPST (week2158 456879.0s)
% pos mode  : Kinematic
% freqs     : L1+L2/E5b
% solution  : Forward
% elev mask : 15.0 deg
% dynamics  : on
% tidecorr  : off
% ionos opt : Broadcast
% tropo opt : Saastamoinen
% ephemeris : Broadcast
% navi sys  : GPS GLONASS Galileo
% amb res   : Fix and Hold
% amb glo   : Fix and Hold
% val thres : 3.0
% antenna1  :                       ( 0.0000  0.0000  0.0000)
% antenna2  :                       ( 0.0000  0.0000  0.0000)
% ref pos   : 22.322172082  114.141187963    20.2386
%
% (lat/lon/height=WGS84/ellipsoidal,Q=1:fix,2:float,3:sbas,4:dgps,5:single,6:ppp,ns=# of satellites)
%  GPST          latitude(deg) longitude(deg)  height(m)   Q  ns   sdn(m)   sde(m)   sdu(m)  sdne(m)  sdeu(m)  sdun(m) age(s)  ratio
2158 455342.000   22.301558264  114.190300121     3.6101   2  11   0.9333   1.0949   2.4928   0.1969   0.6847   0.4996   0.00    0.0
2158 455343.000   22.301558908  114.190299743     3.7859   2  14   0.6716   0.7867   1.7785   0.1716   0.4897   0.3339   0.00    0.0
2158 455344.000   22.301560933  114.190298752     4.2335   2  12   0.5547   0.6485   1.4659   0.1423   0.4064   0.2765   0.00    0.0
2158 455345.000   22.301563093  114.190297654     4.6994   2  13   0.4806   0.5639   1.2705   0.1197   0.3515   0.2298   0.00    0.0
2158 455346.000   22.301564834  114.190296972     4.9939   2  12   0.4314   0.5058   1.1403   0.1086   0.3169   0.2084   0.00    0.0
2158 455347.000   22.301566129  114.190296791     5.2259   2  12   0.3946   0.4623   1.0432   0.0992   0.2915   0.1929   0.00    0.0
2158 455348.000   22.301567019  114.190293792     5.3343   2  12   0.3660   0.4286   0.9675   0.0923   0.2709   0.1805   0.00    0.0
2158 455349.000   22.301567979  114.190286651     5.4072   2  11   0.3423   0.4013   0.9060   0.0867   0.2545   0.1698   0.00    0.0
2158 455350.000   22.301568568  114.190276163     5.4269   2   9   0.3231   0.3787   0.8551   0.0820   0.2404   0.1617   0.00    0.0
2158 455351.000   22.301571912  114.190263467     5.4736   2  11   0.3066   0.3594   0.8118   0.0776   0.2286   0.1546   0.00    0.0
2158 455352.000   22.301580931  114.190253380     5.5230   2  11   0.2923   0.3429   0.7744   0.0738   0.2186   0.1482   0.00    0.0
2158 455353.000   22.301592617  114.190246324     5.4378   2  13   0.2797   0.3283   0.7409   0.0706   0.2098   0.1427   0.00    0.0
2158 455354.000   22.301605049  114.190238826     5.4600   2  13   0.2685   0.3155   0.7122   0.0676   0.2019   0.1381   0.00    0.0
2158 455355.000   22.301618748  114.190231085     5.4513   2  15   0.2582   0.3031   0.6829   0.0629   0.1907   0.1308   0.00    0.0
2158 455356.000   22.301634289  114.190222520     5.4668   2  14   0.2491   0.2924   0.6580   0.0594   0.1826   0.1254   0.00    0.0
2158 455357.000   22.301655844  114.190211212     5.4250   2  12   0.2408   0.2826   0.6354   0.0556   0.1752   0.1213   0.00    0.0
2158 455358.000   22.301684043  114.190197395     5.4036   2  12   0.2333   0.2739   0.6151   0.0527   0.1688   0.1174   0.00    0.0
2158 455359.000   22.301717813  114.190181386     5.3648   2  12   0.2263   0.2659   0.5966   0.0494   0.1632   0.1142   0.00    0.0
2158 455360.000   22.301756062  114.190163163     5.3681   2  12   0.2198   0.2585   0.5796   0.0465   0.1581   0.1113   0.00    0.0
2158 455361.000   22.301798729  114.190143119     5.3748   2  12   0.2138   0.2517   0.5640   0.0438   0.1536   0.1087   0.00    0.0
2158 455362.000   22.301845617  114.190120545     5.3849   2  12   0.2082   0.2455   0.5496   0.0416   0.1492   0.1062   0.00    0.0
2158 455363.000   22.301896142  114.190095719     5.4189   2  11   0.2031   0.2398   0.5366   0.0397   0.1450   0.1039   0.00    0.0
2158 455364.000   22.301949217  114.190069479     5.4240   2  11   0.1983   0.2344   0.5241   0.0374   0.1415   0.1019   0.00    0.0
2158 455365.000   22.302001733  114.190043152     5.3847   2  12   0.1938   0.2294   0.5132   0.0359   0.1394   0.1011   0.00    0.0
2158 455366.000   22.302053229  114.190018502     5.2934   2  11   0.1897   0.2251   0.5033   0.0357   0.1369   0.0997   0.00    0.0
2158 455367.000   22.302102924  114.189993407     5.2951   2  10   0.1861   0.2211   0.4938   0.0363   0.1345   0.0983   0.00    0.0
2158 455368.000   22.302151048  114.189969225     5.1824   2   9   0.1827   0.2175   0.4850   0.0375   0.1318   0.0967   0.00    0.0
2158 455369.000   22.302196481  114.189942245     5.1111   2   8   0.1798   0.2152   0.4776   0.0406   0.1269   0.0941   0.00    0.0
2158 455370.000   22.302236109  114.189908803     5.0549   2   8   0.1884   0.2494   0.4714   0.1012   0.1006   0.0772   0.00    0.0
2158 455371.000   22.302267669  114.189869945     5.0312   2   7   0.1741   0.2101   0.4626   0.0436   0.1208   0.0911   0.00    1.0
2158 455372.000   22.302287734  114.189826166     4.9475   2   8   0.1715   0.2074   0.4548   0.0442   0.1168   0.0894   0.00    1.1
2158 455373.000   22.302296513  114.189780918     4.9313   2   9   0.1689   0.2048   0.4467   0.0451   0.1123   0.0873   0.00    1.0
2158 455374.000   22.302295247  114.189736725     4.8449   2   9   0.1666   0.2023   0.4389   0.0456   0.1080   0.0854   0.00    1.0
2158 455375.000   22.302284501  114.189694592     4.7901   2  10   0.1644   0.2002   0.4320   0.0468   0.1047   0.0838   0.00    1.0
2158 455376.000   22.302265848  114.189656125     4.8172   2  10   0.1622   0.1978   0.4251   0.0476   0.1030   0.0826   0.00    1.2
2158 455377.000   22.302244124  114.189619542     4.8106   2  11   0.1601   0.1958   0.4189   0.0485   0.1014   0.0815   0.00    1.1
2158 455378.000   22.302221527  114.189583103     4.8404   2  12   0.1577   0.1939   0.4131   0.0486   0.0998   0.0807   0.00    1.1
2158 455379.000   22.302199491  114.189548059     4.8836   2  12   0.1554   0.1920   0.4077   0.0486   0.0981   0.0799   0.00    1.0
2158 455380.000   22.302178469  114.189515736     4.9472   2  12   0.1532   0.1903   0.4024   0.0487   0.0965   0.0793   0.00    1.2
2158 455381.000   22.302158670  114.189485792     4.9593   2  11   0.1512   0.1883   0.3978   0.0481   0.0956   0.0795   0.00    1.0
2158 455382.000   22.302140114  114.189458401     4.9241   2  12   0.1491   0.1863   0.3928   0.0477   0.0950   0.0793   0.00    1.5
2158 455383.000   22.302121563  114.189432246     4.9633   2  12   0.1471   0.1844   0.3880   0.0472   0.0944   0.0792   0.00    1.6
2158 455384.000   22.302101703  114.189404380     5.0175   2  11   0.1452   0.1825   0.3837   0.0467   0.0938   0.0792   0.00    1.7
2158 455385.000   22.302080330  114.189372322     5.1595   2  10   0.1434   0.1809   0.3795   0.0461   0.0925   0.0791   0.00    1.6
2158 455386.000   22.302059041  114.189335949     5.2557   2   9   0.1417   0.1808   0.3752   0.0477   0.0909   0.0786   0.00    1.9
2158 455387.000   22.302039262  114.189291310     5.3523   2   7   0.1855   0.3150   0.3829   0.1837  -0.1256  -0.0704   0.00    1.9
2158 455388.000   22.302025920  114.189242434     5.2890   2   7   0.1388   0.1750   0.3669   0.0450   0.0939   0.0806   0.00    1.0
2158 455389.000   22.302019489  114.189187326     5.3606   2   5   0.1849   0.3163   0.3792   0.1863  -0.1214  -0.0605   0.00    2.1
2158 455390.000   22.302026522  114.189138510     5.2587   2   4   0.2025   0.3684   0.3845   0.2255  -0.1740  -0.1031   0.00    0.0
2158 455391.000   22.302046289  114.189101338     4.5939   2   4   0.3801   0.7324   0.4397   0.4592  -0.3146   0.0364   0.00    0.0
2158 455392.000   22.302064539  114.189035723     4.6246   4   2   0.7832   0.3106   0.9033  -0.1811  -0.2684   0.7945   0.00    0.0
2158 455393.000   22.302097452  114.188984027     5.0051   4   0   1.0122   0.3055   1.1373  -0.2698  -0.3324   1.0369   0.00    0.0
2158 455394.000   22.302133749  114.188940518     5.3313   4   0   1.0850   0.9771   1.1701   0.5047  -0.5609   1.0131   0.00    0.0
2158 455395.000   22.302160538  114.188888926     5.4808   4   0   0.8157   0.2843   0.9187  -0.2167  -0.2734   0.8230   0.00    0.0
2158 455396.000   22.302182315  114.188848921     5.1470   4   0   0.6840   0.2721   0.8003  -0.1633  -0.2278   0.6922   0.00    0.0
2158 455397.000   22.302194864  114.188815755     4.5555   4   0   0.6661   0.2646   0.8129  -0.1600  -0.2242   0.6899   0.00    0.0
2158 455398.000   22.302203824  114.188791094     4.3436   4   0   0.5896   0.2568   0.7351  -0.1374  -0.2019   0.6087   0.00    0.0
2158 455399.000   22.302209043  114.188773758     4.2560   4   0   0.5454   0.2526   0.6944  -0.1284  -0.1882   0.5635   0.00    0.0
2158 455400.000   22.302212510  114.188757631     4.1075   4   0   0.5119   0.2465   0.6660  -0.1192  -0.1775   0.5308   0.00    0.0
2158 455401.000   22.302208696  114.188740087     3.6330   2   5   0.8636   0.2504   0.9970  -0.2570  -0.2938   0.8934   0.00    0.0
2158 455402.000   22.302199773  114.188725071     3.3512   2   9   1.2185   0.2617   1.3607  -0.3798  -0.4122   1.2635   0.00    0.0
2158 455403.000   22.302191422  114.188714755     3.5788   2  10   0.7354   0.2396   0.8754  -0.2174  -0.2568   0.7652   0.00    0.0
2158 455404.000   22.302180033  114.188709831     3.5704   2  12   0.6291   0.2316   0.7733  -0.1807  -0.2217   0.6560   0.00    0.0
2158 455405.000   22.302175494  114.188708890     3.5901   2  11   0.5765   0.2255   0.7241  -0.1613  -0.2025   0.6025   0.00    0.0
2158 455406.000   22.302176156  114.188708686     3.6945   2  13   0.5367   0.2205   0.6874  -0.1477  -0.1887   0.5623   0.00    0.0
2158 455407.000   22.302174691  114.188708234     3.5112   2  13   0.4997   0.2156   0.6520  -0.1354  -0.1760   0.5239   0.00    0.0
2158 455408.000   22.302174035  114.188707725     3.4362   2  12   0.4707   0.2115   0.6250  -0.1271  -0.1670   0.4942   0.00    0.0
2158 455409.000   22.302174002  114.188707294     3.4344   2  13   0.4460   0.2076   0.6021  -0.1202  -0.1593   0.4690   0.00    0.0
2158 455410.000   22.302174371  114.188706886     3.4971   2  13   0.4247   0.2040   0.5824  -0.1142  -0.1525   0.4472   0.00    0.0
2158 455411.000   22.302174879  114.188706416     3.6063   2  14   0.4059   0.2006   0.5651  -0.1091  -0.1463   0.4280   0.00    0.0
2158 455412.000   22.302175299  114.188706028     3.7056   2  13   0.3893   0.1974   0.5498  -0.1046  -0.1408   0.4110   0.00    0.0
2158 455413.000   22.302175754  114.188705642     3.8234   2  12   0.3743   0.1944   0.5361  -0.1006  -0.1358   0.3958   0.00    0.0
2158 455414.000   22.302176317  114.188705365     3.9392   2  12   0.3608   0.1915   0.5236  -0.0969  -0.1312   0.3820   0.00    0.0
2158 455415.000   22.302177149  114.188705196     4.0906   2  13   0.3483   0.1888   0.5118  -0.0934  -0.1268   0.3691   0.00    0.0
2158 455416.000   22.302177767  114.188705043     4.2006   2  14   0.3368   0.1861   0.5009  -0.0903  -0.1226   0.3572   0.00    0.0
2158 455417.000   22.302178733  114.188704928     4.3796   2  14   0.3262   0.1836   0.4908  -0.0875  -0.1188   0.3463   0.00    0.0
2158 455418.000   22.302179564  114.188704871     4.5460   2  13   0.3164   0.1812   0.4816  -0.0849  -0.1153   0.3361   0.00    0.0
2158 455419.000   22.302180773  114.188704940     4.7489   2  13   0.3071   0.1788   0.4727  -0.0826  -0.1121   0.3266   0.00    0.0
2158 455420.000   22.302181953  114.188704998     4.9451   2  14   0.2983   0.1765   0.4639  -0.0800  -0.1084   0.3173   0.00    0.0
2158 455421.000   22.302183336  114.188705097     5.1739   2  13   0.2902   0.1743   0.4560  -0.0780  -0.1054   0.3089   0.00    0.0
2158 455422.000   22.302183545  114.188705158     5.1966   2  14   0.2829   0.1722   0.4491  -0.0757  -0.1019   0.3015   0.00    0.0
2158 455423.000   22.302183695  114.188705106     5.2288   2  14   0.2760   0.1702   0.4427  -0.0735  -0.0987   0.2946   0.00    0.0
2158 455424.000   22.302183842  114.188705147     5.2476   2  13   0.2695   0.1682   0.4366  -0.0715  -0.0954   0.2880   0.00    1.6
2158 455425.000   22.302183946  114.188705196     5.2592   2  14   0.2631   0.1664   0.4303  -0.0696  -0.0922   0.2814   0.00    1.5
2158 455426.000   22.302183753  114.188705245     5.2289   2  14   0.2570   0.1646   0.4242  -0.0677  -0.0891   0.2751   0.00    1.1
2158 455427.000   22.302183880  114.188705336     5.2536   2  14   0.2511   0.1628   0.4184  -0.0660  -0.0861   0.2690   0.00    1.5
2158 455428.000   22.302183746  114.188705336     5.2217   2  14   0.2454   0.1611   0.4126  -0.0644  -0.0831   0.2631   0.00    1.0
2158 455429.000   22.302183942  114.188705353     5.2472   2  13   0.2399   0.1595   0.4072  -0.0628  -0.0803   0.2574   0.00    1.0
2158 455430.000   22.302183837  114.188705413     5.2330   2  13   0.2346   0.1579   0.4017  -0.0614  -0.0775   0.2518   0.00    1.0
2158 455431.000   22.302183859  114.188705334     5.2431   2  13   0.2295   0.1563   0.3964  -0.0601  -0.0750   0.2464   0.00    1.0
2158 455432.000   22.302183611  114.188705277     5.2147   2  13   0.2245   0.1548   0.3911  -0.0588  -0.0723   0.2411   0.00    1.5
2158 455433.000   22.302183255  114.188705260     5.1807   2  13   0.2197   0.1534   0.3858  -0.0576  -0.0697   0.2359   0.00    1.1
2158 455434.000   22.302183169  114.188705176     5.1865   2  13   0.2150   0.1519   0.3807  -0.0565  -0.0672   0.2308   0.00    1.1
2158 455435.000   22.302183280  114.188705159     5.1842   2  12   0.2106   0.1506   0.3764  -0.0557  -0.0654   0.2264   0.00    1.0
2158 455436.000   22.302183254  114.188705119     5.1893   2  13   0.2062   0.1492   0.3710  -0.0545  -0.0624   0.2214   0.00    1.1
2158 455437.000   22.302183143  114.188705056     5.1859   2  13   0.2019   0.1478   0.3660  -0.0535  -0.0599   0.2166   0.00    1.1
2158 455438.000   22.302183452  114.188705050     5.2365   2  13   0.1977   0.1465   0.3610  -0.0526  -0.0574   0.2119   0.00    1.1
2158 455439.000   22.302183420  114.188704968     5.2139   2  14   0.1936   0.1452   0.3561  -0.0517  -0.0549   0.2073   0.00    1.1
2158 455440.000   22.302183670  114.188704894     5.2209   2  13   0.1896   0.1440   0.3513  -0.0509  -0.0525   0.2028   0.00    1.1
2158 455441.000   22.302183541  114.188704807     5.2176   2  13   0.1858   0.1428   0.3465  -0.0501  -0.0501   0.1984   0.00    1.4
2158 455442.000   22.302182817  114.188704604     5.2393   2  13   0.1820   0.1415   0.3416  -0.0492  -0.0473   0.1940   0.00    1.1
2158 455443.000   22.302172509  114.188702861     5.2537   2  12   0.1789   0.1405   0.3388  -0.0488  -0.0460   0.1911   0.00    1.2
2158 455444.000   22.302148242  114.188694674     5.3143   2   7   0.1770   0.1395   0.3375  -0.0482  -0.0450   0.1898   0.00    1.3
2158 455445.000   22.302110195  114.188678499     5.2981   2  10   0.1748   0.1385   0.3354  -0.0470  -0.0426   0.1878   0.00    1.1
2158 455446.000   22.302062324  114.188653097     5.3599   2   7   0.1729   0.1378   0.3348  -0.0468  -0.0399   0.1865   0.00    1.2
2158 455447.000   22.302006593  114.188620839     5.9900   4   3   0.2541   0.2356   0.6562   0.1831   0.3267   0.3743   0.00    0.0
2158 455448.000   22.301952178  114.188593117     8.6109   4   2   0.4583   0.4945   1.3199   0.4319   0.7479   0.7596   0.00    0.0
2158 455449.000   22.301884499  114.188530736     6.0981   4   2   0.1703   0.1384   0.3443  -0.0434  -0.0441   0.1878   0.00    0.0
2158 455450.000   22.301827454  114.188477310     5.9900   2   5   0.1689   0.1366   0.3420  -0.0447  -0.0481   0.1861   0.00    1.0
2158 455451.000   22.301773284  114.188419182     5.7534   2   6   0.1669   0.1329   0.3272  -0.0448  -0.0374   0.1812   0.00    1.3
2158 455452.000   22.301724465  114.188357123     5.9622   2   4   0.1660   0.1349   0.3394  -0.0440  -0.0462   0.1840   0.00    1.1
2158 455453.000   22.301699463  114.188329612     7.2094   4   0   0.4829   0.8427   0.8020   0.5930  -0.0702   0.3850   0.00    0.0
2158 455454.000   22.301655766  114.188267052    12.0209   4   2   0.5102   0.7683   1.5699   0.3271   0.4814   0.8777   0.00    0.0
2158 455455.000   22.301626873  114.188206260    12.5530   4   2   0.7698   1.0675   2.3070   0.7588   0.1458   1.1082   0.00    0.0
2158 455456.000   22.301579691  114.188112364    15.7931   2   4   0.8344   1.1500   2.8057   0.7668  -0.5672   1.2841   0.00    0.0
2158 455457.000   22.301525185  114.188023450    12.8348   2   5   0.6878   1.0513   2.6354   0.5992  -0.9129   1.0870   0.00    0.0
2158 455458.000   22.301477323  114.187956580     6.1216   2   4   0.5833   0.9850   0.4899   0.7374   0.5162   0.4439   0.00    0.0
2158 455459.000   22.301440017  114.187879017     5.3585   4   3   0.5290   0.8926   1.8054   0.6596   0.1414   0.4601   0.00    0.0
2158 455460.000   22.301417103  114.187825236     8.1054   4   2   0.3843   0.6889   2.0263   0.4765  -0.7310  -0.2728   0.00    0.0
2158 455461.000   22.301395025  114.187790200     4.8989   4   0   1.0194   0.6911   1.9950   0.0510  -0.8790   0.5993   0.00    0.0
2158 455462.000   22.301385340  114.187743909     3.3561   4   2   1.1475   1.1449   2.1595  -0.5182  -0.4286   0.6898   0.00    0.0
2158 455463.000   22.301378238  114.187738433     1.1441   4   2   1.1149   0.8408   2.0965  -0.3459  -0.8299   0.7594   0.00    0.0
2158 455464.000   22.301359584  114.187738701     0.8839   4   3   1.1844   1.0082   2.1395  -0.7019  -1.0082   0.5347   0.00    0.0
2158 455465.000   22.301365345  114.187717372     3.3343   2   5   0.9846   0.9794   1.9094  -0.7584  -1.0201   0.8971   0.00    0.0
2158 455466.000   22.301368110  114.187708333     5.0348   2   4   0.9159   0.8821   1.9658  -0.7214  -0.9589   0.8848   0.00    0.0
2158 455467.000   22.301368850  114.187706902     4.3449   2   4   1.1496   0.9057   2.4379  -0.8646  -0.8092   0.1164   0.00    0.0
2158 455468.000   22.301367933  114.187705086     2.2847   2   4   1.1869   0.8960   2.6400  -0.8854  -0.8149  -0.4532   0.00    0.0
2158 455469.000   22.301359195  114.187716071    -1.1997   2   8   0.8802   0.8020   2.4187  -0.7044  -1.0197   0.7615   0.00    0.0
2158 455470.000   22.301360451  114.187716094     0.1422   2   7   0.7558   0.6354   1.7276  -0.5595  -0.6255   0.4622   0.00    0.0
2158 455471.000   22.301352151  114.187723615     0.0646   2   6   0.7148   0.5824   1.4916  -0.5201  -0.5164   0.4172   0.00    0.0
2158 455472.000   22.301344961  114.187731002    -1.3865   2   7   0.6842   0.5510   1.3764  -0.4958  -0.4781   0.4179   0.00    0.0
2158 455473.000   22.301338250  114.187735451    -1.8796   2   6   0.6577   0.5247   1.2873  -0.4750  -0.4492   0.4156   0.00    0.0
2158 455474.000   22.301331614  114.187735579    -0.8931   2   4   0.6297   0.5047   1.2076  -0.4568  -0.4388   0.4317   0.00    0.0
2158 455475.000   22.301317825  114.187741436    -1.0503   2   6   0.9420   0.9031   1.3358  -0.8621  -0.8427   0.8313   0.00    0.0
2158 455476.000   22.301292536  114.187730941    -0.1337   4   2   1.5962   1.2459   1.8780  -0.9140  -0.7784   1.0617   0.00    0.0
2158 455477.000   22.301323785  114.187714200     0.6832   4   2   1.5388   0.8729   2.5935  -0.3502   0.3540   0.7228   0.00    0.0
2158 455478.000   22.301341685  114.187682839     4.8138   4   2   1.5824   1.2075   2.6951  -0.8063  -0.2620   1.0419   0.00    0.0
2158 455479.000   22.301347259  114.187698126     6.4380   4   0   1.6540   1.3242   2.7009  -0.9611  -0.8058   1.3725   0.00    0.0
2158 455480.000   22.301309428  114.187769320     6.5253   4   2   1.5053   1.2619   2.6828  -0.8362  -0.7940   1.3094   0.00    0.0
2158 455481.000   22.301297604  114.187839466     1.5335   4   3   1.5622   1.3285   2.7335  -0.9541  -0.9323   1.4041   0.00    0.0
2158 455482.000   22.301338341  114.187863610     2.2669   4   3   1.0383   0.9354   2.4030  -0.4667   0.5134   1.0969   0.00    0.0
2158 455483.000   22.301379790  114.187898409     4.2974   4   3   0.8350   0.9127   2.1896   0.2282   1.1317   0.9264   0.00    0.0
2158 455484.000   22.301407259  114.187944681     3.4485   4   3   0.6739   0.5977   1.4976  -0.2638   0.5888   0.5915   0.00    0.0
2158 455485.000   22.301450536  114.187992056     4.7269   2   5   0.5834   0.5181   1.2715  -0.2440   0.4574   0.4751   0.00    0.0
2158 455486.000   22.301489780  114.188040518     4.9165   2   5   0.5315   0.4723   1.1580  -0.2186   0.3945   0.4330   0.00    0.0
2158 455487.000   22.301525028  114.188094659     4.9734   2   6   0.6772   0.9146   1.1147   0.5655   0.5085   0.5184   0.00    0.0
2158 455488.000   22.301565301  114.188148461     6.0420   2   4   0.6048   0.7461   1.3501   0.4388   0.6807   0.6519   0.00    0.0
2158 455489.000   22.301620735  114.188183720     8.2760   4   0   1.2364   1.1361   1.8996  -0.7633   0.8269   1.0946   0.00    0.0
2158 455490.000   22.301643333  114.188229753     7.8435   4   0   0.8037   1.0097   1.9549  -0.2369   1.1039   0.8591   0.00    0.0
2158 455491.000   22.301681566  114.188306304    16.5918   2   5   0.5406   0.7243   1.7177   0.4310   0.9204   0.7811   0.00    0.0
2158 455492.000   22.301710085  114.188351386    20.0662   2   5   1.0820   1.0559   1.7796  -0.7020   0.8508   0.9677   0.00    0.0
2158 455493.000   22.301726068  114.188359056    17.8541   2   8   0.4369   0.5330   1.2457   0.2504   0.5776   0.5472   0.00    0.0
2158 455494.000   22.301735755  114.188367176    16.8788   2   9   0.3995   0.4682   1.0819   0.1737   0.4496   0.4618   0.00    0.0
2158 455495.000   22.301741640  114.188369177    16.3878   2   8   0.3762   0.4317   0.9904   0.1240   0.3794   0.4141   0.00    0.0
2158 455496.000   22.301742896  114.188366119    15.7944   2   8   0.3580   0.4049   0.9232   0.0799   0.3291   0.3795   0.00    0.0
2158 455497.000   22.301744180  114.188364778    15.7736   2   8   0.3437   0.3830   0.8705   0.0251   0.2889   0.3547   0.00    0.0
2158 455498.000   22.301745532  114.188362762    15.6308   2   8   0.3305   0.3656   0.8259  -0.0585   0.2562   0.3324   0.00    0.0
2158 455499.000   22.301746793  114.188360860    15.4955   2   9   0.3192   0.3504   0.7883  -0.0797   0.2283   0.3140   0.00    0.0
2158 455500.000   22.301747995  114.188359433    15.3285   2   9   0.3096   0.3385   0.7603  -0.0886   0.2105   0.3008   0.00    0.0
2158 455501.000   22.301749194  114.188358253    15.1817   2   9   0.3011   0.3278   0.7354  -0.0947   0.1946   0.2897   0.00    0.0
2158 455502.000   22.301750448  114.188357665    15.1075   2  10   0.2924   0.3181   0.7105  -0.0997   0.1795   0.2773   0.00    0.0
2158 455503.000   22.301751575  114.188357329    15.0865   2   9   0.2850   0.3089   0.6876  -0.1037   0.1639   0.2670   0.00    0.0
2158 455504.000   22.301752705  114.188357163    15.1055   2  10   0.2781   0.3005   0.6669  -0.1065   0.1498   0.2580   0.00    0.0
2158 455505.000   22.301753737  114.188356876    15.0834   2  10   0.2717   0.2927   0.6480  -0.1085   0.1371   0.2497   0.00    0.0
2158 455506.000   22.301754626  114.188356371    15.0715   2   9   0.2659   0.2855   0.6307  -0.1098   0.1262   0.2424   0.00    0.0
2158 455507.000   22.301755574  114.188356253    15.0283   2   9   0.2604   0.2789   0.6149  -0.1105   0.1157   0.2357   0.00    0.0
2158 455508.000   22.301756470  114.188356699    15.0150   2   8   0.2555   0.2732   0.6025  -0.1101   0.1096   0.2308   0.00    0.0
2158 455509.000   22.301757431  114.188357067    15.0280   2   9   0.2506   0.2677   0.5901  -0.1099   0.1027   0.2256   0.00    0.0
2158 455510.000   22.301758251  114.188357355    15.0290   2   8   0.2463   0.2626   0.5790  -0.1091   0.0973   0.2215   0.00    0.0
2158 455511.000   22.301759165  114.188357503    15.0537   2   9   0.2419   0.2577   0.5681  -0.1087   0.0916   0.2168   0.00    0.0
2158 455512.000   22.301760109  114.188357434    15.0464   2   9   0.2378   0.2530   0.5579  -0.1080   0.0863   0.2128   0.00    0.0
2158 455513.000   22.301760981  114.188357315    15.0405   2   8   0.2341   0.2487   0.5487  -0.1068   0.0825   0.2095   0.00    0.0
2158 455514.000   22.301761941  114.188357570    15.1114   2   9   0.2301   0.2444   0.5392  -0.1061   0.0775   0.2054   0.00    0.0
2158 455515.000   22.301762943  114.188357797    15.2038   2   9   0.2265   0.2404   0.5305  -0.1051   0.0735   0.2019   0.00    0.0
2158 455516.000   22.301763848  114.188358047    15.3207   2   9   0.2231   0.2366   0.5223  -0.1042   0.0701   0.1986   0.00    0.0
2158 455517.000   22.301765015  114.188358297    15.4609   2  10   0.2191   0.2329   0.5136  -0.1034   0.0651   0.1945   0.00    0.0
2158 455518.000   22.301765776  114.188358646    15.5591   2  10   0.2162   0.2292   0.5062  -0.1017   0.0623   0.1924   0.00    0.0
2158 455519.000   22.301766719  114.188358926    15.7568   2   9   0.2132   0.2258   0.4990  -0.1006   0.0586   0.1897   0.00    0.0
2158 455520.000   22.301767676  114.188359756    16.0545   2  10   0.2101   0.2224   0.4917  -0.0994   0.0557   0.1868   0.00    0.0
2158 455521.000   22.301768162  114.188359571    16.0553   2  10   0.2073   0.2194   0.4858  -0.0980   0.0554   0.1847   0.00    0.0
2158 455522.000   22.301768641  114.188359620    16.0870   2  10   0.2045   0.2165   0.4802  -0.0965   0.0552   0.1825   0.00    0.0
2158 455523.000   22.301769240  114.188359582    16.1223   2  10   0.2018   0.2137   0.4747  -0.0951   0.0550   0.1805   0.00    0.0
2158 455524.000   22.301771701  114.188361700    16.1862   2   9   0.1995   0.2110   0.4697  -0.0933   0.0564   0.1791   0.00    0.0
2158 455525.000   22.301778583  114.188370177    16.5322   2   9   0.1970   0.2082   0.4643  -0.0917   0.0565   0.1773   0.00    1.2
2158 455526.000   22.301793131  114.188388437    16.6077   2   6   0.1978   0.2054   0.4684  -0.0884   0.0608   0.1852   0.00    0.0
2158 455527.000   22.301815817  114.188412504    16.6824   2   7   0.1918   0.2029   0.4539  -0.0884   0.0550   0.1738   0.00    1.1
2158 455528.000   22.301845467  114.188442569    16.7968   2   5   0.1925   0.2004   0.4579  -0.0848   0.0612   0.1810   0.00    1.1
2158 455529.000   22.301881086  114.188472102    16.3103   2   5   0.1917   0.1990   0.4578  -0.0809   0.0695   0.1837   0.00    1.4
2158 455530.000   22.301925400  114.188505302    16.5894   2   5   0.1891   0.1983   0.4564  -0.0799   0.0773   0.1818   0.00    1.1
2158 455531.000   22.301975742  114.188536774    16.5601   4   3   0.1884   0.1973   0.4570  -0.0758   0.0852   0.1845   0.00    0.0
2158 455532.000   22.302029495  114.188564304    16.2714   4   2   0.1856   0.1914   0.4408  -0.0799   0.0553   0.1776   0.00    0.0
2158 455533.000   22.302087036  114.188589827    16.2261   4   3   0.1842   0.1892   0.4374  -0.0791   0.0531   0.1773   0.00    0.0
2158 455534.000   22.302145520  114.188610674    16.0955   4   2   0.1829   0.1873   0.4351  -0.0779   0.0534   0.1775   0.00    0.0
2158 455535.000   22.302201404  114.188627098    15.8775   2   6   0.1813   0.1852   0.4314  -0.0775   0.0502   0.1766   0.00    1.0
2158 455536.000   22.302253678  114.188639643    15.7106   2   5   0.1794   0.1829   0.4273  -0.0773   0.0452   0.1749   0.00    1.7
2158 455537.000   22.302301641  114.188649396    15.5874   2   4   0.1777   0.1809   0.4239  -0.0765   0.0439   0.1737   0.00    1.3
2158 455538.000   22.302345664  114.188657234    15.4793   4   3   0.1760   0.1787   0.4199  -0.0762   0.0399   0.1720   0.00    0.0
2158 455539.000   22.302381144  114.188662301    15.3074   2   5   0.1748   0.1773   0.4178  -0.0744   0.0429   0.1719   0.00    1.2
2158 455540.000   22.302406304  114.188664678    15.3047   4   3   0.1735   0.1755   0.4156  -0.0728   0.0451   0.1715   0.00    0.0
2158 455541.000   22.302421959  114.188665592    15.2541   4   0   0.1758   0.1748   0.4301  -0.0698   0.0468   0.1823   0.00    0.0
2158 455542.000   22.302430362  114.188665110    15.0753   4   0   0.1736   0.1725   0.4176  -0.0670   0.0578   0.1770   0.00    0.0
2158 455543.000   22.302434178  114.188664043    14.9979   4   0   0.1710   0.1699   0.4131  -0.0684   0.0521   0.1736   0.00    0.0
2158 455544.000   22.302434616  114.188662750    14.9014   4   0   0.2285   0.1688   0.7872  -0.0537   0.0987   0.3640   0.00    0.0
2158 455545.000   22.302435063  114.188661529    14.8635   4   0   0.1683   0.1664   0.4073  -0.0668   0.0509   0.1715   0.00    0.0
2158 455546.000   22.302435223  114.188660237    14.7179   4   2   0.1696   0.1650   0.4190  -0.0631   0.0620   0.1798   0.00    0.0
2158 455547.000   22.302435868  114.188659023    14.7033   4   3   0.1652   0.1636   0.4016  -0.0638   0.0554   0.1687   0.00    0.0
2158 455548.000   22.302436224  114.188657923    14.6317   4   0   0.1646   0.1618   0.4000  -0.0628   0.0544   0.1692   0.00    0.0
2158 455549.000   22.302436519  114.188656907    14.5365   4   2   0.1635   0.1602   0.3976  -0.0621   0.0537   0.1684   0.00    0.0
2158 455550.000   22.302436714  114.188655972    14.4513   4   0   0.1622   0.1586   0.3950  -0.0616   0.0531   0.1674   0.00    0.0
2158 455551.000   22.302437090  114.188655037    14.3656   4   0   0.1611   0.1573   0.3932  -0.0605   0.0540   0.1669   0.00    0.0
2158 455552.000   22.302437483  114.188654067    14.3696   4   0   0.1600   0.1559   0.3912  -0.0598   0.0541   0.1663   0.00    0.0
2158 455553.000   22.302437693  114.188653268    14.2831   4   0   0.1590   0.1547   0.3894  -0.0587   0.0550   0.1659   0.00    0.0
2158 455554.000   22.302437990  114.188652403    14.2093   4   0   0.1581   0.1534   0.3876  -0.0578   0.0556   0.1654   0.00    0.0
2158 455555.000   22.302438245  114.188651765    14.1660   4   0   0.1571   0.1522   0.3859  -0.0568   0.0562   0.1650   0.00    0.0
2158 455556.000   22.302438557  114.188651231    14.1553   4   0   0.1568   0.1514   0.3852  -0.0561   0.0575   0.1653   0.00    0.0
2158 455557.000   22.302439059  114.188650773    14.1963   4   0   0.1560   0.1506   0.3840  -0.0550   0.0590   0.1649   0.00    0.0
2158 455558.000   22.302438857  114.188650040    14.0223   4   0   0.1548   0.1496   0.3829  -0.0541   0.0612   0.1638   0.00    0.0
2158 455559.000   22.302439048  114.188649431    13.9767   4   0   0.1539   0.1485   0.3804  -0.0535   0.0610   0.1632   0.00    0.0
2158 455560.000   22.302439341  114.188649176    13.9666   4   0   0.1549   0.1479   0.3880  -0.0514   0.0669   0.1681   0.00    0.0
2158 455561.000   22.302439773  114.188648991    13.9787   4   0   0.1542   0.1471   0.3869  -0.0505   0.0685   0.1676   0.00    0.0
2158 455562.000   22.302439986  114.188648719    13.8017   4   0   0.1523   0.1462   0.3775  -0.0511   0.0652   0.1626   0.00    0.0
2158 455563.000   22.302444067  114.188648489    13.8220   4   0   0.1516   0.1454   0.3762  -0.0505   0.0658   0.1620   0.00    0.0
2158 455564.004   22.302453580  114.188649001    13.7705   4   0   0.1504   0.1444   0.3741  -0.0497   0.0663   0.1608   0.00    0.0
2158 455565.000   22.302473025  114.188649689    13.7901   4   0   0.1494   0.1435   0.3727  -0.0490   0.0670   0.1604   0.00    0.0
2158 455566.000   22.302501392  114.188648441    13.8003   4   0   0.1486   0.1428   0.3724  -0.0483   0.0676   0.1602   0.00    0.0
2158 455567.000   22.302538218  114.188644525    13.8100   4   0   0.1506   0.1428   0.3857  -0.0437   0.0779   0.1688   0.00    0.0
2158 455568.000   22.302582010  114.188636044    13.6644   4   0   0.1470   0.1416   0.3704  -0.0470   0.0695   0.1594   0.00    0.0
2158 455569.000   22.302629090  114.188611352    14.2330   4   0   0.3339   0.7996   0.5254   0.4830  -0.5256  -0.2810   0.00    0.0
2158 455570.000   22.302685046  114.188604415    13.3695   4   0   0.1452   0.1401   0.3666  -0.0458   0.0697   0.1576   0.00    0.0
2158 455571.000   22.302739400  114.188583451    13.0222   2   9   0.1442   0.1474   0.3874  -0.0479  -0.0390   0.1588   0.00    1.1
2158 455572.000   22.302796753  114.188533862    13.8371   2   8   0.1510   1.0138   0.4954  -0.2130  -0.5657   0.2005   0.00    0.0
2158 455573.000   22.302850386  114.188509833    13.3077   2   5   0.2165   0.6428   0.4181   0.2888  -0.3344   0.0356   0.00    0.0
2158 455574.000   22.302909727  114.188471429    13.1143   2   8   0.2315   0.5642   0.4049   0.2742  -0.2876   0.0633   0.00    0.0
2158 455575.000   22.302969935  114.188433856    12.5503   2  11   0.1420   0.3331   0.3822  -0.0689  -0.1578   0.1604   0.00    1.2
2158 455576.000   22.303021588  114.188376591    12.3363   2   7   0.2163   0.5081   0.3953   0.2445  -0.2573   0.0860   0.00    0.0
2158 455577.000   22.303062259  114.188294231    12.1804   2   6   0.4463   0.9912   0.4139   0.6275  -0.4194  -0.2094   0.00    0.0
2158 455578.000   22.303099636  114.188192071    10.6518   4   0   1.1609   1.4905   1.1004   0.5970  -0.4090   0.3054   0.00    0.0
2158 455579.000   22.303158472  114.188155384     4.0751   4   0   1.2144   1.4163   2.3921   0.4547  -0.5476   0.8507   0.00    0.0
2158 455580.000   22.303203978  114.188101759    -0.7969   2   5   1.2021   1.3949   2.7539   0.3696  -0.8428   0.9432   0.00    0.0
2158 455581.000   22.303249313  114.187980482     8.3452   2   5   0.8908   1.2862   1.8635   0.5527  -0.9453   0.4605   0.00    0.0
2158 455582.000   22.303301640  114.187890931     7.5676   2   6   0.8051   1.4197   1.6735   0.7211  -1.0288   0.0916   0.00    0.0
2158 455583.000   22.303363838  114.187818589     6.5506   2   5   0.7603   1.3453   1.5880   0.6894  -0.9639   0.2736   0.00    0.0
2158 455584.000   22.303438179  114.187746432     6.5377   4   2   1.1703   1.6097   1.9444   0.6051  -0.9393   0.4982   0.00    0.0
2158 455585.000   22.303507998  114.187689174     4.3791   4   2   0.9707   1.4853   1.8322   0.9792  -0.9299   0.4665   0.00    0.0
2158 455586.000   22.303579987  114.187611282     4.6504   4   0   1.3193   1.5556   2.2077   0.7208  -1.2806   1.1831   0.00    0.0
2158 455587.000   22.303621325  114.187530699     4.2792   4   0   1.4765   1.8124   2.8950   0.8260  -0.9955   1.3440   0.00    0.0
2158 455588.000   22.303659182  114.187510454     6.8749   4   0   1.8484   2.0187   4.1107   1.0026  -1.0426   1.7706   0.00    0.0
2158 455589.004   22.303684231  114.187543768     4.2383   4   0   2.2872   2.7400   5.9141   1.0169  -2.1974   2.3167   0.00    0.0
2158 455590.000   22.303614745  114.187115732     1.9826   4   0   2.3178   4.0880   6.4163   1.4793  -2.3456   3.0782   0.00    0.0
2158 455591.000   22.303615591  114.186813314   -10.4082   4   0   2.6442   2.6791   5.8848   2.1221   2.7922   3.4845   0.00    0.0
2158 455592.000   22.303764342  114.186550026    27.6619   4   2   2.1389   2.4505   5.1783   1.6689   2.4229   2.8898   0.00    0.0
2158 455593.000   22.303890360  114.186436239    63.0642   2   4   2.1711   2.0679   5.3789   1.3766   2.2601   3.0359   0.00    0.0
2158 455594.000   22.303964469  114.186366746    76.4317   4   0   2.4362   2.1343   5.7540   1.5746   2.4865   3.3790   0.00    0.0
2158 455595.000   22.304169387  114.186445341   119.4763   4   0   1.8609   1.4216   4.4448  -0.4588  -0.3986   2.3989   0.00    0.0
2158 455596.000   22.304275621  114.186647172   109.9846   4   0   2.0014   2.6722   5.7834   0.5516  -2.2399   2.6185   0.00    0.0
2158 455597.000   22.304337981  114.186802790    80.7186   4   2   2.5595   4.3939   6.3921   2.2523  -2.1057   3.1297   0.00    0.0
2158 455598.000   22.304224036  114.186790769    38.0584   4   3   1.9011   1.9418   3.8309   1.0395  -1.1994   2.0978   0.00    0.0
2158 455599.000   22.304164930  114.186674996    29.1640   2   5   1.9089   2.4205   4.5084  -0.8974  -2.7007   2.3451   0.00    0.0
2158 455600.000   22.304172112  114.186645820    12.3324   2   4   1.7578   1.7104   3.6344   0.6469  -1.3393   1.7621   0.00    0.0
2158 455601.000   22.304249976  114.186610073    23.3153   2   4   1.6373   1.8697   2.8829   0.5912  -1.6178   1.5525   0.00    0.0
2158 455602.000   22.304284521  114.186596505    22.1297   4   3   1.5545   1.0771   2.5108  -0.3795  -1.0625   1.5570   0.00    0.0
2158 455603.000   22.304313582  114.186579101    21.1103   2   7   1.1839   0.9068   2.2155  -0.2973  -0.8667   1.2906   0.00    0.0
2158 455604.000   22.304318452  114.186563252    18.2966   2   5   0.9113   0.8077   1.9550  -0.0450  -0.7232   1.0237   0.00    0.0
2158 455605.000   22.304344413  114.186555738    16.6378   2   4   0.9070   1.2833   1.8732   0.6861  -0.9781   0.7714   0.00    0.0
2158 455606.000   22.304358093  114.186523424    16.2735   2   6   0.9210   1.5890   1.8074   0.9098  -1.1223   0.5815   0.00    0.0
2158 455607.000   22.304370847  114.186495874    16.0630   2   7   0.7526   1.0426   1.6395   0.5418  -0.7707   0.6977   0.00    0.0
2158 455608.000   22.304384678  114.186471029    15.7613   2   7   0.6891   0.8955   1.5466   0.4486  -0.6638   0.6803   0.00    0.0
2158 455609.000   22.304397031  114.186449153    15.4398   2   7   0.6409   0.7945   1.4726   0.3852  -0.5919   0.6580   0.00    0.0
2158 455610.000   22.304405610  114.186430472    15.1590   2   7   0.6031   0.7229   1.4100   0.3417  -0.5395   0.6352   0.00    0.0
2158 455611.000   22.304411630  114.186413848    15.2339   2   9   0.5685   0.6720   1.3608   0.3048  -0.5139   0.6112   0.00    0.0
2158 455612.000   22.304415228  114.186399273    15.3488   2   9   0.5408   0.6499   1.3200   0.2874  -0.5044   0.5873   0.00    0.0
2158 455613.000   22.304417691  114.186392636    14.9784   2   9   0.5133   0.5997   1.2729   0.2547  -0.4719   0.5681   0.00    0.0
2158 455614.000   22.304418389  114.186385522    14.5948   2   9   0.4914   0.5642   1.2311   0.2344  -0.4452   0.5503   0.00    0.0
2158 455615.000   22.304417039  114.186382397    14.2610   2   9   0.4724   0.5348   1.1932   0.2185  -0.4234   0.5338   0.00    0.0
2158 455616.000   22.304414307  114.186381284    13.9181   2   9   0.4555   0.5097   1.1588   0.2052  -0.4045   0.5188   0.00    0.0
2158 455617.000   22.304411551  114.186380092    13.7563   2   9   0.4402   0.4879   1.1272   0.1938  -0.3879   0.5049   0.00    0.0
2158 455618.000   22.304409013  114.186379115    13.6258   2   9   0.4261   0.4687   1.0986   0.1832  -0.3739   0.4919   0.00    0.0
2158 455619.000   22.304407160  114.186378550    13.5077   2   8   0.4135   0.4520   1.0722   0.1747  -0.3615   0.4799   0.00    0.0
2158 455620.000   22.304405266  114.186377483    13.4604   2  11   0.4015   0.4354   1.0464   0.1660  -0.3487   0.4689   0.00    0.0
2158 455621.000   22.304403699  114.186376491    13.4456   2  10   0.3908   0.4216   1.0236   0.1589  -0.3383   0.4586   0.00    0.0
2158 455622.000   22.304402465  114.186375478    13.4119   2   9   0.3809   0.4089   1.0018   0.1525  -0.3282   0.4490   0.00    0.0
2158 455623.000   22.304402055  114.186375393    13.3018   2  10   0.3715   0.3966   0.9808   0.1457  -0.3179   0.4402   0.00    0.0
2158 455624.000   22.304402592  114.186374056    13.1903   2   9   0.3627   0.3855   0.9614   0.1398  -0.3089   0.4319   0.00    0.0
2158 455625.000   22.304404836  114.186370726    13.1018   2   8   0.3545   0.3756   0.9437   0.1344  -0.3012   0.4240   0.00    0.0
2158 455626.000   22.304409907  114.186365892    12.9758   2   8   0.3469   0.3662   0.9265   0.1294  -0.2935   0.4166   0.00    0.0
2158 455627.000   22.304413940  114.186361381    12.9185   2   9   0.3382   0.3569   0.9042   0.1231  -0.2872   0.4060   0.00    0.0
2158 455628.000   22.304415562  114.186360765    12.7308   2  11   0.3298   0.3482   0.8843   0.1167  -0.2824   0.3964   0.00    0.0
2158 455629.000   22.304418096  114.186359380    12.5045   2  11   0.3221   0.3402   0.8649   0.1111  -0.2769   0.3872   0.00    0.0
2158 455630.000   22.304424680  114.186353242    12.2052   2  10   0.3146   0.3327   0.8455   0.1057  -0.2722   0.3776   0.00    0.0
2158 455631.000   22.304438565  114.186338305    11.8870   2   8   0.3079   0.3259   0.8294   0.1010  -0.2681   0.3696   0.00    0.0
2158 455632.000   22.304460242  114.186315256    11.7212   2  10   0.3015   0.3189   0.8129   0.0963  -0.2626   0.3624   0.00    0.0
2158 455633.000   22.304488129  114.186284806    11.5877   2   9   0.2964   0.3127   0.8023   0.0929  -0.2577   0.3580   0.00    0.0
2158 455634.000   22.304522876  114.186250899    11.2698   2   8   0.2954   0.3322   0.7911   0.1185  -0.2569   0.3527   0.00    0.0
2158 455635.000   22.304559656  114.186205253    11.3921   2   7   0.3289   0.5609   0.8159   0.2888  -0.4138   0.2917   0.00    0.0
2158 455636.000   22.304599488  114.186162030    11.2826   2   9   0.2869   0.3178   0.7706   0.1119  -0.2447   0.3445   0.00    0.0
2158 455637.000   22.304636317  114.186117756    11.2392   2   8   0.2839   0.3173   0.7612   0.1151  -0.2410   0.3404   0.00    0.0
2158 455638.000   22.304671661  114.186076340    11.2655   2   8   0.2823   0.3193   0.7529   0.1224  -0.2354   0.3375   0.00    0.0
2158 455639.000   22.304702864  114.186033440    11.3585   2   6   0.2773   0.3101   0.7456   0.1136  -0.2321   0.3345   0.00    0.0
2158 455640.000   22.304736881  114.185996314    11.3718   2   7   0.2755   0.3121   0.7380   0.1200  -0.2269   0.3318   0.00    0.0
2158 455641.000   22.304769568  114.185957664    11.4755   2   5   0.2728   0.3118   0.7337   0.1222  -0.2289   0.3274   0.00    0.0
2158 455642.000   22.304809523  114.185932665    11.6213   2   5   0.2700   0.3067   0.7247   0.1208  -0.2235   0.3241   0.00    0.0
2158 455643.000   22.304851398  114.185918374    11.8321   2   5   0.2679   0.3035   0.7167   0.1218  -0.2172   0.3217   0.00    0.0
2158 455644.000   22.304893298  114.185923630    11.8807   2   6   0.2650   0.2990   0.7085   0.1200  -0.2130   0.3184   0.00    0.0
2158 455645.000   22.304930039  114.185944741    11.8457   2   8   0.2578   0.2725   0.6984   0.0938  -0.1962   0.3183   0.00    0.0
2158 455646.000   22.304961671  114.185970527    11.6052   2   5   0.6205   1.0157   0.8765   0.7500   0.6967   0.6341   0.00    0.0
2158 455647.000   22.304984183  114.186012010    10.6309   4   2   1.0045   1.1955   1.5861  -0.4535   0.7580   1.0728   0.00    0.0
2158 455648.000   22.305005495  114.186060579     9.6404   2   4   1.2910   1.1591   2.7244  -0.5427   0.8351   1.6936   0.00    0.0
2158 455649.000   22.305001424  114.186142778     5.6148   4   2   1.5457   1.2878   3.5124  -0.7992   0.5732   2.1561   0.00    0.0
2158 455650.000   22.304985732  114.186167798     4.7754   4   0   1.7369   1.5337   3.9209  -0.3769  -0.8438   2.1109   0.00    0.0
2158 455651.000   22.305010997  114.186170662    10.2022   4   0   1.7649   1.6407   4.0892  -0.3853  -0.9755   2.0839   0.00    0.0
2158 455652.000   22.305084401  114.186182743    18.9086   4   0   1.7467   1.4975   4.0027   0.2589  -0.4848   2.0306   0.00    0.0
2158 455653.000   22.305153139  114.186228068    27.2495   4   0   1.7491   1.4950   3.9946   0.2997  -0.4148   2.0284   0.00    0.0
2158 455654.000   22.305200181  114.186273416    27.4484   4   0   1.7513   1.4946   4.0100   0.2961  -0.4263   2.0359   0.00    0.0
2158 455655.000   22.305239760  114.186331951    28.7009   4   0   1.7651   1.4882   4.2271  -0.4697  -0.7470   2.2040   0.00    0.0
2158 455656.000   22.305263849  114.186441186    18.4766   4   0   1.7930   1.6382   4.2119  -0.3826  -0.9630   2.1571   0.00    0.0
2158 455657.000   22.305264667  114.186468324     8.5330   4   0   1.9769   1.6726   4.5085  -0.6335  -1.2046   2.4459   0.00    0.0
2158 455658.000   22.305246675  114.186472314     0.1237   4   0   1.8102   1.6471   4.2726  -0.4071  -1.0050   2.1955   0.00    0.0
2158 455659.000   22.305275681  114.186494361    -3.7456   4   0   1.7590   1.4882   4.0619   0.1144   0.2441   2.0731   0.00    0.0
2158 455660.000   22.305384573  114.186407959     7.9758   4   2   1.7068   1.4061   3.9411   0.4389   0.7160   1.9934   0.00    0.0
2158 455661.000   22.305456560  114.186326396     8.7602   2   5   1.7209   1.4923   4.0851   0.3646   0.2309   1.9894   0.00    0.0
2158 455662.000   22.305457333  114.186298508     7.4711   4   2   1.4030   1.5679   4.1427   0.9035  -0.6304   1.6467   0.00    0.0
2158 455663.000   22.305468451  114.186279882     9.0022   4   2   1.3396   1.7214   4.2480   1.1495  -0.9539   1.2428   0.00    0.0
2158 455664.000   22.305495075  114.186268499    10.0921   4   2   1.7396   1.7631   4.2361   0.9969  -1.1208   1.5430   0.00    0.0
2158 455665.000   22.305514955  114.186234914    10.3643   4   2   1.8380   1.7696   4.2891   0.9556  -1.1672   1.6990   0.00    0.0
2158 455666.000   22.305544891  114.186208070     9.0066   4   0   1.8453   1.7707   4.3235   0.9538  -1.1690   1.7145   0.00    0.0
2158 455667.000   22.305580966  114.186177390     6.7060   4   0   1.8469   1.7707   4.3352   0.9537  -1.1694   1.7128   0.00    0.0
2158 455668.000   22.305614455  114.186109156     3.7408   4   2   1.8417   1.7468   4.3181   0.9079  -1.2216   1.6631   0.00    0.0
2158 455669.000   22.305618162  114.186013228    15.8021   4   0   1.8483   2.0374   4.6658   0.9369  -1.6946   1.6943   0.00    0.0
2158 455670.000   22.305627987  114.185844437    38.5013   4   2   2.1226   3.2081   5.5402   1.6895  -2.3979   1.9558   0.00    0.0
2158 455671.000   22.305661117  114.185785787    62.7900   4   2   2.1806   3.4187   5.7704   1.7969  -2.6637   2.0350   0.00    0.0
2158 455672.000   22.305712619  114.185769578    75.0515   4   2   2.1706   3.4311   5.8209   1.7921  -2.7063   2.0562   0.00    0.0
2158 455673.000   22.305777800  114.185867875    74.9232   2   4   1.4175   2.3965   4.6841   1.3885  -2.1080   1.1661   0.00    0.0
2158 455674.000   22.305843325  114.185880018    78.6160   4   0   1.7692   2.5885   5.0926   0.9815  -2.5858   1.7032   0.00    0.0
2158 455675.000   22.305867520  114.185897062    77.9367   4   0   1.8546   2.6770   5.5100   0.8941  -2.8541   1.7999   0.00    0.0
2158 455676.000   22.305895909  114.185909975    70.9589   4   0   1.8509   2.7050   5.7389   0.8747  -2.9679   1.8274   0.00    0.0
2158 455677.000   22.306066985  114.186205091    25.7970   4   0   2.1848   3.5376   6.7010   1.8369  -4.0740  -0.6991   0.00    0.0
2158 455678.000   22.306199843  114.186457162   -23.5259   4   0   2.5359   3.8558   7.1769   2.1995  -4.5480  -1.8220   0.00    0.0
2158 455679.000   22.306307718  114.186617717   -61.1674   4   0   2.6237   3.9788   7.6352   2.3318  -4.8176  -2.2176   0.00    0.0
2158 455680.000   22.306256535  114.186577101   -72.4479   4   0   2.6061   4.6306   7.4479   2.7342  -4.7135  -1.5064   0.00    0.0
2158 455681.000   22.306210907  114.186451084   -49.8840   4   2   2.5670   4.5195   6.3534   2.6440  -4.0610   0.8472   0.00    0.0
2158 455682.000   22.306227386  114.186392858   -33.1679   4   2   2.5679   4.4565   6.1921   2.6372  -3.9043   0.8725   0.00    0.0
2158 455683.000   22.306270105  114.186365824   -16.6666   4   2   2.5639   4.4499   6.0731   2.6495  -3.8621   0.8733   0.00    0.0
2158 455684.000   22.306323333  114.186326551    -6.7553   4   0   2.5698   4.4560   5.9801   2.6467  -3.8488   0.9606   0.00    0.0
2158 455685.000   22.306277724  114.186081178    17.1760   4   0   2.2026   3.5291   5.5226   1.8478  -2.9452   1.9653   0.00    0.0
2158 455686.000   22.306302764  114.185977137    37.5985   4   0   2.3642   3.4982   6.0932   1.6360  -3.0805   2.5324   0.00    0.0
2158 455687.000   22.306329306  114.185926257    48.9186   4   0   2.3951   3.5193   6.4065   1.5914  -3.1719   2.6658   0.00    0.0
2158 455688.000   22.306330335  114.185883857    52.7742   4   0   2.3966   3.5215   6.4891   1.5754  -3.2047   2.6946   0.00    0.0
2158 455689.000   22.306336104  114.185819761    57.7554   4   0   2.3969   3.5197   6.4953   1.5729  -3.2052   2.6983   0.00    0.0
2158 455690.000   22.306345726  114.185737442    62.1324   4   0   2.0541   2.8733   6.4716  -0.1754  -3.3635   2.5752   0.00    0.0
2158 455691.000   22.306299784  114.185560407    66.2274   4   0   2.0377   2.8538   6.4702  -0.3427  -3.3766   2.5636   0.00    0.0
2158 455692.000   22.306198197  114.185261646    62.7489   2   4   2.0298   2.8009   6.4561  -0.4562  -3.3893   2.5541   0.00    0.0
2158 455693.000   22.306204590  114.185126791    78.1740   4   0   2.2615   3.0473   6.0249  -1.1292  -3.7599   2.8725   0.00    0.0
2158 455694.000   22.306211988  114.185089343    77.5271   4   2   1.9637   2.7505   4.7544   0.1293  -3.0983   2.0801   0.00    0.0
2158 455695.000   22.306243860  114.185049818    79.2724   4   0   2.0868   2.8115   4.6320  -0.5098  -3.1049   2.2114   0.00    0.0
2158 455696.000   22.306253343  114.185019317    78.4130   4   2   2.0932   2.7398   4.4151  -0.5411  -2.9930   2.1826   0.00    0.0
2158 455697.000   22.306221924  114.184974102    75.8767   2   4   2.0659   2.7686   4.2255  -0.3525  -2.9459   2.0777   0.00    0.0
2158 455698.000   22.306246554  114.184915280    77.5585   2   4   2.0468   3.2604   4.7377   1.7057  -2.9217   1.8963   0.00    0.0
2158 455699.000   22.306304794  114.184919398    78.0100   4   3   2.2105   3.3253   4.4441   1.5922  -3.2053   1.7910   0.00    0.0
2158 455700.000   22.306339804  114.184904214    80.8995   2   4   1.8686   3.2474   4.1170   1.9819  -2.5701   0.8891   0.00    0.0
2158 455701.000   22.306335468  114.184901791    70.4189   2   4   1.6338   2.7906   3.6738   1.7394  -0.8148   1.7357   0.00    0.0
2158 455702.000   22.306347074  114.184913503    66.2990   4   2   1.6990   2.8792   3.3685   1.9226   0.4606   1.6672   0.00    0.0
2158 455703.000   22.306374139  114.184948223    63.2425   4   2   1.3747   2.3244   3.7737   1.4875  -1.6745   0.8358   0.00    0.0
2158 455704.000   22.306362977  114.184911147    57.5546   4   2   1.3535   2.3308   4.2288   1.5224  -1.9225  -0.1740   0.00    0.0
2158 455705.000   22.306387703  114.184945371    46.9615   2   4   1.5127   2.6565   4.1753   1.8137  -1.4685   0.7804   0.00    0.0
2158 455706.000   22.306373873  114.184909790    52.5186   2   4   1.2979   2.2770   3.2461   1.5207  -2.0397  -0.8868   0.00    0.0
2158 455707.000   22.306367299  114.184895190    52.0066   2   4   1.1989   2.0993   2.9228   1.3934  -1.7199  -0.5349   0.00    0.0
2158 455708.000   22.306358511  114.184881629    50.3274   2   5   1.1447   2.0057   2.6553   1.3325  -1.7425  -0.6808   0.00    0.0
2158 455709.000   22.306357677  114.184886287    47.9513   2   5   0.8281   1.4081   2.3755   0.8319  -1.3457   0.3209   0.00    0.0
2158 455710.000   22.306357291  114.184889776    46.0843   2   5   0.7344   1.2140   2.2177   0.6689  -1.1968   0.4879   0.00    0.0
2158 455711.000   22.306355715  114.184891288    44.3250   2   5   0.6803   1.1030   2.1036   0.5765  -1.1133   0.5317   0.00    0.0
2158 455712.000   22.306354803  114.184894724    42.7698   2   5   0.6404   1.0224   2.0095   0.5097  -1.0512   0.5503   0.00    0.0
2158 455713.000   22.306353885  114.184897722    41.5876   2   5   0.6083   0.9588   1.9292   0.4571  -1.0012   0.5583   0.00    0.0
2158 455714.000   22.306359170  114.184907124    40.6491   2   5   0.8593   1.4765   1.9928   0.9527  -1.3202  -0.3533   0.00    0.0
2158 455715.000   22.306359851  114.184907079    40.3683   2   5   0.6268   1.0211   1.8450   0.5442  -1.0295   0.4664   0.00    0.0
2158 455716.000   22.306363457  114.184911893    39.9247   2   5   0.5886   0.9390   1.7904   0.4671  -0.9725   0.5112   0.00    0.0
2158 455717.000   22.306366564  114.184915275    39.6309   2   5   0.5640   0.8866   1.7473   0.4175  -0.9372   0.5300   0.00    0.0
2158 455718.000   22.306369564  114.184919271    39.3333   2   5   0.5439   0.8440   1.7090   0.3763  -0.9083   0.5419   0.00    0.0
2158 455719.000   22.306372075  114.184921815    39.2144   2   5   0.5268   0.8079   1.6743   0.3405  -0.8833   0.5498   0.00    0.0
2158 455720.000   22.306373928  114.184922444    39.3722   2   6   0.5118   0.7769   1.6426   0.3090  -0.8617   0.5549   0.00    0.0
2158 455721.000   22.306376199  114.184924184    39.3298   2   6   0.4981   0.7492   1.6119   0.2794  -0.8412   0.5594   0.00    0.0
2158 455722.000   22.306378144  114.184925331    39.4330   2   5   0.4871   0.7260   1.5865   0.2554  -0.8254   0.5592   0.00    0.0
2158 455723.000   22.306380638  114.184926991    39.3601   2   5   0.4823   0.7209   1.5583   0.2553  -0.8094   0.5607   0.00    0.0
2158 455724.000   22.306384323  114.184923583    39.4729   2   6   0.4665   0.6875   1.5360   0.2107  -0.7959   0.5606   0.00    0.0
2158 455725.000   22.306389756  114.184915288    38.8882   2   5   0.4557   0.6713   1.5120   0.1974  -0.7844   0.5500   0.00    0.0
2158 455726.000   22.306396274  114.184894232    38.1600   2   4   1.1670   0.6563   1.6676  -0.1151  -0.7912   1.0542   0.00    0.0
2158 455727.000   22.306423378  114.184861964    38.2992   2   5   0.4325   0.6414   1.4476   0.1723  -0.7571   0.5250   0.00    0.0
2158 455728.000   22.306449372  114.184825959    37.2654   4   3   0.4679   0.7443   1.7896   0.3292  -0.9986   0.1727   0.00    0.0
2158 455729.000   22.306477338  114.184788108    36.7778   2   5   0.4032   0.6027   1.3722   0.1201  -0.7187   0.5057   0.00    0.0
2158 455730.000   22.306526398  114.184789801    33.5786   4   2   0.7841   1.3790   1.5623   0.9260  -1.2198  -0.5443   0.00    0.0
2158 455731.000   22.306556458  114.184755400    33.0011   2   4   0.8937   1.5037   1.5111   1.0663  -1.2443  -0.6418   0.00    0.0
2158 455732.000   22.306572224  114.184699741    34.3707   2   4   0.5869   0.8897   1.2582   0.5776  -0.7772   0.2693   0.00    0.0
2158 455733.000   22.306600365  114.184684642    32.0432   2   5   0.5166   0.6976   1.1541   0.4349  -0.5978   0.4159   0.00    0.0
2158 455734.000   22.306621128  114.184667174    30.3495   2   7   0.4810   0.6216   1.1103   0.3702  -0.5338   0.4422   0.00    0.0
2158 455735.000   22.306636983  114.184649900    29.0973   2   7   0.4554   0.5675   1.0760   0.3237  -0.4877   0.4538   0.00    0.0
2158 455736.000   22.306650228  114.184639910    27.8617   2   7   0.4398   0.5471   1.0545   0.3032  -0.4646   0.4543   0.00    0.0
2158 455737.000   22.306658446  114.184623332    27.6383   2   6   0.4273   0.5365   1.0410   0.2911  -0.4648   0.4438   0.00    0.0
2158 455738.000   22.306666290  114.184615105    27.4459   2   7   0.4142   0.5113   1.0166   0.2725  -0.4432   0.4393   0.00    0.0
2158 455739.000   22.306668766  114.184604280    27.6070   2   7   0.3987   0.4717   0.9823   0.2442  -0.4009   0.4405   0.00    0.0
2158 455740.000   22.306670191  114.184604033    26.8056   2   7   0.3852   0.4366   0.9496   0.2197  -0.3606   0.4402   0.00    0.0
2158 455741.000   22.306670915  114.184610138    25.6674   2   7   0.3761   0.4080   0.9191   0.2044  -0.3220   0.4380   0.00    0.0
2158 455742.000   22.306670262  114.184614912    24.4590   2   7   0.3685   0.3793   0.8939   0.1896  -0.2841   0.4374   0.00    0.0
2158 455743.000   22.306669093  114.184617850    23.4718   2   9   0.3623   0.3619   0.8737   0.1819  -0.2574   0.4343   0.00    0.0
2158 455744.000   22.306668467  114.184620624    22.7320   2   7   0.3552   0.3467   0.8558   0.1728  -0.2395   0.4289   0.00    0.0
2158 455745.000   22.306667664  114.184623221    22.0205   2   9   0.3482   0.3331   0.8386   0.1646  -0.2225   0.4235   0.00    0.0
2158 455746.000   22.306667153  114.184625653    21.3902   2   8   0.3419   0.3220   0.8231   0.1581  -0.2086   0.4179   0.00    0.0
2158 455747.000   22.306666697  114.184627989    20.8606   2   9   0.3361   0.3118   0.8090   0.1521  -0.1958   0.4128   0.00    0.0
2158 455748.000   22.306666268  114.184629783    20.3849   2  10   0.3304   0.3021   0.7954   0.1462  -0.1835   0.4076   0.00    0.0
2158 455749.000   22.306665571  114.184631302    19.9387   2   8   0.3249   0.2937   0.7824   0.1410  -0.1735   0.4022   0.00    0.0
2158 455750.000   22.306665007  114.184632684    19.5696   2   9   0.3196   0.2860   0.7704   0.1363  -0.1640   0.3971   0.00    0.0
2158 455751.000   22.306664526  114.184633801    19.2574   2   8   0.3147   0.2789   0.7590   0.1319  -0.1552   0.3921   0.00    0.0
2158 455752.000   22.306664097  114.184634517    18.9422   2   9   0.3090   0.2720   0.7480   0.1265  -0.1478   0.3869   0.00    0.0
2158 455753.000   22.306663306  114.184634354    18.6041   2   9   0.3045   0.2665   0.7384   0.1236  -0.1379   0.3829   0.00    0.0
2158 455754.000   22.306662421  114.184634738    18.1918   2   8   0.2993   0.2598   0.7276   0.1193  -0.1293   0.3776   0.00    0.0
2158 455755.000   22.306661473  114.184634775    17.7975   2   8   0.2943   0.2537   0.7174   0.1153  -0.1211   0.3726   0.00    0.0
2158 455756.000   22.306660460  114.184634470    17.4107   2   9   0.2895   0.2479   0.7076   0.1115  -0.1135   0.3677   0.00    0.0
2158 455757.000   22.306659496  114.184633880    17.0772   2   9   0.2848   0.2425   0.6982   0.1080  -0.1063   0.3629   0.00    0.0
2158 455758.000   22.306658438  114.184633086    16.7588   2   9   0.2804   0.2376   0.6892   0.1047  -0.0994   0.3582   0.00    0.0
2158 455759.000   22.306657369  114.184632229    16.4839   2  10   0.2761   0.2328   0.6810   0.1016  -0.0928   0.3539   0.00    0.0
2158 455760.000   22.306656355  114.184631164    16.2212   2  10   0.2719   0.2284   0.6726   0.0986  -0.0867   0.3494   0.00    0.0
2158 455761.000   22.306655253  114.184629985    16.0057   2  11   0.2678   0.2243   0.6645   0.0957  -0.0807   0.3451   0.00    0.0
2158 455762.000   22.306654242  114.184629030    15.8184   2   8   0.2636   0.2206   0.6567   0.0929  -0.0747   0.3408   0.00    0.0
2158 455763.000   22.306653445  114.184627949    15.6767   2   8   0.2595   0.2165   0.6490   0.0900  -0.0700   0.3364   0.00    0.0
2158 455764.000   22.306652843  114.184626970    15.5732   2   8   0.2555   0.2129   0.6415   0.0873  -0.0649   0.3321   0.00    0.0
2158 455765.000   22.306651829  114.184626126    15.3789   2   8   0.2518   0.2098   0.6348   0.0843  -0.0622   0.3282   0.00    0.0
2158 455766.000   22.306651402  114.184625624    15.2568   2   8   0.2480   0.2071   0.6283   0.0814  -0.0590   0.3245   0.00    0.0
2158 455767.000   22.306651382  114.184625501    15.2498   2   8   0.2450   0.2044   0.6231   0.0796  -0.0539   0.3214   0.00    0.0
2158 455768.000   22.306650716  114.184625030    15.1135   2   9   0.2417   0.2016   0.6164   0.0771  -0.0518   0.3176   0.00    0.0
2158 455769.000   22.306650249  114.184624677    14.9867   2   9   0.2386   0.1991   0.6100   0.0751  -0.0478   0.3142   0.00    0.0
2158 455770.000   22.306650323  114.184624992    15.0069   2   9   0.2358   0.1972   0.6048   0.0737  -0.0409   0.3115   0.00    0.0
2158 455771.000   22.306650552  114.184625265    15.0147   2   9   0.2334   0.1949   0.5998   0.0729  -0.0330   0.3089   0.00    0.0
2158 455772.000   22.306650553  114.184625680    15.0414   2   9   0.2311   0.1932   0.5950   0.0719  -0.0230   0.3066   0.00    0.0
2158 455773.000   22.306650200  114.184625868    14.9842   2   8   0.2291   0.1913   0.5905   0.0713   0.0049   0.3044   0.00    0.0
2158 455774.000   22.306649710  114.184626104    14.9338   2   8   0.2273   0.1897   0.5860   0.0712   0.0248   0.3023   0.00    0.0
2158 455775.000   22.306649013  114.184625975    14.7327   2   8   0.2250   0.1876   0.5803   0.0694   0.0294   0.2995   0.00    0.0
2158 455776.000   22.306648227  114.184625694    14.4968   2   8   0.2223   0.1852   0.5753   0.0668   0.0314   0.2969   0.00    0.0
2158 455777.000   22.306647431  114.184625275    14.3058   2   9   0.2197   0.1831   0.5711   0.0646   0.0323   0.2943   0.00    0.0
2158 455778.000   22.306646677  114.184625055    14.1199   2   8   0.2174   0.1813   0.5662   0.0631   0.0341   0.2916   0.00    0.0
2158 455779.000   22.306646292  114.184624849    13.9780   2   8   0.2152   0.1793   0.5615   0.0611   0.0350   0.2890   0.00    0.0
2158 455780.000   22.306645970  114.184624782    13.8468   2   8   0.2130   0.1775   0.5570   0.0595   0.0364   0.2865   0.00    0.0
2158 455781.000   22.306645684  114.184625076    13.6822   2   8   0.2108   0.1756   0.5523   0.0583   0.0397   0.2839   0.00    0.0
2158 455782.000   22.306645278  114.184625334    13.4856   2   8   0.2087   0.1737   0.5478   0.0572   0.0424   0.2814   0.00    0.0
