% program   : RTKPOST demo5 b34k
% inp file  : D:\0POLYU¿Î³Ì\AAE6102\25.3.20_Lab\AAE6102_Laboratory-main\GNSS Data\UrbanNav - Medium\20210521.medium-urban.whampoa.ublox.f9p.obs
% inp file  : D:\0POLYU¿Î³Ì\AAE6102\25.3.20_Lab\AAE6102_Laboratory-main\GNSS Data\UrbanNav - Medium\hksc141g.21o
% inp file  : D:\0POLYU¿Î³Ì\AAE6102\25.3.20_Lab\AAE6102_Laboratory-main\GNSS Data\UrbanNav - Medium\hksc141g.21*
% obs start : 2021/05/21 06:29:02.0 GPST (week2158 455342.0s)
% obs end   : 2021/05/21 06:54:39.0 GPST (week2158 456879.0s)
% pos mode  : Kinematic
% freqs     : L1+L2/E5b
% solution  : Forward
% elev mask : 20.0 deg
% dynamics  : on
% tidecorr  : off
% ionos opt : Broadcast
% tropo opt : Saastamoinen
% ephemeris : Broadcast
% navi sys  : GPS GLONASS Galileo
% amb res   : Fix and Hold
% amb glo   : Fix and Hold
% val thres : 3.0
% antenna1  :                       ( 0.0000  0.0000  0.0000)
% antenna2  :                       ( 0.0000  0.0000  0.0000)
% ref pos   : 22.322172082  114.141187963    20.2386
%
% (lat/lon/height=WGS84/ellipsoidal,Q=1:fix,2:float,3:sbas,4:dgps,5:single,6:ppp,ns=# of satellites)
%  GPST          latitude(deg) longitude(deg)  height(m)   Q  ns   sdn(m)   sde(m)   sdu(m)  sdne(m)  sdeu(m)  sdun(m) age(s)  ratio
2158 455342.000   22.301558264  114.190300121     3.6101   2  11   0.9333   1.0949   2.4928   0.1969   0.6847   0.4996   0.00    0.0
2158 455343.000   22.301559516  114.190299858     4.0339   2  14   0.8393   1.0128   2.1521   0.4361   0.1911   0.7699   0.00    0.0
2158 455344.000   22.301564727  114.190297357     5.1896   2  12   0.9411   1.0846   2.4400   0.2210   0.6556   0.5381   0.00    0.0
2158 455345.000   22.301566417  114.190296224     5.3895   2  13   0.6351   0.7340   1.5208   0.1784   0.3538   0.3754   0.00    0.0
2158 455346.000   22.301567680  114.190295608     5.3899   2  12   0.5255   0.6114   1.2348   0.1432   0.3122   0.2677   0.00    0.0
2158 455347.000   22.301570690  114.190297342     5.6804   2  12   0.8856   1.0043   1.3375   0.0987   0.3508   0.2728   0.00    0.0
2158 455348.000   22.301569738  114.190295908     5.9397   2  12   0.9156   1.0497   1.9291   0.1844   0.5259   0.4273   0.00    0.0
2158 455349.000   22.301568855  114.190287448     6.0385   2  11   0.9172   1.0562   2.1727   0.1623   0.5983   0.4155   0.00    0.0
2158 455350.000   22.301568359  114.190275914     5.9585   2   9   0.9348   1.0664   2.2106   0.1804   0.6300   0.4573   0.00    0.0
2158 455351.000   22.301570704  114.190264032     5.7734   2  11   0.9055   0.8260   2.1797  -0.3298   0.7921   0.5511   0.00    0.0
2158 455352.000   22.301580671  114.190253263     5.9048   2  11   0.6342   0.6357   1.4361  -0.1714   0.4469   0.3183   0.00    0.0
2158 455353.000   22.301591823  114.190246459     5.7196   2  13   0.5277   0.5524   1.2115  -0.1024   0.3641   0.2567   0.00    0.0
2158 455354.000   22.301604488  114.190238733     5.5652   2  13   0.9046   1.0312   1.3345   0.1861   0.3651   0.2895   0.00    0.0
2158 455355.000   22.301617511  114.190232235     5.4410   2  14   0.9278   1.0627   1.9327   0.2172   0.5171   0.4262   0.00    0.0
2158 455356.000   22.301633495  114.190224074     5.5897   2  13   0.9299   1.0745   2.1667   0.2233   0.5750   0.4812   0.00    0.0
2158 455357.000   22.301650335  114.190210180     4.6509   2  12   0.9291   1.0770   2.1895   0.2127   0.5945   0.4792   0.00    0.0
2158 455358.000   22.301679685  114.190196684     5.0431   2  12   0.6481   0.7454   1.4148   0.1488   0.3853   0.2934   0.00    0.0
2158 455359.000   22.301712528  114.190180468     4.8939   2  12   0.5370   0.6187   1.1914   0.1259   0.3279   0.2420   0.00    0.0
2158 455360.000   22.301748683  114.190159471     4.9054   2  12   0.9044   1.0348   1.3240   0.1777   0.3524   0.2866   0.00    0.0
2158 455361.000   22.301791977  114.190142242     5.0191   2  12   0.9257   1.0711   1.9390   0.2073   0.5262   0.4273   0.00    0.0
2158 455362.000   22.301838545  114.190121196     4.9244   2  12   0.9230   1.0793   2.1805   0.2301   0.5827   0.4847   0.00    0.0
2158 455363.000   22.301890666  114.190097045     5.0686   2  11   0.9339   1.0903   2.2017   0.2486   0.5739   0.4716   0.00    0.0
2158 455364.000   22.301944297  114.190068989     5.1188   2  11   0.9335   1.0847   2.2074   0.2247   0.5728   0.4576   0.00    0.0
2158 455365.000   22.301995669  114.190041562     4.8258   2  12   0.9338   1.0769   2.2031   0.2398   0.5816   0.4741   0.00    0.0
2158 455366.000   22.302048554  114.190018695     4.4162   2  11   0.9611   1.1330   2.2423   0.3578   0.5254   0.4091   0.00    0.0
2158 455367.000   22.302100988  114.189997631     4.1156   2  10   0.9672   1.1284   2.2461   0.3594   0.5052   0.3936   0.00    0.0
2158 455368.000   22.302144567  114.189970106     4.2520   2   9   0.9736   1.1325   2.2463   0.3764   0.4998   0.3895   0.00    0.0
2158 455369.000   22.302181485  114.189935076     5.4338   2   8   1.0462   1.2996   2.3142   0.6032  -0.1722  -0.2156   0.00    0.0
2158 455370.000   22.302223724  114.189903824     6.2719   2   8   1.0475   1.3133   2.3194   0.6222  -0.2187  -0.1826   0.00    0.0
2158 455371.000   22.302247865  114.189861460     5.5416   2   7   1.0882   1.4889   2.3923   0.7611  -0.6575  -0.4569   0.00    0.0
2158 455372.000   22.302263430  114.189817550     5.0686   2   8   1.1120   1.4625   2.3451   0.7655  -0.8223  -0.5578   0.00    0.0
2158 455373.000   22.302275745  114.189773278     4.9222   2   9   0.7619   0.9700   1.4980   0.4976  -0.5184  -0.3730   0.00    0.0
2158 455374.000   22.302279639  114.189728828     4.8622   2   9   1.0858   1.2869   1.3732   0.6581  -0.4841  -0.3550   0.00    0.0
2158 455375.000   22.302271395  114.189687258     4.7598   2  10   0.7359   0.8772   1.1546   0.4530  -0.4103  -0.3159   0.00    0.0
2158 455376.000   22.302254049  114.189650439     4.7679   2  10   0.6233   0.7591   1.0612   0.4078  -0.3806  -0.3008   0.00    0.0
2158 455377.000   22.302240144  114.189619975     4.8216   2  11   1.1080   1.3800   1.2854   0.7749  -0.3668  -0.3118   0.00    0.0
2158 455378.000   22.302225365  114.189595377     4.7917   2  12   1.0394   1.4184   2.0030   0.7218  -0.4844  -0.3759   0.00    0.0
2158 455379.000   22.302206041  114.189563453     4.4734   2  12   1.0216   1.4035   2.2592   0.7052  -0.5498  -0.4839   0.00    0.0
2158 455380.000   22.302177447  114.189523195     5.0060   2  12   1.0373   1.4194   2.2835   0.7218  -0.5587  -0.4142   0.00    0.0
2158 455381.000   22.302165086  114.189512977     3.7325   2  11   1.0145   1.2805   2.2949   0.5843   0.2352  -0.1220   0.00    0.0
2158 455382.000   22.302147382  114.189483411     4.1241   2  12   1.0141   1.2771   2.3046   0.5813   0.2706  -0.0826   0.00    0.0
2158 455383.000   22.302124508  114.189446386     5.3673   2  12   1.0142   1.2542   2.3079   0.5681   0.3314   0.0547   0.00    0.0
2158 455384.000   22.302072464  114.189360025    10.6577   2  11   1.0864   1.1785   2.3943   0.5451   0.6300   0.5057   0.00    0.0
2158 455385.000   22.302058197  114.189323828    10.5751   2  10   1.0443   1.1955   2.3309   0.4846   0.5414   0.2473   0.00    0.0
2158 455386.000   22.302041696  114.189299330     9.4268   2   9   0.7100   0.8260   1.5092   0.3281   0.3479   0.1558   0.00    0.0
2158 455387.000   22.302034755  114.189282150     7.7508   2   7   0.9501   1.0988   1.3769   0.3548   0.3166   0.2372   0.00    0.0
2158 455388.000   22.302019676  114.189234806     7.3811   2   7   0.6429   0.7648   1.1555   0.2553   0.2520   0.1636   0.00    0.0
2158 455389.000   22.302014246  114.189184280     6.9333   2   5   0.5384   0.6491   1.0569   0.2195   0.2499   0.1589   0.00    0.0
2158 455390.000   22.302022384  114.189136045     6.0953   2   4   0.9258   1.0594   1.2969   0.2243   0.3055   0.2516   0.00    0.0
2158 455391.000   22.302053256  114.189104582     6.5079   2   4   1.0034   1.1239   2.0833   0.2904   0.6719   0.5730   0.00    0.0
2158 455392.000   22.302074938  114.189044312     5.3232   4   2   1.0754   1.1655   2.5876   0.4140   0.9280   0.8674   0.00    0.0
2158 455393.000   22.302105432  114.188987641     1.3854   4   0   1.1402   1.1787   2.8026   0.4167   1.0151   0.8251   0.00    0.0
2158 455394.000   22.302136227  114.188937824     1.2073   4   0   1.1392   1.1531   2.7816   0.4117   0.9608   0.8288   0.00    0.0
2158 455395.000   22.302164948  114.188885343     1.2461   4   0   1.1564   1.1251   2.6313   0.4251   0.8707   0.9313   0.00    0.0
2158 455396.000   22.302176947  114.188842724     2.2365   4   0   1.2915   1.1281   2.8077   0.3554   0.8062   1.2068   0.00    0.0
2158 455397.000   22.302180037  114.188808843     0.3652   4   0   1.3998   1.1463   3.2059   0.2110   0.7052   1.5710   0.00    0.0
2158 455398.000   22.302191753  114.188785369     0.8945   4   0   0.9267   0.7846   1.9832   0.1156   0.4403   0.9635   0.00    0.0
2158 455399.000   22.302197455  114.188768154     1.3214   4   0   1.1922   1.1029   1.7505  -0.1557   0.3826   0.8407   0.00    0.0
2158 455400.000   22.302203343  114.188753508     2.2979   4   0   1.3260   1.1467   2.6103   0.0322   0.5628   1.2808   0.00    0.0
2158 455401.000   22.302202934  114.188735988     2.6519   2   5   1.3777   1.1354   3.1948   0.1754   0.6449   1.5557   0.00    0.0
2158 455402.000   22.302199694  114.188721136     2.6938   2   9   1.3615   1.1366   3.2606   0.1799   0.6541   1.5835   0.00    0.0
2158 455403.000   22.302191912  114.188712508     2.5007   2  10   1.3343   1.1339   3.2096   0.1876   0.6089   1.5450   0.00    0.0
2158 455404.000   22.302179336  114.188712270     2.6986   2  12   1.3511   1.1197   3.1898   0.1955   0.6274   1.5520   0.00    0.0
2158 455405.000   22.302175002  114.188708503     3.7891   2  11   1.3395   1.1067   3.1912   0.2760   0.7128   1.5323   0.00    0.0
2158 455406.000   22.302179189  114.188699133     5.3990   2  13   1.3376   1.0306   2.6060   0.3116  -0.4117   1.5562   0.00    0.0
2158 455407.000   22.302232421  114.188704801    16.8229   2  13   1.1647   1.0752   2.3345  -0.1273   0.2326   1.0946   0.00    0.0
2158 455408.000   22.302239934  114.188709852    24.2165   2  12   1.1450   1.0892   2.5939  -0.0714   0.5438   1.0533   0.00    0.0
2158 455409.000   22.302254767  114.188712365    29.7156   2  13   1.1558   1.0821   2.7061  -0.0989   0.5704   1.1173   0.00    0.0
2158 455410.000   22.302248647  114.188709051    25.7700   2  13   0.7901   0.7572   1.7039  -0.1264   0.3436   0.6979   0.00    0.0
2158 455411.000   22.302247259  114.188710248    24.1242   2  14   1.0588   1.0428   1.5353  -0.2021   0.3150   0.6289   0.00    0.0
2158 455412.000   22.302197287  114.188700656    13.4668   2  13   1.2487   1.0982   2.5278   0.2014   0.6190   1.1947   0.00    0.0
2158 455413.000   22.302174868  114.188695816     4.2425   2  12   1.3167   1.1077   3.1598   0.2705   0.7632   1.5063   0.00    0.0
2158 455414.000   22.302170658  114.188694123     1.8610   2  12   1.3378   1.0976   3.1965   0.2874   0.7244   1.5380   0.00    0.0
2158 455415.000   22.302172693  114.188695466     2.3420   2  13   1.3338   1.0754   3.1609   0.2654   0.7322   1.5267   0.00    0.0
2158 455416.000   22.302178761  114.188696759     5.3783   2  14   0.9170   0.7628   2.0526   0.1478   0.4573   0.9977   0.00    0.0
2158 455417.000   22.302183950  114.188699370     7.3179   2  14   1.1450   1.0458   1.7611  -0.0823   0.4009   0.8399   0.00    0.0
2158 455418.000   22.302189280  114.188701639     9.4171   2  13   1.2494   1.0833   2.5306   0.1576   0.5795   1.2124   0.00    0.0
2158 455419.000   22.302184319  114.188700780     7.1195   2  13   0.7430   0.7553   1.5604  -0.2026   0.3634   0.7886   0.00    0.0
2158 455420.000   22.302184471  114.188702425     6.6287   2  14   1.1238   1.0393   1.5934  -0.0413   0.3764   0.7511   0.00    0.0
2158 455421.000   22.302184746  114.188702130     6.8758   2  13   0.7882   0.7103   1.3564   0.0347   0.3084   0.6552   0.00    0.0
2158 455422.000   22.302185536  114.188704867     6.8277   2  14   1.1199   1.0210   1.5304   0.0818   0.3520   0.7264   0.00    0.0
2158 455423.000   22.302185312  114.188704744     6.6559   2  14   1.2504   1.0755   2.5043   0.1496   0.5868   1.2072   0.00    0.0
2158 455424.000   22.302184720  114.188704606     6.7088   2  13   0.8404   0.7510   1.4165  -0.0441   0.3282   0.6809   0.00    0.0
2158 455425.000   22.302184489  114.188706300     6.6244   2  14   1.1101   1.0072   1.4339  -0.1493   0.3487   0.6731   0.00    0.0
2158 455426.000   22.302183239  114.188706073     6.1690   2  14   1.2269   1.0770   2.4909   0.2214   0.6052   1.1823   0.00    0.0
2158 455427.000   22.302182029  114.188705797     5.8139   2  14   1.3210   1.0879   3.0882   0.2649   0.7176   1.4908   0.00    0.0
2158 455428.000   22.302181429  114.188703776     5.5988   2  14   1.3282   1.0897   3.1578   0.2767   0.7311   1.5294   0.00    0.0
2158 455429.000   22.302181624  114.188703807     5.4568   2  13   1.3180   1.0857   3.1337   0.3031   0.7544   1.5006   0.00    0.0
2158 455430.000   22.302312684  114.188732980    40.3923   2  13   1.1562   1.0778   2.7505   0.0966   0.6124   1.1385   0.00    0.0
2158 455431.000   22.302354237  114.188737162    56.1272   2  12   1.1761   1.0832   2.7155  -0.1343   0.5710   1.1361   0.00    0.0
2158 455432.000   22.302360948  114.188731344    61.1529   2  13   1.1934   1.0926   2.7458  -0.2132   0.5274   1.1711   0.00    0.0
2158 455433.000   22.302359674  114.188730437    60.5618   2  13   1.1942   1.0928   2.7497  -0.2152   0.5254   1.1736   0.00    0.0
2158 455434.000   22.302225644  114.188711542    25.5892   2  13   1.3172   1.1026   3.1285   0.2668   0.7648   1.4892   0.00    0.0
2158 455435.000   22.302315606  114.188729815    43.2113   2  11   1.1681   1.0907   2.7882   0.0527   0.5824   1.1627   0.00    0.0
2158 455436.000   22.302341565  114.188734514    51.3223   2  11   1.1573   1.0828   2.7195  -0.0975   0.5766   1.1266   0.00    0.0
2158 455437.000   22.302220288  114.188708607    23.0655   2  13   1.3164   1.0894   3.0904   0.2574   0.7152   1.4813   0.00    0.0
2158 455438.000   22.302173199  114.188698244     6.3738   2  13   1.3370   1.0905   3.1950   0.2788   0.7425   1.5441   0.00    0.0
2158 455439.000   22.302165101  114.188694379     0.8618   2  13   1.3374   1.0905   3.2035   0.2795   0.7444   1.5466   0.00    0.0
2158 455440.000   22.302183091  114.188698098     9.5515   2  13   0.9172   0.7653   2.0628   0.1541   0.4645   1.0027   0.00    0.0
2158 455441.000   22.302187887  114.188699039    11.2952   2  13   0.7683   0.6380   1.7474   0.1259   0.3885   0.8515   0.00    0.0
2158 455442.000   22.302187440  114.188700517    10.5081   2  13   1.1358   1.0397   1.7723   0.0884   0.4221   0.8380   0.00    0.0
2158 455443.000   22.302175663  114.188699125     8.6778   2  12   1.2448   1.0952   2.4970   0.1908   0.5638   1.1930   0.00    0.0
2158 455444.000   22.302151816  114.188692217     9.1341   2   7   0.8568   0.7656   1.5636   0.0711   0.3479   0.7533   0.00    0.0
2158 455445.000   22.302112874  114.188677296     8.8781   2  10   1.1306   0.6769   1.5569  -0.1764  -0.2484   0.7434   0.00    0.0
2158 455446.000   22.302064662  114.188652074     8.4610   2   7   0.7931   0.5639   1.3541   0.0408   0.2553   0.6551   0.00    0.0
2158 455447.000   22.302005898  114.188617647     7.8998   4   3   0.7363   0.5957   1.5309   0.2932   0.5690   0.7827   0.00    0.0
2158 455448.000   22.301945971  114.188583630     8.5259   4   2   1.2341   1.1003   2.3613  -0.1719   0.5337   1.1229   0.00    0.0
2158 455449.000   22.301889221  114.188541739     9.1039   4   2   1.0471   1.1143   2.8359   0.1178   0.1868   1.4529   0.00    0.0
2158 455450.000   22.301816804  114.188480913     4.8664   2   5   1.3702   1.1480   3.2057   0.2507   0.6483   1.6122   0.00    0.0
2158 455451.000   22.301764716  114.188422447     3.4888   2   6   1.3943   1.1472   3.3051   0.2199   0.7440   1.6162   0.00    0.0
2158 455452.000   22.301718801  114.188367518     5.4926   2   4   0.9378   0.7863   2.0896   0.1220   0.4540   1.0258   0.00    0.0
2158 455453.000   22.301688342  114.188329092     7.4605   4   0   0.8851   1.0446   1.8343   0.5659   0.3094   0.8964   0.00    0.0
2158 455454.000   22.301647679  114.188288291    11.1595   4   2   0.9683   1.2261   2.6391   0.3134   0.4603   1.4197   0.00    0.0
2158 455455.000   22.301611640  114.188263597    19.3863   4   2   1.5458   1.4091   3.6171   0.6246   1.0852   1.8749   0.00    0.0
2158 455456.000   22.301580589  114.188178956    21.7336   4   2   1.6437   1.4394   3.9102   0.5613   0.9969   2.0427   0.00    0.0
2158 455457.000   22.301519464  114.188037127    11.8819   4   3   1.5186   1.3914   3.2576  -0.7758  -1.0480   1.6022   0.00    0.0
2158 455458.000   22.301468163  114.187962239     6.2383   2   4   1.3767   1.3713   3.0585  -0.7004  -0.9591   1.4017   0.00    0.0
2158 455459.000   22.301425932  114.187888182     4.0222   4   3   0.9702   1.0943   2.6571   0.3759  -0.1176   0.9806   0.00    0.0
2158 455460.000   22.301396731  114.187828412     5.7994   4   2   1.1694   1.1422   2.6147  -0.2470   0.4951   0.9078   0.00    0.0
2158 455461.000   22.301382512  114.187805824     4.2946   4   0   1.1463   1.1696   2.4526  -0.2462   0.3797   0.8120   0.00    0.0
2158 455462.000   22.301380225  114.187746117     2.1925   4   2   1.2440   1.2535   2.4802  -0.5374   0.3539   0.8066   0.00    0.0
2158 455463.000   22.301378276  114.187736720     0.2386   4   2   1.1388   1.2019   2.4517  -0.4072   0.3324   0.7850   0.00    0.0
2158 455464.000   22.301360491  114.187740852     1.0827   4   3   1.2347   1.2412   2.7586  -0.5466   0.1162   0.8434   0.00    0.0
2158 455465.000   22.301323798  114.187743551    15.0441   4   1   1.2536   1.3509   2.9600  -0.6307  -0.6021   0.8191   0.00    0.0
2158 455466.000   22.301336726  114.187716465     9.4156   4   3   1.3818   1.2539   2.9202  -0.6470  -0.2422   0.8516   0.00    0.0
2158 455467.000   22.301361932  114.187704559     4.1054   2   4   1.2583   1.0373   3.0210  -0.8120  -0.4790   0.2537   0.00    0.0
2158 455468.000   22.301413113  114.187686273     8.2397   4   3   1.5944   1.3435   3.3772  -0.9541  -0.6350   1.2070   0.00    0.0
2158 455469.000   22.301363777  114.187722338    19.6884   2   4   1.4588   1.1995   3.1191  -0.7396  -0.5718   1.1732   0.00    0.0
2158 455470.000   22.301408261  114.187689878    10.4454   4   3   1.6947   1.3147   3.2416  -0.9831  -0.4145   1.0640   0.00    0.0
2158 455471.000   22.301462612  114.187671797     6.9375   4   2   1.8410   1.3183   3.2081  -1.0456  -0.5329   1.1532   0.00    0.0
2158 455472.000   22.301470414  114.187668338     1.8836   4   3   1.8516   1.3269   3.3688  -1.0515  -0.6073   1.2203   0.00    0.0
2158 455473.000   22.301448114  114.187653813     6.0336   2   4   1.7048   1.3231   3.2977  -0.9885  -0.5160   1.1879   0.00    0.0
2158 455474.000   22.301299801  114.187742571     1.2221   4   2   1.9701   1.5119   3.4491  -1.2599  -1.1073   1.7938   0.00    0.0
2158 455475.000   22.301301559  114.187759908     7.7923   4   2   1.6523   1.3201   3.4079  -0.9478  -1.0041   1.5967   0.00    0.0
2158 455476.000   22.301289541  114.187741060     5.0457   4   2   1.7346   1.3090   3.1844  -0.9292  -0.7305   1.4753   0.00    0.0
2158 455477.000   22.301396047  114.187673222     1.7065   4   2   1.7581   1.3299   3.2890  -0.9234   0.2744   1.0598   0.00    0.0
2158 455478.000   22.301507872  114.187605358    12.4191   4   2   1.9156   1.5371   3.4204  -1.1525  -1.0762   1.6232   0.00    0.0
2158 455479.000   22.301548356  114.187606817    19.8274   4   0   2.1243   1.5920   3.3584  -1.2938  -1.2731   1.9583   0.00    0.0
2158 455480.000   22.301437056  114.187726882    25.4225   4   2   1.7897   1.4380   3.4809  -0.9475  -1.0142   1.8750   0.00    0.0
2158 455481.000   22.301307987  114.187834971    10.2887   4   3   1.7217   1.4698   3.5450  -0.9072  -0.9979   1.8440   0.00    0.0
2158 455482.000   22.301355022  114.187861213     7.6187   4   3   1.5102   1.5329   3.1883  -0.6284  -0.7394   1.3703   0.00    0.0
2158 455483.000   22.301421788  114.187875063     0.6651   4   3   1.2957   1.5405   2.8190  -0.4844   1.1198   0.9218   0.00    0.0
2158 455484.000   22.301442583  114.187912460     0.3201   4   3   1.4666   1.0863   2.4484  -0.6018   0.9010   1.0515   0.00    0.0
2158 455485.000   22.301523803  114.187945458     3.8125   2   5   1.1998   1.1558   2.3562  -0.3232   0.7859   0.7809   0.00    0.0
2158 455486.000   22.301574078  114.188012969     9.7357   2   5   0.9077   0.9133   2.2960   0.3321   1.0117   0.9554   0.00    0.0
2158 455487.000   22.301598670  114.188058965    12.6277   2   6   1.4780   1.1983   2.6800  -0.5882  -0.1806   1.3923   0.00    0.0
2158 455488.000   22.301631845  114.188115823    15.7150   2   4   1.0654   1.0957   2.8660   0.3629  -0.3255   1.2026   0.00    0.0
2158 455489.000   22.301676244  114.188163897    18.5320   4   0   1.4712   1.3972   3.0184  -0.6592  -0.0452   1.4367   0.00    0.0
2158 455490.000   22.301699728  114.188212280    16.8370   4   0   1.6064   1.4610   3.0918  -0.8274  -0.4597   1.5773   0.00    0.0
2158 455491.000   22.301733419  114.188246641    17.0334   2   5   1.0882   1.1615   2.7062  -0.3429   1.0537   1.2112   0.00    0.0
2158 455492.000   22.301766205  114.188268272    16.5756   2   5   1.3850   1.3816   2.6871  -0.6199   0.8176   1.2316   0.00    0.0
2158 455493.000   22.301781396  114.188293936    17.9062   2   8   0.8282   0.8504   1.8736  -0.1564   0.4677   0.8749   0.00    0.0
2158 455494.000   22.301757605  114.188350251    19.0440   2   9   1.1968   1.1837   1.6803  -0.5674  -0.3028   0.7928   0.00    0.0
2158 455495.000   22.301799722  114.188272185    31.2607   4   3   1.3563   1.2267   2.5133  -0.5374   0.4584   1.1673   0.00    0.0
2158 455496.000   22.301790623  114.188320330    24.5176   2   8   1.3761   1.2814   2.8458  -0.7150  -0.4631   1.3171   0.00    0.0
2158 455497.000   22.301786900  114.188338977    20.1111   2   8   1.4275   1.2874   2.8560  -0.7343  -0.5161   1.3392   0.00    0.0
2158 455498.000   22.301779060  114.188331302    16.2519   2   8   1.1105   1.1718   2.9005  -0.1910  -0.5824   1.3259   0.00    0.0
2158 455499.000   22.301778606  114.188331798    16.7382   2   9   1.3208   1.2290   2.8419  -0.6520  -0.5066   1.3173   0.00    0.0
2158 455500.000   22.301783311  114.188330715    15.3009   2   9   1.3750   1.2937   2.8735  -0.7228  -0.4371   1.3150   0.00    0.0
2158 455501.000   22.301786630  114.188334008    15.5520   2   9   1.3720   1.2873   2.8792  -0.7206  -0.3995   1.3164   0.00    0.0
2158 455502.000   22.301789291  114.188337996    16.2301   2   9   1.3708   1.2896   2.8775  -0.7153  -0.3990   1.3151   0.00    0.0
2158 455503.000   22.301786473  114.188339511    16.0133   2   9   1.3749   1.2964   2.8851  -0.7238  -0.4331   1.3202   0.00    0.0
2158 455504.000   22.301785308  114.188338956    15.6064   2  10   0.8913   0.7476   1.8435  -0.3306   0.1108   0.8073   0.00    0.0
2158 455505.000   22.301712473  114.188447387    20.3647   2   7   1.1712   1.1907   1.6727  -0.5011  -0.0870   0.7937   0.00    0.0
2158 455506.000   22.301671372  114.188631703    44.0607   2   4   0.9218   1.3523   2.0638  -0.5902   1.2168   0.5587   0.00    0.0
2158 455507.000   22.301736374  114.188506675    46.0823   2   7   1.1925   1.2503   2.2774  -0.4645   0.6900   0.9583   0.00    0.0
2158 455508.000   22.301854138  114.188361586    49.8801   4   3   1.4095   1.3939   3.2618  -0.8639   0.6432   1.7728   0.00    0.0
2158 455509.000   22.301831747  114.188283151    28.6125   2   7   1.3979   1.4416   3.0457  -0.9758   0.3077   1.7407   0.00    0.0
2158 455510.000   22.301744833  114.188467430    34.0668   2   5   1.5050   1.2689   3.1666  -0.6516  -0.3647   1.6733   0.00    0.0
2158 455511.000   22.301729065  114.188482811    34.7719   2   6   1.4414   1.4005   3.2458  -0.4331   0.5842   1.6116   0.00    0.0
2158 455512.000   22.301746317  114.188469486    36.0151   2   6   1.3665   1.2557   3.1554  -0.5447   0.0197   1.5234   0.00    0.0
2158 455513.000   22.301778131  114.188426981    31.1221   2   5   1.3972   1.2836   3.1888  -0.5961   0.3486   1.5004   0.00    0.0
2158 455514.000   22.301782642  114.188419392    29.2351   2   6   1.3722   1.2854   3.1879  -0.5879   0.3736   1.4854   0.00    0.0
2158 455515.000   22.301793855  114.188396147    27.9603   2   9   0.9402   0.8889   1.9781  -0.4582  -0.1993   0.9137   0.00    0.0
2158 455516.000   22.301751943  114.188452530    31.1965   2   6   1.1733   1.1966   1.7501  -0.4949  -0.0883   0.8297   0.00    0.0
2158 455517.000   22.301752642  114.188458093    34.6169   2   6   1.2910   1.2419   2.5253  -0.5425  -0.2359   1.2250   0.00    0.0
2158 455518.000   22.301759323  114.188453268    36.3262   2   7   1.3531   1.2373   3.0368  -0.5427  -0.2603   1.4799   0.00    0.0
2158 455519.000   22.301753865  114.188457730    36.0966   4   3   1.4883   1.2668   3.2224  -0.6224  -0.4002   1.6478   0.00    0.0
2158 455520.000   22.301754450  114.188452649    35.4121   2   7   1.3657   1.2404   3.0901  -0.5481  -0.2738   1.5116   0.00    0.0
2158 455521.000   22.301761828  114.188459200    38.6812   2   7   1.3129   1.2186   2.8471  -0.6119  -0.5581   1.3566   0.00    0.0
2158 455522.000   22.301766710  114.188466537    41.1569   2   4   1.4225   1.2457   2.9082  -0.6854  -0.6349   1.4534   0.00    0.0
2158 455523.000   22.301771552  114.188463368    42.7300   2   7   1.3154   1.2191   2.8437  -0.6172  -0.5743   1.3588   0.00    0.0
2158 455524.000   22.301793463  114.188474087    45.5135   2   9   0.9283   0.8834   1.9064  -0.3970  -0.2611   0.9280   0.00    0.0
2158 455525.000   22.301813296  114.188484242    47.3099   2   9   0.7843   0.7478   1.6446  -0.3212  -0.1505   0.8055   0.00    0.0
2158 455526.000   22.301834494  114.188473568    45.6695   2   4   1.1658   1.1506   1.6679  -0.4937  -0.3416   0.7946   0.00    0.0
2158 455527.000   22.301869986  114.188466476    42.4712   2   7   1.2557   1.2065   2.3194  -0.5580  -0.5011   1.1030   0.00    0.0
2158 455528.000   22.301906618  114.188518030    38.2821   2   5   1.4036   1.3205   3.1339  -0.4015   0.2691   1.5659   0.00    0.0
2158 455529.000   22.301934010  114.188487198    28.8175   2   5   1.3972   1.2409   3.1632  -0.5314  -0.4147   1.5685   0.00    0.0
2158 455530.000   22.301985759  114.188503969    31.1054   2   5   0.9303   0.8534   1.9606  -0.3495  -0.2128   0.9656   0.00    0.0
2158 455531.000   22.302033867  114.188523630    29.7309   4   3   0.7755   0.7064   1.6621  -0.2913  -0.1976   0.8186   0.00    0.0
2158 455532.000   22.302094616  114.188516521    27.2436   4   2   1.1945   1.1823   1.7408  -0.4653  -0.1461   0.8367   0.00    0.0
2158 455533.000   22.302145032  114.188549332    26.0427   4   3   0.8210   0.7827   1.4729  -0.2926  -0.1070   0.7167   0.00    0.0
2158 455534.000   22.302199326  114.188558243    24.1090   4   2   1.1866   1.1834   1.6614  -0.4581  -0.0685   0.7956   0.00    0.0
2158 455535.000   22.302251761  114.188574696    23.0681   2   6   0.7999   0.7774   1.3563  -0.2859  -0.0725   0.6525   0.00    0.0
2158 455536.000   22.302298029  114.188587250    21.1144   2   5   0.6896   0.6515   1.2833  -0.2211   0.1313   0.6211   0.00    0.0
2158 455537.000   22.302341726  114.188597216    19.6366   2   4   0.6239   0.5798   1.2286  -0.1853   0.1651   0.5964   0.00    0.0
2158 455538.000   22.302387669  114.188585740    18.3998   4   0   1.1337   1.1176   1.4866  -0.2484   0.3811   0.6916   0.00    0.0
2158 455539.000   22.302415392  114.188591722    14.3508   4   3   1.2633   1.1739   2.5451  -0.0437   0.6721   1.2021   0.00    0.0
2158 455540.000   22.302441649  114.188599989    16.3880   4   3   0.8452   0.8025   1.4207  -0.1273   0.3727   0.6711   0.00    0.0
2158 455541.000   22.302455503  114.188604432    15.8579   4   0   0.7118   0.6627   1.2858  -0.0899   0.3321   0.6100   0.00    0.0
2158 455542.000   22.302458070  114.188599667    14.1971   4   0   1.1664   1.1171   1.5410  -0.2384   0.3866   0.7276   0.00    0.0
2158 455543.000   22.302448080  114.188594726     9.0393   4   0   1.3026   1.1657   2.5867  -0.1236   0.6678   1.2454   0.00    0.0
2158 455544.000   22.302436747  114.188593346     3.6682   4   0   1.1010   0.8108   3.3003   0.2702   0.7315   1.5872   0.00    0.0
2158 455545.000   22.302433911  114.188592326     2.0625   4   0   1.3723   1.1297   3.4415   0.2600   0.8535   1.6642   0.00    0.0
2158 455546.000   22.302431459  114.188587701     1.3902   4   2   1.4042   1.1677   3.4531   0.2488   0.9125   1.6617   0.00    0.0
2158 455547.000   22.302435046  114.188587929     2.0033   4   3   1.3560   1.1649   3.4192   0.3060   0.9284   1.6126   0.00    0.0
2158 455548.000   22.302435423  114.188591272     2.4668   4   0   1.4062   1.1720   3.4676   0.2507   0.8977   1.6690   0.00    0.0
2158 455549.000   22.302434884  114.188590901     2.3724   4   0   0.9415   0.8084   2.2127   0.1645   0.5824   1.0620   0.00    0.0
2158 455550.000   22.302438234  114.188591792     3.0300   4   0   1.1928   1.1165   1.9204  -0.2045   0.4945   0.9143   0.00    0.0
2158 455551.000   22.302441823  114.188594054     4.3190   4   0   1.3123   1.1690   2.7066  -0.0745   0.7018   1.3003   0.00    0.0
2158 455552.000   22.302440750  114.188594125     3.8935   4   0   0.8818   0.8016   1.6878  -0.0803   0.4365   0.8088   0.00    0.0
2158 455553.000   22.302438917  114.188597114     4.2522   4   0   1.1745   1.1164   1.7088  -0.2368   0.4393   0.8099   0.00    0.0
2158 455554.000   22.302441601  114.188599997     5.6894   4   0   1.3127   1.1693   2.7123  -0.0694   0.7045   1.3029   0.00    0.0
2158 455555.000   22.302445942  114.188601071     6.7738   4   0   1.3946   1.1769   3.3738   0.2471   0.8787   1.6264   0.00    0.0
2158 455556.000   22.302454972  114.188595224     6.9820   4   0   1.5605   1.5001   4.0405   0.5683   1.5471   1.8293   0.00    0.0
2158 455557.000   22.302448390  114.188598588     6.1995   4   0   1.5421   1.5031   4.2182   0.7038   1.6339   1.9366   0.00    0.0
2158 455558.000   22.302429937  114.188582108    -2.1178   4   0   1.4330   1.2614   3.7386   0.1837   1.1590   1.6930   0.00    0.0
2158 455559.000   22.302434513  114.188589883     0.7438   4   0   0.9672   0.8696   2.4307   0.1408   0.7691   1.1019   0.00    0.0
2158 455560.000   22.302438614  114.188603607     1.3576   4   0   1.3264   1.2855   2.1737  -0.1921   0.8511   0.9690   0.00    0.0
2158 455561.000   22.302443249  114.188605932     1.8865   4   0   1.1147   0.9580   3.0327   0.5529   1.2266   1.5032   0.00    0.0
2158 455562.000   22.302441070  114.188601135     0.8186   4   0   0.7917   0.7564   1.8550   0.2359   0.7132   0.8353   0.00    0.0
2158 455563.000   22.302440416  114.188590833     1.1091   4   0   1.3479   1.2316   2.1472  -0.4125   0.6744   0.8708   0.00    0.0
2158 455564.000   22.302457872  114.188592821     1.6046   4   0   1.3655   1.2396   3.1231  -0.2380   0.9481   1.4095   0.00    0.0
2158 455565.000   22.302469126  114.188594213     1.4004   4   0   1.4848   1.4324   3.9795   0.5824   1.5536   1.8590   0.00    0.0
2158 455566.000   22.302494853  114.188594059     1.1746   4   0   1.5734   1.5355   4.2357   0.6317   1.6559   1.9080   0.00    0.0
2158 455567.000   22.302528749  114.188587867     1.6364   4   0   1.5881   1.5593   4.3104   0.6606   1.7088   1.9358   0.00    0.0
2158 455568.000   22.302577135  114.188575999     3.7436   4   0   1.5838   1.5476   4.3622   0.6192   1.6278   1.9500   0.00    0.0
2158 455569.000   22.302624528  114.188559546     3.2190   4   0   1.0872   1.3089   2.8568   0.5921   0.7631   1.1634   0.00    0.0
2158 455570.000   22.302664530  114.188561039     4.9700   4   0   1.2404   1.2056   2.3683   0.2244   0.3284   1.0571   0.00    0.0
2158 455571.000   22.302730708  114.188537093     5.5785   2   9   1.2874   1.1742   2.8359   0.1658   0.7268   1.3411   0.00    0.0
2158 455572.000   22.302786167  114.188509796     5.1571   2   8   1.3494   1.2239   3.3921   0.3399   0.7700   1.5650   0.00    0.0
2158 455573.000   22.302838536  114.188466208     2.4161   2   5   1.4001   1.2078   3.4490   0.3950   0.6908   1.6365   0.00    0.0
2158 455574.000   22.302895119  114.188426009     1.7087   2   8   1.3903   1.2011   3.3910   0.4039   0.6424   1.6381   0.00    0.0
2158 455575.000   22.302947152  114.188384381    -0.0747   2  11   1.4484   1.3079   3.5121   0.6233   0.9731   1.7531   0.00    0.0
2158 455576.000   22.303002506  114.188330780     1.2306   2   7   0.9963   1.0088   2.3207   0.4786   0.5038   1.1203   0.00    0.0
2158 455577.000   22.303049971  114.188267100     1.5171   2   6   0.9648   1.3678   2.0041   0.8231   0.0496   0.9175   0.00    0.0
2158 455578.000   22.303089110  114.188194610     0.7214   4   0   1.3098   1.5332   2.0447   0.7080  -0.2476   0.9147   0.00    0.0
2158 455579.000   22.303157830  114.188162453     0.4865   4   0   1.3617   1.4207   2.7824   0.5063  -0.4668   1.2355   0.00    0.0
2158 455580.000   22.303211408  114.188102125     1.7799   2   5   1.3519   1.3966   3.1489   0.3703  -0.8477   1.3483   0.00    0.0
2158 455581.000   22.303244532  114.187973252     5.9020   2   5   0.9478   1.2902   2.0960   0.5454  -0.9487   0.7170   0.00    0.0
2158 455582.000   22.303297257  114.187869502     6.8069   2   6   0.8690   1.6584   2.0633   0.7698  -1.3138   0.4642   0.00    0.0
2158 455583.000   22.303356074  114.187826452     4.8126   2   5   1.3790   1.6247   2.2090   0.7022  -1.0287   0.7920   0.00    0.0
2158 455584.000   22.303438306  114.187753871     5.9363   4   2   1.3860   1.6431   3.1473   0.6271  -0.9272   1.2924   0.00    0.0
2158 455585.000   22.303520602  114.187682883     6.1466   4   2   1.4376   1.6551   3.8201   0.5596  -1.1124   1.5665   0.00    0.0
2158 455586.000   22.303587918  114.187603128     6.5880   4   0   1.4508   1.6635   3.9916   0.5301  -1.1926   1.6303   0.00    0.0
2158 455587.000   22.303623830  114.187529445     6.4976   4   0   1.5653   1.8369   4.1529   0.8582  -0.7474   1.8229   0.00    0.0
2158 455588.000   22.303661383  114.187509350     8.6069   4   0   1.9316   2.0282   4.7483   0.9502  -1.2315   2.1107   0.00    0.0
2158 455589.004   22.303684224  114.187543884     4.1240   4   0   2.3214   2.7776   6.2851   0.9246  -2.4061   2.4912   0.00    0.0
2158 455590.000   22.303721257  114.187410588    -3.3591   4   0   2.9935   5.6652   6.7186   3.0146  -2.6926   3.0028   0.00    0.0
2158 455591.000   22.303868725  114.187280322     6.3504   4   0   2.1672   2.1081   5.4746   1.3182   0.8359   2.4494   0.00    0.0
2158 455592.000   22.303985600  114.187199935    18.2221   4   2   1.9676   1.9512   4.7066   1.1685   0.6558   2.3284   0.00    0.0
2158 455593.000   22.303849487  114.186828906    54.1763   2   4   2.4454   2.4244   5.6741   1.8732   2.9825   3.1832   0.00    0.0
2158 455594.000   22.303865597  114.186326792    65.9906   4   0   3.1933   2.9474   8.3047   2.1221   3.2233   4.7136   0.00    0.0
2158 455595.000   22.303673275  114.185770759    63.3879   4   0   4.7692   6.6261   9.0409   4.6080  -0.8178   5.1678   0.00    0.0
2158 455596.000   22.304085837  114.186433429    86.2366   4   0   3.5016   5.5746  12.2336   1.4770  -6.9650   4.4404   0.00    0.0
2158 455597.000   22.304232251  114.186683515    57.1392   4   2   2.2003   3.1309   7.3164  -0.7144  -3.5345   3.2426   0.00    0.0
2158 455598.000   22.304217215  114.186765592    14.5430   4   3   1.9849   1.8501   4.5862   1.0015  -1.2354   2.0624   0.00    0.0
2158 455599.000   22.304126333  114.186784221   -22.7436   2   5   2.2353   2.0787   5.5629  -0.6931  -2.3013   2.8145   0.00    0.0
2158 455600.000   22.304085428  114.186782303   -42.4713   2   4   2.1879   2.1089   6.2143  -1.2013  -2.6786   3.1417   0.00    0.0
2158 455601.000   22.304204383  114.186641627   -10.7505   2   4   1.8307   1.9909   5.2252  -0.4518  -2.0431   2.3849   0.00    0.0
2158 455602.000   22.304216532  114.186599971    -2.8774   4   3   1.7903   1.6731   3.5682   0.6304  -1.4704   1.9340   0.00    0.0
2158 455603.000   22.304270412  114.186582327     5.4463   2   8   1.6377   1.6069   3.1742   0.7221  -0.9908   1.5601   0.00    0.0
2158 455604.000   22.304269602  114.186567621     0.9796   2   5   1.1606   1.1560   2.4867   0.5087  -0.8141   1.1946   0.00    0.0
2158 455605.000   22.304285560  114.186544075     0.3640   2   4   1.4011   1.4242   2.2944   0.9167  -0.8919   1.1471   0.00    0.0
2158 455606.000   22.304292163  114.186509802     0.1666   2   6   1.6453   1.6602   2.8342   0.7750  -0.9615   1.4161   0.00    0.0
2158 455607.000   22.304339385  114.186462108     9.6460   2   7   1.6309   1.8454   3.8929   0.6339  -1.4204   1.6980   0.00    0.0
2158 455608.000   22.304328805  114.186448778     7.3942   2   7   1.7420   1.6768   4.1416   0.6991  -1.1337   1.9131   0.00    0.0
2158 455609.000   22.304353923  114.186424388     7.8104   2   7   1.3449   1.6166   2.6791   1.0115   0.6933   1.4036   0.00    0.0
2158 455610.000   22.304344153  114.186408063     5.4554   2   7   1.5770   1.6123   2.4016   0.8952   0.4912   1.2643   0.00    0.0
2158 455611.000   22.304359321  114.186395420     7.0506   2   9   1.0651   1.0990   2.0881   0.5696  -0.2298   1.0268   0.00    0.0
2158 455612.000   22.304369168  114.186383489     8.2503   2   9   0.8892   0.9365   1.9262   0.4328  -0.4343   0.9053   0.00    0.0
2158 455613.000   22.304369958  114.186375318     8.6419   2   9   1.3383   1.4784   1.9765   0.6628  -0.5584   0.8535   0.00    0.0
2158 455614.000   22.304372076  114.186369440     8.7448   2   9   1.4749   1.6188   2.8086   0.7336  -0.8392   1.1963   0.00    0.0
2158 455615.000   22.304373832  114.186368832     8.3761   2   9   1.0041   1.0935   1.7837   0.4854  -0.5144   0.7645   0.00    0.0
2158 455616.000   22.304373244  114.186368403     8.1513   2   9   0.8464   0.9110   1.6375   0.3953  -0.4662   0.7061   0.00    0.0
2158 455617.000   22.304372980  114.186366695     8.2177   2   9   0.7555   0.8071   1.5546   0.3452  -0.4405   0.6723   0.00    0.0
2158 455618.000   22.304372817  114.186366099     8.2938   2   9   0.6889   0.7323   1.4827   0.3093  -0.4187   0.6413   0.00    0.0
2158 455619.000   22.304373186  114.186365604     8.3781   2   8   0.6384   0.6752   1.4207   0.2814  -0.4005   0.6151   0.00    0.0
2158 455620.000   22.304372091  114.186358834     8.6597   2  11   1.3110   1.4577   1.6331   0.6570  -0.4807   0.6920   0.00    0.0
2158 455621.000   22.304372545  114.186359552     8.8028   2  10   0.8713   0.9335   1.3671   0.3736  -0.3908   0.5864   0.00    0.0
2158 455622.000   22.304374201  114.186362228     9.1724   2   9   1.3080   1.4450   1.5634   0.6667  -0.4624   0.6582   0.00    0.0
2158 455623.000   22.304386322  114.186363480     9.5793   2  10   1.4641   1.6098   2.7783   0.7189  -0.8222   1.1872   0.00    0.0
2158 455624.000   22.304383950  114.186364226     9.3614   2   9   0.9838   1.0810   1.5187   0.4978  -0.4437   0.6500   0.00    0.0
2158 455625.000   22.304389917  114.186363195     9.3154   2   8   1.3196   1.4567   1.5358   0.6906  -0.4530   0.6465   0.00    0.0
2158 455626.000   22.304404239  114.186369402     9.0697   2   8   1.4769   1.6072   2.7976   0.7566  -0.8430   1.2050   0.00    0.0
2158 455627.000   22.304408252  114.186365546     9.5247   2   9   0.9739   1.0656   1.4923   0.4842  -0.4976   0.6180   0.00    0.0
2158 455628.000   22.304415575  114.186367822     9.5400   2  11   1.2847   1.4153   1.5208   0.6247  -0.5540   0.6038   0.00    0.0
2158 455629.000   22.304418276  114.186365958     9.3484   2  11   0.8714   0.9419   1.3161   0.3775  -0.4733   0.5312   0.00    0.0
2158 455630.000   22.304424595  114.186361858     8.6594   2  10   1.2778   1.4146   1.5248   0.6149  -0.5824   0.5828   0.00    0.0
2158 455631.000   22.304438277  114.186344212     8.4180   2   8   0.8585   0.9297   1.2466   0.3641  -0.4638   0.4891   0.00    0.0
2158 455632.000   22.304463403  114.186326338     8.3057   2  10   1.2888   1.4201   1.4659   0.6425  -0.5440   0.5735   0.00    0.0
2158 455633.000   22.304490700  114.186298893     6.9712   2   9   1.4671   1.6012   2.7468   0.7576  -0.8541   1.1884   0.00    0.0
2158 455634.000   22.304527238  114.186267142     7.2446   2   8   0.9856   1.1928   1.5465   0.5674  -0.6933   0.5662   0.00    0.0
2158 455635.000   22.304563324  114.186221455     7.5140   2   7   0.8317   1.0089   1.4171   0.4799  -0.5935   0.5427   0.00    0.0
2158 455636.000   22.304533537  114.186115203     8.6365   2   6   1.3842   1.7183   1.7164   0.8749  -0.8304   0.5889   0.00    0.0
2158 455637.000   22.304602975  114.186110762     8.8510   2   8   1.7459   1.7527   2.9102   1.0665  -0.9013   1.2711   0.00    0.0
2158 455638.000   22.304647613  114.186082095     8.4017   2   8   1.1768   1.2511   1.6162   0.7845  -0.4835   0.7022   0.00    0.0
2158 455639.000   22.304671678  114.186037569     8.4624   2   6   1.4025   1.6431   1.5970   0.8899  -0.3796   0.7206   0.00    0.0
2158 455640.000   22.304758962  114.186053384    10.5070   2   7   1.6247   1.8397   2.8955   1.0591  -0.3901   1.3992   0.00    0.0
2158 455641.000   22.304786995  114.186010328     9.9777   2   5   1.0617   1.2292   1.5914   0.6870  -0.2778   0.7480   0.00    0.0
2158 455642.000   22.304829135  114.185986385    11.2014   2   5   0.8868   0.9494   1.4596   0.5082  -0.2505   0.6931   0.00    0.0
2158 455643.000   22.304865458  114.185965723    12.1980   2   5   0.8076   0.8385   1.4039   0.4622  -0.1562   0.6849   0.00    0.0
2158 455644.000   22.304881188  114.185946889    13.3033   2   6   1.3918   1.3615   1.6437   0.6183  -0.2667   0.7826   0.00    0.0
2158 455645.000   22.304889707  114.185952770    14.2332   2   6   1.4137   1.3044   2.7184   0.2864   0.3570   1.3002   0.00    0.0
2158 455646.000   22.304932608  114.185973916    14.2500   2   5   1.6435   1.3231   3.5349   0.4891   0.4483   1.8308   0.00    0.0
2158 455647.000   22.304969032  114.186000169    14.7975   4   2   1.5155   1.2350   3.7365  -0.4062   0.6171   2.0410   0.00    0.0
2158 455648.000   22.304997561  114.186044492    15.1788   2   4   1.4534   1.2047   3.6666  -0.4677   0.7451   2.0326   0.00    0.0
2158 455649.000   22.304983522  114.186103864    11.5007   4   2   1.8871   1.4892   4.1962  -0.5782  -0.8739   2.3539   0.00    0.0
2158 455650.000   22.305025823  114.186194493     7.8014   4   0   2.0610   1.6456   4.5076  -0.3649  -1.1922   2.4839   0.00    0.0
2158 455651.000   22.305099902  114.186232680    12.8981   4   0   1.8896   1.6805   4.2667   0.1441  -0.9965   2.2032   0.00    0.0
2158 455652.000   22.305172164  114.186261639     7.6994   4   0   1.9149   1.6870   4.2834   0.0543  -0.9073   2.0804   0.00    0.0
2158 455653.000   22.305219201  114.186298023     7.5866   4   0   1.9158   1.6879   4.3000   0.0661  -0.9054   2.0780   0.00    0.0
2158 455654.000   22.305224263  114.186332626     1.8957   4   0   2.1328   1.7209   4.6484  -0.5275  -1.0761   2.3994   0.00    0.0
2158 455655.000   22.305187794  114.186413294     4.3778   4   0   2.3263   1.7368   5.2131  -0.9584  -1.5446   3.0010   0.00    0.0
2158 455656.000   22.305210949  114.186463740     4.5957   4   0   2.0565   1.6909   4.8114  -0.7065  -1.2635   2.6126   0.00    0.0
2158 455657.000   22.305215290  114.186479693    -2.9140   4   0   2.3262   1.7363   5.2352  -0.9640  -1.5542   3.0137   0.00    0.0
2158 455658.000   22.305243799  114.186471625    -1.0541   4   0   1.8407   1.6505   4.4011  -0.4413  -1.0454   2.2723   0.00    0.0
2158 455659.000   22.305255080  114.186488134    -4.0562   4   0   1.9327   1.5359   4.3661  -0.3209  -0.6265   2.3271   0.00    0.0
2158 455660.000   22.305416401  114.186405377    11.0388   4   2   1.8778   1.6188   4.6322   0.6895   1.4519   2.2512   0.00    0.0
2158 455661.000   22.305466311  114.186349428    28.2515   2   5   1.9079   1.4987   4.3897   0.2014  -0.5005   2.3456   0.00    0.0
2158 455662.000   22.305450694  114.186242676    29.3123   4   2   1.5664   1.9404   4.7284   1.0950  -1.6023   1.7074   0.00    0.0
2158 455663.000   22.305485386  114.186122860    45.1101   4   2   2.0384   2.6953   6.3112   0.4938  -3.1088   2.2506   0.00    0.0
2158 455664.000   22.305534555  114.186151780    37.2194   4   2   2.1679   2.1490   5.5077   0.7853  -2.1095   2.3588   0.00    0.0
2158 455665.000   22.305530462  114.186153686    25.3739   4   2   1.8702   2.0706   4.9284   0.9174  -1.8211   1.8133   0.00    0.0
2158 455666.000   22.305555096  114.186130661    20.0819   4   0   1.9944   2.0911   5.0977   0.7999  -1.9297   2.0525   0.00    0.0
2158 455667.000   22.305565602  114.186090886    13.5199   4   0   2.1547   2.1018   5.2739   0.8534  -1.9263   2.2807   0.00    0.0
2158 455668.000   22.305611184  114.186030221    16.6433   4   2   1.8668   2.0422   4.9009   0.8873  -1.8704   1.7844   0.00    0.0
2158 455669.000   22.305692638  114.186042096    17.1455   4   0   2.1897   3.2980   6.2982   1.7844  -3.6867  -0.6226   0.00    0.0
2158 455670.000   22.305663675  114.185874300    86.1718   4   2   2.3073   3.5447   6.3442   1.5696  -3.3445   2.4243   0.00    0.0
2158 455671.000   22.305635548  114.185809256    99.6874   4   2   2.3462   3.4630   6.1635   1.6948  -2.7444   2.0083   0.00    0.0
2158 455672.000   22.305680986  114.185801645   117.7484   4   2   2.3010   3.4304   5.6670   1.7543  -2.8081   2.0482   0.00    0.0
2158 455673.000   22.305755114  114.185805872   121.7850   2   4   1.5494   2.4510   5.4197   1.2962  -2.3755   1.5440   0.00    0.0
2158 455674.000   22.305673483  114.185656859   146.2359   4   0   3.2332   2.3655   6.1052   1.1784  -1.2952   3.6873   0.00    0.0
2158 455675.000   22.305519989  114.185703794   160.6051   4   0   2.5382   1.8832   4.5434   0.5497  -1.1185   2.1843   0.00    0.0
2158 455680.000   22.305656378  114.185052660    14.6019   4   0   3.1573   3.9143   7.4473   2.9431   4.1039   4.2192   0.00    0.0
2158 455681.000   22.305680301  114.185052533     8.2363   4   2   2.7498   3.1036   5.6901   2.3214   2.5482   3.2832   0.00    0.0
2158 455682.000   22.305733501  114.185102172    12.3397   4   2   2.4574   3.2156   5.7947   2.4793   2.9045   3.0840   0.00    0.0
2158 455683.000   22.306222227  114.186094112    21.0704   4   2   2.5681   4.3100   6.2218   2.7119  -3.5303   1.0371   0.00    0.0
2158 455684.000   22.306388565  114.186463289    -4.8152   4   0   2.6317   4.6483   6.7704   2.6937  -4.2309   1.2050   0.00    0.0
2158 455685.000   22.306701922  114.187125679   -27.6996   4   0   4.7509   9.8974   6.7970   6.4763  -5.4984  -2.1240   0.00    0.0
2158 455686.000   22.306847363  114.187425117   -39.2021   4   0   7.8871  16.9065   7.8596  11.2485  -8.4038  -4.3954   0.00    0.0
2158 455687.000   22.306291713  114.186048128    10.6593   4   0   2.4874   3.8036   6.8107   1.7541  -3.4545   2.7677   0.00    0.0
2158 455688.000   22.306115708  114.185551632    14.3605   4   0   2.9605   5.1414   6.6237   2.9671  -2.6408   3.0509   0.00    0.0
2158 455689.000   22.306333406  114.185974688    13.5327   4   0   2.7571   4.5430   6.5670   2.5683  -3.9709   1.9279   0.00    0.0
2158 455690.000   22.306324510  114.185796726    42.3408   4   0   2.0467   2.9250   6.4839   0.2094  -3.4268   2.5241   0.00    0.0
2158 455691.000   22.306347540  114.185714602    44.0901   4   0   2.2064   3.4443   6.9150   1.2183  -4.0013   2.1587   0.00    0.0
2158 455692.000   22.306206185  114.185287292    59.7833   2   4   2.0371   2.8878   6.5779  -0.3753  -3.4879   2.5549   0.00    0.0
2158 455693.000   22.306215116  114.185108153    71.0077   4   2   2.3962   3.1375   8.1292  -1.3227  -4.2633   3.4288   0.00    0.0
2158 455694.000   22.306198629  114.185089982    70.3185   4   3   2.0621   2.8950   6.8639  -0.6755  -3.6094   2.7164   0.00    0.0
2158 455695.000   22.306241304  114.185050133    81.8716   4   0   2.3969   3.1471   7.8985  -1.3554  -4.1828   3.5030   0.00    0.0
2158 455696.000   22.306254440  114.185012056    78.7737   4   2   2.3709   3.1591   6.6978  -1.4138  -4.0942   3.2181   0.00    0.0
2158 455697.000   22.306224874  114.184974595    77.2164   2   4   2.2180   3.0180   5.9667  -1.0143  -3.5674   2.7478   0.00    0.0
2158 455698.000   22.306233019  114.184940208    81.1730   2   4   2.5357   3.4912   6.5589   1.1769  -3.4100   3.0051   0.00    0.0
2158 455699.000   22.306309615  114.184933074    83.2952   4   3   2.4411   3.5934   5.6878   1.1152  -3.7125   2.5731   0.00    0.0
2158 455700.000   22.306353868  114.184894320    85.9661   2   4   1.9749   3.2702   4.6126   1.9358  -2.7204   1.3251   0.00    0.0
2158 455701.000   22.306356418  114.184885471    79.0814   2   4   1.7335   2.8863   4.1575   1.7295  -1.3368   1.9412   0.00    0.0
2158 455702.000   22.306344710  114.184896538    73.6439   4   2   2.2073   2.9642   3.8678   1.8500  -0.7583   2.0283   0.00    0.0
2158 455703.000   22.306375205  114.184941911    67.2397   4   2   1.9285   2.5192   4.4715   0.9675  -2.2055   1.8408   0.00    0.0
2158 455704.000   22.306357994  114.184925002    53.6666   4   2   1.5153   2.5047   4.9012   1.3051  -2.4377   1.2633   0.00    0.0
2158 455705.000   22.306383676  114.184959125    41.7290   2   4   1.8086   2.9353   5.0041   1.4414  -2.3354   1.7483   0.00    0.0
2158 455706.000   22.306349966  114.184933512    35.9840   2   4   1.8329   2.6483   5.2476   0.9107  -2.7024   1.8981   0.00    0.0
2158 455707.000   22.306356423  114.184912283    34.9836   2   4   1.4024   2.3238   5.0003   1.1144  -2.3581   1.4311   0.00    0.0
2158 455708.000   22.306355789  114.184899035    39.8933   2   5   1.2526   2.2088   3.6290   1.1909  -2.2382   0.4607   0.00    0.0
2158 455709.000   22.306344999  114.184882629    41.4778   2   5   1.4914   2.3217   3.2174   0.9526  -2.0010   0.7698   0.00    0.0
2158 455710.000   22.306349541  114.184896989    38.7618   2   5   1.0530   1.6131   2.8341   0.5493  -1.6342   0.8618   0.00    0.0
2158 455711.000   22.306347622  114.184899334    37.1714   2   5   0.9193   1.3725   2.6145   0.3842  -1.4508   0.8860   0.00    0.0
2158 455712.000   22.306285595  114.184727818    51.0092   4   2   1.6919   1.6162   2.4764   0.5387  -0.9159   1.0910   0.00    0.0
2158 455713.000   22.306293599  114.184647710    66.4427   4   3   1.8768   1.7336   3.1569   0.7502  -0.9133   1.5969   0.00    0.0
2158 455714.000   22.306346870  114.184613438    89.3276   2   5   2.0450   1.7995   4.0719   0.8049  -1.1818   2.0897   0.00    0.0
2158 455715.000   22.306441727  114.184646702   104.7451   2   5   1.8353   1.7463   4.3868   0.3101  -1.3884   2.1416   0.00    0.0
2158 455716.000   22.306504511  114.184758079    85.1217   4   2   2.1606   2.5254   5.1573  -0.9515  -3.0777   2.6337   0.00    0.0
2158 455717.000   22.306487723  114.184889031    65.3101   2   5   2.2213   2.9911   4.9893  -0.2873  -3.4188   2.2806   0.00    0.0
2158 455718.000   22.306497923  114.184878727    67.3435   2   5   1.5350   2.5070   4.0582   0.7685  -2.7416   1.5336   0.00    0.0
2158 455719.000   22.306464359  114.184875466    64.1258   2   5   1.7186   2.4003   3.7105   0.6717  -2.2695   1.3726   0.00    0.0
2158 455720.000   22.306437643  114.184871971    58.6308   2   6   1.9493   2.4058   4.5581  -0.1216  -2.3937   2.0794   0.00    0.0
2158 455721.000   22.306432119  114.184887067    52.5538   2   6   2.1661   2.6051   6.1197  -0.9818  -3.1254   2.8674   0.00    0.0
2158 455722.000   22.306445621  114.184882699    57.6324   2   5   1.3769   1.6762   3.5039  -0.4135  -1.8042   1.6187   0.00    0.0
2158 455723.000   22.306451469  114.184888066    57.9912   2   5   1.6673   2.0196   3.1852   0.4572  -1.6630   1.4325   0.00    0.0
2158 455724.000   22.306452009  114.184880692    57.3479   2   6   1.2023   1.4743   3.0246  -0.3787  -1.5873   1.3713   0.00    0.0
2158 455725.000   22.306425820  114.184884584    51.1391   2   5   1.6327   2.0245   2.9804   0.7681  -1.5256   1.2063   0.00    0.0
2158 455726.000   22.306400802  114.184861482    42.5010   2   4   1.7067   2.3198   3.8199   0.7400  -1.9352   1.5424   0.00    0.0
2158 455727.000   22.306416505  114.184853309    24.3841   2   5   1.9120   2.5863   5.2398   0.6211  -2.7210   2.0617   0.00    0.0
2158 455728.000   22.306428517  114.184820205    10.8406   4   2   1.3924   2.1235   5.4452   0.6480  -2.3319   1.9595   0.00    0.0
2158 455729.000   22.306485192  114.184847010    -0.1921   2   5   1.2921   2.0859   5.1581   0.9554  -2.1564   1.6215   0.00    0.0
2158 455730.000   22.306519616  114.184829952    -7.6284   4   2   1.2535   2.0430   4.6861   1.0841  -1.8798   1.3728   0.00    0.0
2158 455731.000   22.306486008  114.184693776     3.3903   2   4   2.1361   2.3209   4.4865   1.4479   0.8563   2.2088   0.00    0.0
2158 455732.000   22.306519914  114.184670882    -4.5644   2   4   1.8402   1.6336   4.2633   0.4792   0.9862   2.3150   0.00    0.0
2158 455733.000   22.306570759  114.184646946     0.5384   2   5   1.9498   1.6217   4.3074   0.5836   1.0134   2.4248   0.00    0.0
2158 455734.000   22.306598339  114.184662928     3.0281   2   7   1.2242   1.1274   2.7146   0.2506  -0.4231   1.4368   0.00    0.0
2158 455735.000   22.306612881  114.184647531     4.1989   2   7   0.9920   0.9163   2.3365  -0.1268  -0.5026   1.2109   0.00    0.0
2158 455736.000   22.306644849  114.184670546     5.1789   2   7   1.4161   1.5556   2.2601   0.4231  -0.6865   1.1289   0.00    0.0
2158 455737.000   22.306698120  114.184696880     7.2884   2   6   1.7067   2.3029   3.1982   1.1125  -1.5975   1.1839   0.00    0.0
2158 455738.000   22.306679405  114.184586557    18.3433   2   7   1.9622   2.3029   3.9769   1.3464   0.3777   1.9848   0.00    0.0
2158 455739.000   22.306659245  114.184558561    22.2196   2   7   1.6148   1.5807   3.9133   0.6205   0.9613   2.0254   0.00    0.0
2158 455740.000   22.306655377  114.184605494    17.3523   2   7   1.5309   1.2822   3.6572  -0.1966   0.5693   1.8869   0.00    0.0
2158 455741.000   22.306658440  114.184634511    12.9526   2   7   1.6491   1.2121   3.6201   0.3550   0.7964   1.9531   0.00    0.0
2158 455742.000   22.306632824  114.184633427     4.8665   2   7   1.7887   1.3401   3.9320   0.7151   1.2363   2.2023   0.00    0.0
2158 455743.000   22.306607600  114.184622361    -1.7317   2   9   1.8437   1.4365   4.0220   0.8489   1.2888   2.2597   0.00    0.0
2158 455744.000   22.306619476  114.184637749     1.6780   2   7   1.7005   1.2973   3.7604   0.5114   0.7325   1.9990   0.00    0.0
2158 455745.000   22.306625230  114.184646322     3.9611   2   9   1.6671   1.2768   3.6701   0.4753   0.7355   1.9592   0.00    0.0
2158 455746.000   22.306633480  114.184651271     5.5018   2   8   1.6823   1.2983   3.6641   0.4960   0.7189   1.9540   0.00    0.0
2158 455747.000   22.306632760  114.184652385     5.3687   2   9   1.1230   0.8862   2.3624   0.3198   0.4447   1.2571   0.00    0.0
2158 455748.000   22.306632191  114.184651196     5.8297   2  10   1.3654   1.2079   2.0410   0.3063   0.4079   1.0848   0.00    0.0
2158 455749.000   22.306635261  114.184650538     6.6679   2   8   1.5374   1.2836   2.7987   0.4194   0.5565   1.4872   0.00    0.0
2158 455750.000   22.306632906  114.184652743     6.6603   2   9   1.0328   0.8800   1.7899   0.2710   0.3429   0.9481   0.00    0.0
2158 455751.000   22.306634497  114.184652569     7.0909   2   8   0.8805   0.7301   1.6436   0.2348   0.3105   0.8722   0.00    0.0
2158 455752.000   22.306638694  114.184640870     7.2231   2   9   1.2436   1.1930   1.7557   0.0670   0.3264   0.8958   0.00    0.0
2158 455753.000   22.306636642  114.184635789     6.8809   2   9   0.8790   0.8173   1.5081   0.1944   0.3379   0.7882   0.00    0.0
2158 455754.000   22.306636114  114.184634472     6.3093   2   8   1.2306   1.1472   1.6401   0.2131   0.3552   0.8283   0.00    0.0
2158 455755.000   22.306631442  114.184624326     4.2847   2   8   1.3968   1.2022   2.6661   0.3263   0.5934   1.3630   0.00    0.0
2158 455756.000   22.306625505  114.184614726     1.8573   2   9   1.5022   1.1951   3.3831   0.3919   0.7737   1.7426   0.00    0.0
2158 455757.000   22.306620811  114.184609309     1.1376   2   9   1.5277   1.1981   3.5275   0.4100   0.8088   1.8183   0.00    0.0
2158 455758.000   22.306616323  114.184603475     1.0085   2   9   1.5276   1.2043   3.5245   0.4175   0.7984   1.8135   0.00    0.0
2158 455759.000   22.306613188  114.184598835     1.2934   2  10   1.5189   1.1954   3.5404   0.4314   0.8176   1.8217   0.00    0.0
2158 455760.000   22.306610587  114.184591450     1.2287   2  10   1.5226   1.1946   3.5656   0.4369   0.8264   1.8346   0.00    0.0
2158 455761.000   22.306608196  114.184590727     1.6052   2  11   1.0243   0.8249   2.2938   0.2725   0.5110   1.1753   0.00    0.0
2158 455762.000   22.306608915  114.184592259     2.3709   2   8   1.2277   1.1567   1.9717   0.2219   0.4173   0.9776   0.00    0.0
2158 455763.000   22.306612304  114.184590981     4.2154   2   8   1.3521   1.2010   2.7169   0.2854   0.5763   1.3592   0.00    0.0
2158 455764.000   22.306611924  114.184590098     3.9313   2   8   0.9106   0.8256   1.7267   0.1777   0.3608   0.8556   0.00    0.0
2158 455765.000   22.306611128  114.184591096     4.0939   2   8   0.7750   0.6941   1.5866   0.1361   0.3081   0.7888   0.00    0.0
2158 455766.000   22.306617695  114.184593542     4.6145   2   7   1.2403   1.2073   1.7248  -0.1445   0.2688   0.8755   0.00    0.0
2158 455767.000   22.306619358  114.184635415     5.9190   2   8   1.4004   1.4644   2.7170   0.3433   0.6226   1.4221   0.00    0.0
2158 455768.000   22.306625935  114.184608426     8.0629   2   8   1.5224   1.2526   3.4196   0.1155   0.5753   1.7893   0.00    0.0
2158 455769.000   22.306619357  114.184601255     8.6015   2   7   1.4706   1.2594   3.5568   0.2539   0.6100   1.7916   0.00    0.0
2158 455770.000   22.306634556  114.184623421    13.1469   2   7   1.5460   1.3974   3.7578   0.6001   1.0346   1.9419   0.00    0.0
2158 455771.000   22.306644990  114.184635739    15.9169   2   7   1.5609   1.3954   3.8241   0.6189   1.0920   1.9846   0.00    0.0
2158 455772.000   22.306633252  114.184632820    13.4742   2   9   1.0787   0.9551   2.4504   0.4227   0.7021   1.2927   0.00    0.0
2158 455773.000   22.306628209  114.184631704    12.7867   2   8   0.9166   0.7993   2.0915   0.3700   0.6009   1.1080   0.00    0.0
2158 455774.000   22.306624854  114.184631769    12.6808   2   8   0.8289   0.7085   1.9282   0.3438   0.5561   1.0248   0.00    0.0
2158 455775.000   22.306616721  114.184611691    11.0985   2   8   1.2284   1.2082   1.9391  -0.0349   0.3560   0.9670   0.00    0.0
2158 455776.000   22.306604411  114.184598910     7.1215   2   8   1.3450   1.2574   2.6722   0.0684   0.4463   1.3369   0.00    0.0
2158 455777.000   22.306590460  114.184595005     1.8923   2   9   1.4198   1.2550   3.3433   0.2608   0.6009   1.6662   0.00    0.0
2158 455778.000   22.306594135  114.184602143     0.7414   2   8   1.4680   1.2661   3.5257   0.2510   0.5706   1.7765   0.00    0.0
2158 455779.000   22.306604067  114.184604503     4.1578   2   8   0.9712   0.8722   2.1568   0.1184   0.3343   1.0795   0.00    0.0
2158 455780.000   22.306616293  114.184609748     5.2160   2   8   1.2094   1.1997   1.8470  -0.0867   0.2956   0.9180   0.00    0.0
2158 455781.000   22.306624547  114.184615378     6.9213   2   8   1.3502   1.2589   2.6975   0.0998   0.4668   1.3514   0.00    0.0
2158 455782.000   22.306635122  114.184631696     7.9999   2   8   1.5074   1.2070   3.4622   0.4198   0.7773   1.7747   0.00    0.0
2158 455783.000   22.306631442  114.184625479     8.5198   2   9   1.4818   1.2498   3.5816   0.2255   0.6659   1.8103   0.00    0.0
2158 455784.000   22.306625620  114.184634173     7.7646   2   9   1.4473   1.1893   3.5014   0.3573   0.7959   1.7476   0.00    0.0
2158 455785.000   22.306624132  114.184632204     7.3273   2   8   0.9756   0.8265   2.2577   0.2272   0.4847   1.1206   0.00    0.0
2158 455786.000   22.306625048  114.184628280     7.0410   2   9   1.1970   1.1455   1.9208   0.2496   0.4301   0.9376   0.00    0.0
