% program   : RTKPOST demo5 b34k
% inp file  : D:\0POLYU¿Î³Ì\AAE6102\25.3.20_Lab\AAE6102_Laboratory-main\GNSS Data\UrbanNav - Medium\20210521.medium-urban.whampoa.ublox.f9p.obs
% inp file  : D:\0POLYU¿Î³Ì\AAE6102\25.3.20_Lab\AAE6102_Laboratory-main\GNSS Data\UrbanNav - Medium\hksc141g.21o
% inp file  : D:\0POLYU¿Î³Ì\AAE6102\25.3.20_Lab\AAE6102_Laboratory-main\GNSS Data\UrbanNav - Medium\hksc141g.21*
% obs start : 2021/05/21 06:29:02.0 GPST (week2158 455342.0s)
% obs end   : 2021/05/21 06:54:39.0 GPST (week2158 456879.0s)
% pos mode  : Kinematic
% freqs     : L1+L2/E5b
% solution  : Forward
% elev mask : 20.0 deg
% dynamics  : on
% tidecorr  : off
% ionos opt : Broadcast
% tropo opt : Saastamoinen
% ephemeris : Broadcast
% navi sys  : GPS GLONASS Galileo
% amb res   : Fix and Hold
% amb glo   : Fix and Hold
% val thres : 3.0
% antenna1  :                       ( 0.0000  0.0000  0.0000)
% antenna2  :                       ( 0.0000  0.0000  0.0000)
% ref pos   : 22.322172082  114.141187963    20.2386
%
% (lat/lon/height=WGS84/ellipsoidal,Q=1:fix,2:float,3:sbas,4:dgps,5:single,6:ppp,ns=# of satellites)
%  GPST          latitude(deg) longitude(deg)  height(m)   Q  ns   sdn(m)   sde(m)   sdu(m)  sdne(m)  sdeu(m)  sdun(m) age(s)  ratio
2158 455342.000   22.301558264  114.190300121     3.6101   2  11   0.9333   1.0949   2.4928   0.1969   0.6847   0.4996   0.00    0.0
2158 455343.000   22.301558908  114.190299743     3.7859   2  14   0.6716   0.7867   1.7785   0.1716   0.4897   0.3339   0.00    0.0
2158 455344.000   22.301560933  114.190298752     4.2335   2  12   0.5547   0.6485   1.4659   0.1423   0.4064   0.2765   0.00    0.0
2158 455345.000   22.301563093  114.190297654     4.6994   2  13   0.4806   0.5639   1.2705   0.1197   0.3515   0.2298   0.00    0.0
2158 455346.000   22.301564834  114.190296972     4.9939   2  12   0.4314   0.5058   1.1403   0.1086   0.3169   0.2084   0.00    0.0
2158 455347.000   22.301566129  114.190296791     5.2259   2  12   0.3946   0.4623   1.0432   0.0992   0.2915   0.1929   0.00    0.0
2158 455348.000   22.301567019  114.190293792     5.3343   2  12   0.3660   0.4286   0.9675   0.0923   0.2709   0.1805   0.00    0.0
2158 455349.000   22.301567979  114.190286651     5.4072   2  11   0.3423   0.4013   0.9060   0.0867   0.2545   0.1698   0.00    0.0
2158 455350.000   22.301568568  114.190276163     5.4269   2   9   0.3231   0.3787   0.8551   0.0820   0.2404   0.1617   0.00    0.0
2158 455351.000   22.301571912  114.190263467     5.4736   2  11   0.3066   0.3594   0.8118   0.0776   0.2286   0.1546   0.00    0.0
2158 455352.000   22.301580931  114.190253380     5.5230   2  11   0.2923   0.3429   0.7744   0.0738   0.2186   0.1482   0.00    0.0
2158 455353.000   22.301592617  114.190246324     5.4378   2  13   0.2797   0.3283   0.7409   0.0706   0.2098   0.1427   0.00    0.0
2158 455354.000   22.301605049  114.190238826     5.4600   2  13   0.2685   0.3155   0.7122   0.0676   0.2019   0.1381   0.00    0.0
2158 455355.000   22.301618775  114.190231144     5.4689   2  14   0.2585   0.3040   0.6864   0.0651   0.1949   0.1339   0.00    0.0
2158 455356.000   22.301634323  114.190222604     5.4908   2  13   0.2495   0.2937   0.6632   0.0626   0.1888   0.1300   0.00    0.0
2158 455357.000   22.301655893  114.190211311     5.4560   2  12   0.2413   0.2843   0.6418   0.0598   0.1830   0.1269   0.00    0.0
2158 455358.000   22.301684101  114.190197514     5.4409   2  12   0.2339   0.2759   0.6227   0.0576   0.1778   0.1240   0.00    0.0
2158 455359.000   22.301717872  114.190181508     5.4027   2  12   0.2269   0.2680   0.6050   0.0550   0.1733   0.1215   0.00    0.0
2158 455360.000   22.301756124  114.190163293     5.4085   2  12   0.2205   0.2608   0.5888   0.0526   0.1691   0.1191   0.00    0.0
2158 455361.000   22.301798769  114.190143203     5.4010   2  12   0.2145   0.2542   0.5738   0.0504   0.1652   0.1170   0.00    0.0
2158 455362.000   22.301845615  114.190120539     5.3831   2  12   0.2090   0.2481   0.5599   0.0487   0.1615   0.1149   0.00    0.0
2158 455363.000   22.301896096  114.190095620     5.3882   2  11   0.2039   0.2424   0.5472   0.0471   0.1577   0.1129   0.00    0.0
2158 455364.000   22.301949115  114.190069264     5.3570   2  11   0.1991   0.2371   0.5351   0.0453   0.1546   0.1111   0.00    0.0
2158 455365.000   22.302001632  114.190042937     5.3176   2  12   0.1946   0.2320   0.5236   0.0435   0.1518   0.1097   0.00    0.0
2158 455366.000   22.302053130  114.190018292     5.2283   2  11   0.1905   0.2276   0.5131   0.0429   0.1486   0.1077   0.00    0.0
2158 455367.000   22.302102825  114.189993196     5.2296   2  10   0.1868   0.2235   0.5030   0.0429   0.1456   0.1059   0.00    0.0
2158 455368.000   22.302150950  114.189969015     5.1176   2   9   0.1834   0.2198   0.4937   0.0435   0.1423   0.1039   0.00    0.0
2158 455369.000   22.302196383  114.189942036     5.0471   2   8   0.1804   0.2174   0.4859   0.0459   0.1371   0.1010   0.00    0.0
2158 455370.000   22.302236013  114.189908597     4.9930   2   8   0.1890   0.2512   0.4792   0.1034   0.1125   0.0850   0.00    0.0
2158 455371.000   22.302267573  114.189869738     4.9687   2   7   0.1747   0.2121   0.4700   0.0481   0.1302   0.0974   0.00    1.0
2158 455372.000   22.302287636  114.189825956     4.8847   2   8   0.1720   0.2093   0.4617   0.0485   0.1260   0.0954   0.00    1.1
2158 455373.000   22.302296412  114.189780704     4.8680   2   9   0.1695   0.2065   0.4532   0.0490   0.1211   0.0931   0.00    1.0
2158 455374.000   22.302295146  114.189736510     4.7817   2   9   0.1672   0.2040   0.4451   0.0493   0.1165   0.0910   0.00    1.0
2158 455375.000   22.302284399  114.189694377     4.7277   2  10   0.1649   0.2018   0.4378   0.0502   0.1130   0.0891   0.00    1.0
2158 455376.000   22.302265749  114.189655914     4.7565   2  10   0.1627   0.1993   0.4306   0.0508   0.1109   0.0877   0.00    1.2
2158 455377.000   22.302244026  114.189619336     4.7514   2  11   0.1606   0.1973   0.4242   0.0515   0.1091   0.0864   0.00    1.1
2158 455378.000   22.302221433  114.189582904     4.7838   2  12   0.1582   0.1953   0.4182   0.0515   0.1072   0.0855   0.00    1.1
2158 455379.000   22.302199432  114.189547879     4.8287   2  12   0.1559   0.1934   0.4125   0.0514   0.1053   0.0844   0.00    1.0
2158 455380.000   22.302178394  114.189515537     4.8944   2  12   0.1536   0.1916   0.4070   0.0513   0.1034   0.0837   0.00    1.2
2158 455381.000   22.302158631  114.189485608     4.9178   2  11   0.1516   0.1896   0.4024   0.0507   0.1023   0.0838   0.00    1.0
2158 455382.000   22.302140049  114.189458216     4.8813   2  12   0.1495   0.1876   0.3972   0.0502   0.1014   0.0833   0.00    1.5
2158 455383.000   22.302121502  114.189432069     4.9232   2  12   0.1475   0.1856   0.3923   0.0496   0.1006   0.0830   0.00    1.6
2158 455384.000   22.302101644  114.189404208     4.9808   2  11   0.1456   0.1837   0.3878   0.0490   0.0999   0.0829   0.00    1.7
2158 455385.000   22.302080549  114.189373104     5.0538   2  10   0.1438   0.1823   0.3835   0.0487   0.0981   0.0825   0.00    1.7
2158 455386.000   22.302059249  114.189336698     5.1543   2   9   0.1422   0.1823   0.3792   0.0503   0.0964   0.0819   0.00    2.0
2158 455387.000   22.302039527  114.189292377     5.2762   2   7   0.1858   0.3159   0.3866   0.1844  -0.1215  -0.0668   0.00    2.0
2158 455388.000   22.302026083  114.189243431     5.2492   2   7   0.1392   0.1763   0.3708   0.0473   0.0991   0.0835   0.00    1.3
2158 455389.000   22.302019693  114.189188595     5.3412   2   5   0.1852   0.3171   0.3829   0.1869  -0.1172  -0.0566   0.00    2.2
2158 455390.000   22.302026758  114.189140017     5.2624   2   4   0.2028   0.3692   0.3880   0.2260  -0.1712  -0.1010   0.00    0.0
2158 455391.000   22.302046933  114.189104284     4.5995   2   4   0.3806   0.7344   0.4429   0.4603  -0.3137   0.0401   0.00    0.0
2158 455392.000   22.302068341  114.189047762     4.4494   4   2   0.8776   1.0065   0.9234   0.5883  -0.4986   0.7471   0.00    0.0
2158 455393.000   22.302098260  114.188985802     5.1860   4   0   1.0158   0.3085   1.1401  -0.2642  -0.3279   1.0396   0.00    0.0
2158 455394.000   22.302135913  114.188942653     5.6706   4   0   1.0911   1.0067   1.1726   0.5304  -0.5689   1.0116   0.00    0.0
2158 455395.000   22.302162369  114.188891199     5.8013   4   0   0.8169   0.2863   0.9206  -0.2141  -0.2705   0.8240   0.00    0.0
2158 455396.000   22.302183665  114.188850665     5.4619   4   0   0.6849   0.2745   0.8022  -0.1605  -0.2252   0.6928   0.00    0.0
2158 455397.000   22.302195441  114.188817135     4.8160   4   0   0.6671   0.2670   0.8147  -0.1568  -0.2217   0.6906   0.00    0.0
2158 455398.000   22.302204020  114.188792148     4.5928   4   0   0.5907   0.2594   0.7370  -0.1335  -0.1994   0.6093   0.00    0.0
2158 455399.000   22.302208951  114.188774533     4.4992   4   0   0.5465   0.2553   0.6963  -0.1241  -0.1857   0.5640   0.00    0.0
2158 455400.000   22.302212243  114.188758192     4.3507   4   0   0.5130   0.2492   0.6680  -0.1146  -0.1751   0.5313   0.00    0.0
2158 455401.000   22.302208627  114.188740609     3.8970   2   5   0.8638   0.2530   0.9983  -0.2556  -0.2930   0.8935   0.00    0.0
2158 455402.000   22.302199911  114.188725529     3.6395   2   9   1.2195   0.2641   1.3627  -0.3793  -0.4121   1.2645   0.00    0.0
2158 455403.000   22.302191468  114.188715204     3.8539   2  10   0.7360   0.2421   0.8772  -0.2160  -0.2561   0.7656   0.00    0.0
2158 455404.000   22.302180092  114.188710269     3.8444   2  12   0.6296   0.2340   0.7752  -0.1790  -0.2209   0.6564   0.00    0.0
2158 455405.000   22.302175549  114.188709295     3.8639   2  11   0.5770   0.2280   0.7260  -0.1594  -0.2017   0.6029   0.00    0.0
2158 455406.000   22.302176160  114.188709025     3.9671   2  13   0.5373   0.2229   0.6894  -0.1457  -0.1879   0.5626   0.00    0.0
2158 455407.000   22.302176582  114.188708544     4.0699   2  13   0.5034   0.2180   0.6582  -0.1328  -0.1748   0.5281   0.00    0.0
2158 455408.000   22.302176922  114.188707991     4.1640   2  12   0.4765   0.2138   0.6341  -0.1240  -0.1653   0.5012   0.00    0.0
2158 455409.000   22.302177310  114.188707519     4.2482   2  13   0.4534   0.2099   0.6136  -0.1166  -0.1571   0.4781   0.00    0.0
2158 455410.000   22.302177649  114.188707060     4.3277   2  13   0.4332   0.2064   0.5957  -0.1100  -0.1498   0.4579   0.00    0.0
2158 455411.000   22.302177957  114.188706606     4.4108   2  14   0.4152   0.2030   0.5797  -0.1042  -0.1431   0.4399   0.00    0.0
2158 455412.000   22.302178080  114.188706259     4.4570   2  13   0.3992   0.1999   0.5656  -0.0991  -0.1372   0.4239   0.00    0.0
2158 455413.000   22.302178218  114.188705952     4.5066   2  12   0.3846   0.1969   0.5529  -0.0946  -0.1317   0.4094   0.00    0.0
2158 455414.000   22.302178198  114.188705584     4.5392   2  12   0.3714   0.1940   0.5412  -0.0905  -0.1266   0.3962   0.00    0.0
2158 455415.000   22.302178297  114.188705302     4.5783   2  13   0.3591   0.1912   0.5300  -0.0866  -0.1217   0.3838   0.00    0.0
2158 455416.000   22.302178202  114.188705028     4.5750   2  14   0.3476   0.1886   0.5195  -0.0831  -0.1171   0.3723   0.00    0.0
2158 455417.000   22.302178416  114.188704780     4.6295   2  14   0.3370   0.1860   0.5098  -0.0799  -0.1129   0.3616   0.00    0.0
2158 455418.000   22.302178433  114.188704569     4.6566   2  13   0.3272   0.1836   0.5009  -0.0770  -0.1090   0.3516   0.00    0.0
2158 455419.000   22.302178870  114.188704485     4.7221   2  13   0.3179   0.1813   0.4923  -0.0744  -0.1054   0.3422   0.00    0.0
2158 455420.000   22.302179275  114.188704377     4.7758   2  14   0.3090   0.1790   0.4836  -0.0716  -0.1013   0.3330   0.00    0.0
2158 455421.000   22.302179807  114.188704289     4.8434   2  13   0.3006   0.1768   0.4759  -0.0694  -0.0979   0.3245   0.00    0.0
2158 455422.000   22.302180193  114.188704330     4.8917   2  14   0.2927   0.1747   0.4679  -0.0672  -0.0945   0.3162   0.00    0.0
2158 455423.000   22.302180503  114.188704260     4.9471   2  14   0.2851   0.1726   0.4607  -0.0652  -0.0914   0.3084   0.00    0.0
2158 455424.000   22.302180800  114.188704284     4.9880   2  13   0.2779   0.1706   0.4537  -0.0634  -0.0882   0.3010   0.00    0.0
2158 455425.000   22.302181043  114.188704319     5.0199   2  14   0.2709   0.1687   0.4466  -0.0616  -0.0850   0.2936   0.00    0.0
2158 455426.000   22.302180962  114.188704351     5.0053   2  14   0.2643   0.1669   0.4398  -0.0599  -0.0820   0.2866   0.00    1.4
2158 455427.000   22.302181217  114.188704434     5.0484   2  14   0.2579   0.1651   0.4333  -0.0584  -0.0790   0.2799   0.00    1.7
2158 455428.000   22.302181185  114.188704418     5.0308   2  14   0.2518   0.1634   0.4268  -0.0569  -0.0762   0.2733   0.00    1.3
2158 455429.000   22.302181495  114.188704429     5.0729   2  13   0.2459   0.1617   0.4208  -0.0556  -0.0734   0.2671   0.00    1.1
2158 455430.000   22.302181481  114.188704478     5.0711   2  13   0.2402   0.1601   0.4147  -0.0543  -0.0707   0.2610   0.00    1.1
2158 455431.000   22.302181600  114.188704392     5.0957   2  13   0.2347   0.1585   0.4089  -0.0532  -0.0682   0.2551   0.00    1.3
2158 455432.000   22.302181431  114.188704323     5.0782   2  13   0.2294   0.1570   0.4030  -0.0522  -0.0657   0.2493   0.00    1.1
2158 455433.000   22.302181145  114.188704292     5.0542   2  13   0.2243   0.1555   0.3973  -0.0512  -0.0631   0.2437   0.00    1.1
2158 455434.000   22.302181136  114.188704198     5.0709   2  13   0.2193   0.1540   0.3917  -0.0502  -0.0606   0.2382   0.00    1.1
2158 455435.000   22.302181323  114.188704177     5.0795   2  12   0.2146   0.1526   0.3870  -0.0496  -0.0590   0.2333   0.00    1.0
2158 455436.000   22.302181372  114.188704130     5.0959   2  13   0.2100   0.1512   0.3812  -0.0486  -0.0559   0.2280   0.00    1.1
2158 455437.000   22.302181323  114.188704057     5.1016   2  13   0.2054   0.1499   0.3757  -0.0478  -0.0535   0.2228   0.00    1.1
2158 455438.000   22.302181709  114.188704052     5.1642   2  13   0.2010   0.1485   0.3704  -0.0470  -0.0511   0.2178   0.00    1.3
2158 455439.000   22.302181736  114.188703925     5.1556   2  13   0.1967   0.1472   0.3651  -0.0464  -0.0487   0.2128   0.00    1.1
2158 455440.000   22.302182049  114.188703852     5.1711   2  13   0.1925   0.1460   0.3599  -0.0457  -0.0463   0.2081   0.00    1.1
2158 455441.000   22.302181971  114.188703761     5.1746   2  13   0.1885   0.1447   0.3548  -0.0451  -0.0439   0.2034   0.00    1.1
2158 455442.000   22.302181307  114.188703561     5.2044   2  13   0.1845   0.1435   0.3495  -0.0444  -0.0411   0.1987   0.00    1.1
2158 455443.000   22.302171048  114.188701822     5.2246   2  12   0.1813   0.1424   0.3465  -0.0442  -0.0399   0.1956   0.00    1.1
2158 455444.000   22.302146828  114.188693640     5.2918   2   7   0.1793   0.1414   0.3451  -0.0437  -0.0388   0.1942   0.00    1.3
2158 455445.000   22.302108806  114.188677461     5.2797   2  10   0.1771   0.1404   0.3429  -0.0424  -0.0362   0.1921   0.00    1.2
2158 455446.000   22.302060982  114.188652074     5.3494   2   7   0.1751   0.1396   0.3421  -0.0424  -0.0334   0.1906   0.00    1.3
2158 455447.000   22.302003927  114.188618579     5.5612   4   3   0.2570   0.2378   0.6646   0.1859   0.3303   0.3792   0.00    0.0
2158 455448.000   22.301944134  114.188584776     6.4168   4   2   0.4771   0.5141   1.3765   0.4518   0.7812   0.7927   0.00    0.0
2158 455449.000   22.301882269  114.188529332     5.8484   4   2   0.1727   0.1402   0.3521  -0.0384  -0.0376   0.1924   0.00    0.0
2158 455450.000   22.301825439  114.188475747     5.7942   2   5   0.1713   0.1385   0.3497  -0.0402  -0.0430   0.1907   0.00    1.2
2158 455451.000   22.301771259  114.188417640     5.5404   2   6   0.1693   0.1348   0.3353  -0.0403  -0.0300   0.1859   0.00    1.3
2158 455452.000   22.301722521  114.188355608     5.7688   2   4   0.1682   0.1367   0.3470  -0.0397  -0.0410   0.1884   0.00    1.2
2158 455453.000   22.301692218  114.188316850     6.9597   4   0   0.5021   0.8805   0.8108   0.6210   0.0249   0.3933   0.00    0.0
2158 455454.000   22.301651018  114.188258948    10.9111   4   2   0.5651   0.7975   1.7354   0.3877   0.6008   0.9745   0.00    0.0
2158 455455.000   22.301642059  114.188220396    16.8510   4   2   0.9931   1.1715   2.9131   0.9240   0.8420   1.5209   0.00    0.0
2158 455456.000   22.301609218  114.188131862    25.7519   4   2   1.1354   1.2697   3.6900   0.9703   0.7561   1.8529   0.00    0.0
2158 455457.000   22.301555398  114.188038288    23.9826   4   3   1.0637   1.1493   3.8190   0.8130   0.0363   1.8355   0.00    0.0
2158 455458.000   22.301479682  114.187961123     6.2644   2   4   0.6194   1.0467   0.5109   0.7855   0.5557   0.4730   0.00    0.0
2158 455459.000   22.301437025  114.187878442     1.4393   4   3   0.5796   0.9648   2.0086   0.7209   0.4246   0.5879   0.00    0.0
2158 455460.000   22.301410394  114.187818275     3.8496   4   2   0.5918   0.9621   2.5609   0.7260   0.5951   0.7465   0.00    0.0
2158 455461.000   22.301391891  114.187791335     2.8584   4   0   1.0529   0.7383   2.1232  -0.2041  -0.9061   0.7177   0.00    0.0
2158 455462.000   22.301384602  114.187743944     3.0975   4   2   1.1600   1.2033   2.2711  -0.4825  -0.2697   0.7481   0.00    0.0
2158 455463.000   22.301378724  114.187736721     1.0469   4   2   1.1325   0.8682   2.2142  -0.3188  -0.8113   0.8143   0.00    0.0
2158 455464.000   22.301359079  114.187736809     0.5534   4   3   1.1923   1.0281   2.2718  -0.6930  -1.0246   0.5923   0.00    0.0
2158 455465.000   22.301351426  114.187727142     1.1946   2   5   1.0471   1.0240   2.0354  -0.8063  -1.0652   0.9907   0.00    0.0
2158 455466.000   22.301346636  114.187723478     1.6131   2   4   0.9774   0.9245   2.0808  -0.7670  -1.0043   0.9748   0.00    0.0
2158 455467.000   22.301360784  114.187710705     1.8087   2   4   1.1771   0.9235   2.5916  -0.8730  -0.8212  -0.0646   0.00    0.0
2158 455468.000   22.301367784  114.187703188     0.2213   2   4   1.1905   0.9088   2.8207  -0.8801  -0.8432  -0.4735   0.00    0.0
2158 455469.000   22.301329391  114.187737080    -5.6880   2   8   0.9653   0.8656   2.5898  -0.7772  -1.0962   0.8733   0.00    0.0
2158 455470.000   22.301328472  114.187735497    -3.5557   2   7   0.8303   0.6764   1.8511  -0.6142  -0.6479   0.5355   0.00    0.0
2158 455471.000   22.301321497  114.187742288    -4.3394   2   6   0.7776   0.6170   1.6144  -0.5647  -0.5349   0.4906   0.00    0.0
2158 455472.000   22.301315774  114.187747975    -5.8866   2   7   0.7393   0.5799   1.4959  -0.5333  -0.4913   0.4891   0.00    0.0
2158 455473.000   22.301313752  114.187747570    -6.0543   2   6   0.7085   0.5513   1.4052  -0.5092  -0.4612   0.4877   0.00    0.0
2158 455474.000   22.301308107  114.187746578    -5.4123   2   4   0.6746   0.5271   1.3241  -0.4853  -0.4496   0.5025   0.00    0.0
2158 455475.000   22.301302791  114.187743253    -4.8529   2   6   0.9608   0.9101   1.4277  -0.8687  -0.8400   0.8595   0.00    0.0
2158 455476.000   22.301285747  114.187734620    -3.1262   4   2   1.6212   1.2742   1.9770  -0.9079  -0.7818   1.1325   0.00    0.0
2158 455477.000   22.301318919  114.187721030    -1.2645   4   2   1.5744   0.8977   2.8058  -0.2796   0.4693   0.9122   0.00    0.0
2158 455478.000   22.301336475  114.187687353     3.1943   4   2   1.6191   1.2394   2.9701  -0.7779   0.2172   1.2263   0.00    0.0
2158 455479.000   22.301338003  114.187695163     3.7101   4   0   1.7057   1.3332   2.9482  -0.9351  -0.7218   1.5405   0.00    0.0
2158 455480.000   22.301300042  114.187765955     3.3798   4   2   1.5508   1.2845   2.9163  -0.8113  -0.6680   1.4550   0.00    0.0
2158 455481.000   22.301283756  114.187845713    -3.2330   4   3   1.6163   1.3643   2.9953  -0.9569  -0.9504   1.5740   0.00    0.0
2158 455482.000   22.301320996  114.187870481   -10.2871   4   2   1.2093   1.1958   2.9850  -0.3874  -0.6240   1.3510   0.00    0.0
2158 455483.000   22.301344179  114.187905174   -13.8460   4   3   1.1838   1.3070   3.2929   0.6291   0.9884   1.4866   0.00    0.0
2158 455484.000   22.301374839  114.187960266    -8.0478   4   3   0.8976   0.8611   2.0046  -0.2410  -0.0456   0.9701   0.00    0.0
2158 455485.000   22.301437828  114.188000727    -0.7234   2   5   0.7119   0.7077   1.5724  -0.2233   0.1679   0.6972   0.00    0.0
2158 455486.000   22.301481328  114.188048920     1.1170   2   5   0.6282   0.6200   1.4037  -0.2077   0.1724   0.6075   0.00    0.0
2158 455487.000   22.301515855  114.188095974     1.5578   2   6   0.7495   0.9669   1.3513   0.5694   0.4812   0.6871   0.00    0.0
2158 455488.000   22.301551589  114.188147571     2.3162   2   4   0.6779   0.7988   1.5661   0.4433   0.6868   0.7940   0.00    0.0
2158 455489.000   22.301596598  114.188191358     4.4356   4   0   1.3664   1.2279   2.1910  -0.7953   0.9314   1.2839   0.00    0.0
2158 455490.000   22.301632124  114.188240455     6.4405   4   0   0.8618   1.1101   2.2250  -0.0231   1.2479   1.0017   0.00    0.0
2158 455491.000   22.301663280  114.188288789     8.8501   2   5   0.6398   0.8632   2.0909   0.5296   1.1269   0.9899   0.00    0.0
2158 455492.000   22.301723155  114.188291794    10.5639   2   5   1.2340   1.2085   2.2632  -0.6873   1.1227   1.2399   0.00    0.0
2158 455493.000   22.301786966  114.188294095    15.3813   2   6   1.5145   1.2535   2.4092  -0.8586   1.0171   1.5159   0.00    0.0
2158 455494.000   22.301805262  114.188317750    18.3482   2   9   1.5101   1.1659   2.2849  -0.8652   0.8562   1.5013   0.00    0.0
2158 455495.000   22.301792395  114.188322513    15.5385   2   8   0.8577   0.8913   1.8109  -0.3626   0.8977   0.9526   0.00    0.0
2158 455496.000   22.301788312  114.188326794    15.3990   2   8   0.7448   0.6825   1.4533  -0.3636   0.5735   0.7980   0.00    0.0
2158 455497.000   22.301785791  114.188326976    15.1284   2   8   0.6661   0.5955   1.2882  -0.3400   0.4451   0.7044   0.00    0.0
2158 455498.000   22.301784663  114.188327294    15.0958   2   8   0.6094   0.5419   1.1878  -0.3142   0.3767   0.6429   0.00    0.0
2158 455499.000   22.301784067  114.188326920    15.0138   2   9   0.5657   0.5003   1.1091  -0.2948   0.3222   0.5951   0.00    0.0
2158 455500.000   22.301783746  114.188327526    15.0422   2   9   0.5281   0.4590   1.0242  -0.2859   0.2436   0.5474   0.00    0.0
2158 455501.000   22.301783912  114.188328387    15.1718   2   9   0.4988   0.4341   0.9764  -0.2704   0.2148   0.5172   0.00    0.0
2158 455502.000   22.301784331  114.188329691    15.3813   2   9   0.4739   0.4131   0.9356  -0.2570   0.1914   0.4916   0.00    0.0
2158 455503.000   22.301784054  114.188330659    15.3978   2   9   0.4523   0.3950   0.9001  -0.2453   0.1716   0.4694   0.00    0.0
2158 455504.000   22.301783873  114.188331661    15.4481   2  10   0.4330   0.3791   0.8687  -0.2348   0.1546   0.4499   0.00    0.0
2158 455505.000   22.301783981  114.188332446    15.5057   2  10   0.4162   0.3650   0.8405  -0.2255   0.1394   0.4326   0.00    0.0
2158 455506.000   22.301783924  114.188333148    15.4883   2   9   0.4012   0.3524   0.8153  -0.2172   0.1263   0.4173   0.00    0.0
2158 455507.000   22.301783993  114.188333989    15.5054   2   9   0.3875   0.3411   0.7922  -0.2096   0.1145   0.4033   0.00    0.0
2158 455508.000   22.301784398  114.188335678    15.6908   2   8   0.3753   0.3308   0.7714  -0.2026   0.1046   0.3909   0.00    0.0
2158 455509.000   22.301784953  114.188337084    15.8816   2   9   0.3639   0.3213   0.7517  -0.1965   0.0941   0.3791   0.00    0.0
2158 455510.000   22.301785343  114.188338344    16.0402   2   8   0.3536   0.3125   0.7341  -0.1903   0.0858   0.3689   0.00    0.0
2158 455511.000   22.301785896  114.188339230    16.1889   2   9   0.3438   0.3045   0.7170  -0.1850   0.0773   0.3586   0.00    0.0
2158 455512.000   22.301786596  114.188339798    16.3132   2   9   0.3348   0.2969   0.7014  -0.1798   0.0696   0.3495   0.00    0.0
2158 455513.000   22.301787297  114.188340306    16.4477   2   8   0.3265   0.2899   0.6871  -0.1746   0.0641   0.3413   0.00    0.0
2158 455514.000   22.301788070  114.188341177    16.6573   2   9   0.3184   0.2832   0.6730  -0.1701   0.0570   0.3328   0.00    0.0
2158 455515.000   22.301789088  114.188341926    16.9150   2   9   0.3109   0.2770   0.6600  -0.1657   0.0514   0.3253   0.00    0.0
2158 455516.000   22.301789938  114.188342693    17.1774   2   9   0.3040   0.2712   0.6477  -0.1617   0.0463   0.3182   0.00    0.0
2158 455517.000   22.301790845  114.188343410    17.4351   2   9   0.2974   0.2656   0.6360  -0.1577   0.0387   0.3116   0.00    0.0
2158 455518.000   22.301791690  114.188344371    17.7261   2  10   0.2911   0.2602   0.6244  -0.1538   0.0324   0.3051   0.00    0.0
2158 455519.000   22.301792190  114.188344560    17.8489   2   9   0.2854   0.2554   0.6161  -0.1496   0.0357   0.3003   0.00    0.0
2158 455520.000   22.301792531  114.188345149    17.9934   2  10   0.2799   0.2508   0.6076  -0.1457   0.0385   0.2954   0.00    0.0
2158 455521.000   22.301792843  114.188345432    18.0965   2  10   0.2747   0.2465   0.5996  -0.1419   0.0411   0.2908   0.00    0.0
2158 455522.000   22.301793062  114.188345960    18.2070   2  10   0.2697   0.2423   0.5920  -0.1382   0.0434   0.2864   0.00    0.0
2158 455523.000   22.301793636  114.188346327    18.3625   2  10   0.2649   0.2383   0.5846  -0.1348   0.0455   0.2821   0.00    0.0
2158 455524.000   22.301795975  114.188349008    18.5074   2   9   0.2606   0.2345   0.5778  -0.1311   0.0489   0.2786   0.00    0.0
2158 455525.000   22.301803547  114.188357386    18.7433   2   9   0.2564   0.2310   0.5709  -0.1281   0.0505   0.2747   0.00    0.0
2158 455526.000   22.301818878  114.188373131    18.6109   2   6   0.2561   0.2280   0.5741  -0.1238   0.0590   0.2794   0.00    0.0
2158 455527.000   22.301842002  114.188395379    18.5322   2   7   0.2489   0.2256   0.5599  -0.1217   0.0594   0.2687   0.00    0.0
2158 455528.000   22.301872379  114.188423982    18.6311   2   5   0.2489   0.2228   0.5641  -0.1171   0.0679   0.2740   0.00    0.0
2158 455529.000   22.301908029  114.188453963    18.2616   2   5   0.2467   0.2204   0.5620  -0.1127   0.0746   0.2742   0.00    0.0
2158 455530.000   22.301952298  114.188487307    18.5837   2   5   0.2430   0.2189   0.5590  -0.1106   0.0818   0.2711   0.00    0.0
2158 455531.000   22.302002364  114.188518733    18.5023   4   3   0.2410   0.2171   0.5576  -0.1062   0.0890   0.2714   0.00    0.0
2158 455532.000   22.302056027  114.188546457    18.2286   4   2   0.2371   0.2106   0.5416  -0.1079   0.0589   0.2646   0.00    0.0
2158 455533.000   22.302113335  114.188572212    18.1977   4   3   0.2343   0.2078   0.5362  -0.1060   0.0562   0.2622   0.00    0.0
2158 455534.000   22.302171543  114.188593239    18.0644   4   2   0.2317   0.2052   0.5319  -0.1039   0.0554   0.2604   0.00    0.0
2158 455535.000   22.302227153  114.188609855    17.8414   2   6   0.2289   0.2024   0.5264  -0.1025   0.0517   0.2577   0.00    0.0
2158 455536.000   22.302278869  114.188622642    17.5996   2   5   0.2259   0.1995   0.5211  -0.1008   0.0485   0.2548   0.00    0.0
2158 455537.000   22.302326337  114.188632635    17.4176   2   4   0.2232   0.1969   0.5165  -0.0988   0.0490   0.2523   0.00    0.0
2158 455538.000   22.302369881  114.188640684    17.2495   4   3   0.2204   0.1942   0.5113  -0.0973   0.0470   0.2494   0.00    0.0
2158 455539.000   22.302404919  114.188645984    17.0319   2   5   0.2181   0.1922   0.5077  -0.0947   0.0504   0.2478   0.00    0.0
2158 455540.000   22.302429408  114.188648940    16.9325   4   3   0.2159   0.1901   0.5042  -0.0926   0.0524   0.2460   0.00    0.0
2158 455541.000   22.302444672  114.188650086    16.8289   4   0   0.2165   0.1887   0.5145  -0.0889   0.0557   0.2520   0.00    0.0
2158 455542.000   22.302452725  114.188649767    16.6199   4   0   0.2134   0.1860   0.5021  -0.0856   0.0659   0.2465   0.00    0.0
2158 455543.000   22.302456180  114.188648942    16.5038   4   0   0.2103   0.1830   0.4968  -0.0854   0.0622   0.2428   0.00    0.0
2158 455544.000   22.302455345  114.188647766    15.9318   4   0   0.3033   0.1818   1.0873  -0.0593   0.1376   0.5212   0.00    0.0
2158 455545.000   22.302456335  114.188646826    16.2857   4   0   0.2059   0.1787   0.4886  -0.0820   0.0631   0.2384   0.00    0.0
2158 455546.000   22.302456116  114.188645692    16.0826   4   2   0.2057   0.1769   0.4963  -0.0779   0.0733   0.2426   0.00    0.0
2158 455547.000   22.302456387  114.188644668    16.0274   4   3   0.2012   0.1751   0.4805  -0.0775   0.0685   0.2334   0.00    0.0
2158 455548.000   22.302456407  114.188643762    15.9175   4   0   0.1998   0.1730   0.4778  -0.0758   0.0684   0.2325   0.00    0.0
2158 455549.000   22.302456358  114.188642930    15.7814   4   2   0.1980   0.1710   0.4742  -0.0743   0.0683   0.2307   0.00    0.0
2158 455550.000   22.302456187  114.188642153    15.6501   4   0   0.1960   0.1692   0.4706  -0.0732   0.0682   0.2286   0.00    0.0
2158 455551.000   22.302456251  114.188641408    15.5329   4   0   0.1942   0.1676   0.4676  -0.0715   0.0694   0.2271   0.00    0.0
2158 455552.000   22.302456327  114.188640602    15.5036   4   0   0.1925   0.1659   0.4646  -0.0701   0.0699   0.2254   0.00    0.0
2158 455553.000   22.302456242  114.188639995    15.3907   4   0   0.1908   0.1644   0.4618  -0.0685   0.0710   0.2240   0.00    0.0
2158 455554.000   22.302456263  114.188639312    15.2931   4   0   0.1893   0.1629   0.4590  -0.0670   0.0717   0.2226   0.00    0.0
2158 455555.000   22.302456240  114.188638849    15.2235   4   0   0.1878   0.1614   0.4563  -0.0656   0.0724   0.2212   0.00    0.0
2158 455556.000   22.302456360  114.188638447    15.1937   4   0   0.1869   0.1605   0.4548  -0.0642   0.0743   0.2206   0.00    0.0
2158 455557.000   22.302456626  114.188638145    15.2114   4   0   0.1856   0.1595   0.4528  -0.0626   0.0762   0.2194   0.00    0.0
2158 455558.000   22.302456081  114.188637519    14.9747   4   0   0.1838   0.1583   0.4506  -0.0613   0.0781   0.2175   0.00    0.0
2158 455559.000   22.302455959  114.188637047    14.8834   4   0   0.1825   0.1571   0.4475  -0.0603   0.0782   0.2161   0.00    0.0
2158 455560.000   22.302455942  114.188636916    14.8103   4   0   0.1825   0.1563   0.4526  -0.0578   0.0835   0.2187   0.00    0.0
2158 455561.000   22.302456135  114.188636867    14.7836   4   0   0.1814   0.1554   0.4508  -0.0564   0.0854   0.2175   0.00    0.0
2158 455562.000   22.302456223  114.188636729    14.6126   4   0   0.1795   0.1544   0.4425  -0.0564   0.0832   0.2133   0.00    0.0
2158 455563.000   22.302460055  114.188636602    14.5901   4   0   0.1783   0.1534   0.4404  -0.0556   0.0838   0.2119   0.00    0.0
2158 455564.000   22.302469538  114.188636888    14.4363   4   0   0.1768   0.1523   0.4376  -0.0545   0.0845   0.2101   0.00    0.0
2158 455565.000   22.302488738  114.188637749    14.4565   4   0   0.1753   0.1513   0.4356  -0.0534   0.0852   0.2090   0.00    0.0
2158 455566.000   22.302516816  114.188636620    14.4251   4   0   0.1739   0.1506   0.4343  -0.0522   0.0861   0.2079   0.00    0.0
2158 455567.000   22.302553267  114.188632728    14.3487   4   0   0.1749   0.1504   0.4443  -0.0476   0.0946   0.2133   0.00    0.0
2158 455568.000   22.302597032  114.188624404    14.2443   4   0   0.1717   0.1492   0.4312  -0.0501   0.0881   0.2059   0.00    0.0
2158 455569.000   22.302643964  114.188600265    14.7176   4   0   0.3455   0.8014   0.5689   0.4832  -0.5231  -0.2503   0.00    0.0
2158 455570.000   22.302700045  114.188592974    14.0022   4   0   0.1695   0.1551   0.4459  -0.0484   0.0433   0.2045   0.00    0.0
2158 455571.000   22.302754484  114.188572341    13.6922   2   9   0.1685   0.1544   0.4447  -0.0483   0.0401   0.2040   0.00    1.1
2158 455572.000   22.302811737  114.188528184    14.4553   2   8   0.1744   1.0290   0.5450  -0.2164  -0.5719   0.2394   0.00    0.0
2158 455573.000   22.302866743  114.188505071    14.0186   2   5   0.2337   0.6468   0.4718   0.2902  -0.3304   0.1328   0.00    0.0
2158 455574.000   22.302925987  114.188466754    13.8990   2   8   0.2475   0.5670   0.4595   0.2752  -0.2822   0.1426   0.00    0.0
2158 455575.000   22.302985318  114.188427300    13.4740   2  11   0.1657   0.3362   0.4394  -0.0670  -0.1469   0.2049   0.00    0.0
2158 455576.000   22.303037860  114.188372471    13.2701   2   7   0.2311   0.5061   0.4502   0.2420  -0.2478   0.1555   0.00    0.0
2158 455577.000   22.303075068  114.188282346    13.2987   2   6   0.5998   1.3080   0.4856   0.8533  -0.5345  -0.2825   0.00    0.0
2158 455578.000   22.303111547  114.188195572    12.3704   4   0   1.2434   1.5249   1.1373   0.6833  -0.4290   0.3982   0.00    0.0
2158 455579.000   22.303170433  114.188158264     7.7363   4   0   1.3471   1.4192   2.6107   0.5140  -0.4251   1.1597   0.00    0.0
2158 455580.000   22.303212526  114.188100953     2.5378   2   5   1.3515   1.3963   3.1463   0.3704  -0.8471   1.3471   0.00    0.0
2158 455581.000   22.303258067  114.187978662    11.4709   2   5   0.9318   1.2886   1.9925   0.5357  -0.9700   0.6342   0.00    0.0
2158 455582.000   22.303307289  114.187863815    12.6936   2   6   0.8588   1.6564   1.9330   0.7765  -1.2919   0.3470   0.00    0.0
2158 455583.000   22.303369746  114.187787464    12.1993   2   5   0.7976   1.5954   1.8818   0.7189  -1.2777   0.4152   0.00    0.0
2158 455584.000   22.303444120  114.187739948    10.7054   4   2   1.2593   1.6233   2.1654   0.6194  -0.9837   0.7665   0.00    0.0
2158 455585.000   22.303519354  114.187685576     8.0830   4   2   1.0085   1.4873   1.9638   0.9706  -0.9557   0.6359   0.00    0.0
2158 455586.000   22.303584587  114.187611119     7.0839   4   0   1.3229   1.5563   2.2527   0.7203  -1.2830   1.1988   0.00    0.0
2158 455587.000   22.303622605  114.187531454     5.4057   4   0   1.4770   1.8125   2.9024   0.8261  -0.9950   1.3461   0.00    0.0
2158 455588.000   22.303658466  114.187510164     6.6105   4   0   1.8489   2.0187   4.1134   1.0027  -1.0423   1.7723   0.00    0.0
2158 455589.004   22.303682476  114.187544419     2.9983   4   0   2.2876   2.7401   5.9214   1.0164  -2.1989   2.3195   0.00    0.0
2158 455590.000   22.303719811  114.187410620    -3.8535   4   0   2.9867   5.6409   6.5965   3.0239  -2.5844   2.9646   0.00    0.0
2158 455591.000   22.303830263  114.187251007     4.7714   4   0   1.7754   1.7621   4.5572   0.6993  -1.1931   2.0503   0.00    0.0
2158 455592.000   22.303923773  114.187170776     7.9118   4   2   1.9207   2.1942   4.6728   1.1090  -1.0941   2.2169   0.00    0.0
2158 455593.000   22.303970388  114.187074510    13.8316   2   4   1.6512   1.7132   4.2401   0.6572  -1.1348   1.8409   0.00    0.0
2158 455594.000   22.303990701  114.186993348    12.1644   4   0   2.0383   1.9426   4.5700   1.1966   0.6590   2.3405   0.00    0.0
2158 455595.000   22.304019703  114.186904857     5.5350   4   0   1.8288   1.7102   4.3459   0.7603  -0.9848   2.0476   0.00    0.0
2158 455596.000   22.304056130  114.186847451     0.6972   4   0   1.8054   1.7039   4.2849   0.7300  -1.0478   1.9937   0.00    0.0
2158 455597.000   22.304083062  114.186785596    -3.6644   4   2   1.8013   1.7025   4.2675   0.7368  -1.0331   1.9844   0.00    0.0
2158 455598.000   22.304148763  114.186706202     7.3153   4   3   1.6244   1.8416   3.6724   0.2222  -1.8490   1.8399   0.00    0.0
2158 455599.000   22.304170902  114.186674020     5.0190   2   5   1.6582   1.6573   2.9858   0.6467  -1.4142   1.6339   0.00    0.0
2158 455600.000   22.304202400  114.186653047     5.9190   2   4   1.3833   1.6437   3.1024   0.8465  -1.1647   1.6149   0.00    0.0
2158 455601.000   22.304226170  114.186615397     6.5149   2   4   1.0500   1.8314   2.3942   0.8964  -1.4573   0.8580   0.00    0.0
2158 455602.000   22.304232324  114.186600959     4.5835   4   3   1.3026   1.0314   2.2598  -0.2485  -0.9653   1.3460   0.00    0.0
2158 455603.000   22.304279141  114.186577461     7.5925   2   6   1.0964   0.8869   2.0366  -0.3342  -0.8397   1.1749   0.00    0.0
2158 455604.000   22.304285355  114.186559838     5.9963   2   5   0.8452   0.7897   1.8250  -0.0945  -0.6991   0.9436   0.00    0.0
2158 455605.000   22.304308432  114.186543355     5.5362   2   4   0.8809   1.2807   1.7738   0.7030  -0.9611   0.7016   0.00    0.0
2158 455606.000   22.304319984  114.186508061     5.6704   2   6   0.9158   1.5979   1.7284   0.9345  -1.1109   0.5149   0.00    0.0
2158 455607.000   22.304333390  114.186484150     5.6399   2   7   0.7463   1.0458   1.5732   0.5613  -0.7573   0.6645   0.00    0.0
2158 455608.000   22.304346973  114.186460058     5.5825   2   7   0.6870   0.8979   1.4910   0.4669  -0.6504   0.6583   0.00    0.0
2158 455609.000   22.304363498  114.186435793     6.6254   2   7   0.6383   0.8147   1.4389   0.4017  -0.6117   0.6380   0.00    0.0
2158 455610.000   22.304372110  114.186417744     6.5374   2   7   0.6038   0.7384   1.3805   0.3572  -0.5531   0.6222   0.00    0.0
2158 455611.000   22.304381507  114.186403549     7.1407   2   9   0.5684   0.6848   1.3298   0.3207  -0.5218   0.5975   0.00    0.0
2158 455612.000   22.304387922  114.186390936     7.7223   2   9   0.5412   0.6603   1.2919   0.3015  -0.5098   0.5758   0.00    0.0
2158 455613.000   22.304392712  114.186383942     7.6863   2   9   0.5139   0.6091   1.2475   0.2679  -0.4754   0.5584   0.00    0.0
2158 455614.000   22.304395296  114.186377713     7.7281   2   9   0.4919   0.5722   1.2077   0.2460  -0.4481   0.5416   0.00    0.0
2158 455615.000   22.304395661  114.186374363     7.6551   2   9   0.4727   0.5420   1.1719   0.2287  -0.4253   0.5260   0.00    0.0
2158 455616.000   22.304394409  114.186373181     7.5577   2   9   0.4556   0.5163   1.1393   0.2142  -0.4056   0.5116   0.00    0.0
2158 455617.000   22.304392925  114.186371983     7.6214   2   9   0.4403   0.4940   1.1094   0.2019  -0.3882   0.4983   0.00    0.0
2158 455618.000   22.304391559  114.186371041     7.6991   2   9   0.4263   0.4745   1.0822   0.1908  -0.3735   0.4859   0.00    0.0
2158 455619.000   22.304390710  114.186370469     7.7603   2   8   0.4136   0.4574   1.0572   0.1815  -0.3606   0.4743   0.00    0.0
2158 455620.000   22.304389686  114.186369467     7.8805   2  11   0.4016   0.4406   1.0326   0.1724  -0.3472   0.4637   0.00    0.0
2158 455621.000   22.304388919  114.186368518     8.0217   2  10   0.3908   0.4266   1.0108   0.1647  -0.3365   0.4537   0.00    0.0
2158 455622.000   22.304388366  114.186367971     8.1964   2   9   0.3809   0.4134   0.9898   0.1579  -0.3264   0.4444   0.00    0.0
2158 455623.000   22.304388602  114.186368330     8.2834   2  10   0.3714   0.4007   0.9694   0.1507  -0.3162   0.4358   0.00    0.0
2158 455624.000   22.304389712  114.186367371     8.3537   2   9   0.3626   0.3893   0.9507   0.1444  -0.3072   0.4278   0.00    0.0
2158 455625.000   22.304392485  114.186364381     8.4346   2   8   0.3544   0.3791   0.9336   0.1388  -0.2996   0.4201   0.00    0.0
2158 455626.000   22.304398050  114.186359869     8.4676   2   8   0.3467   0.3694   0.9169   0.1335  -0.2920   0.4129   0.00    0.0
2158 455627.000   22.304402730  114.186355719     8.6268   2   9   0.3380   0.3599   0.8953   0.1269  -0.2859   0.4026   0.00    0.0
2158 455628.000   22.304404952  114.186355444     8.6388   2  11   0.3297   0.3511   0.8760   0.1204  -0.2811   0.3932   0.00    0.0
2158 455629.000   22.304408021  114.186354356     8.5946   2  11   0.3220   0.3428   0.8572   0.1147  -0.2756   0.3842   0.00    0.0
2158 455630.000   22.304415161  114.186348500     8.4891   2  10   0.3144   0.3352   0.8381   0.1091  -0.2711   0.3747   0.00    0.0
2158 455631.000   22.304429482  114.186333798     8.3231   2   8   0.3077   0.3282   0.8225   0.1041  -0.2671   0.3669   0.00    0.0
2158 455632.000   22.304451560  114.186310969     8.2972   2  10   0.3014   0.3211   0.8063   0.0994  -0.2616   0.3599   0.00    0.0
2158 455633.000   22.304479704  114.186280678     8.2516   2   9   0.2962   0.3149   0.7960   0.0958  -0.2567   0.3555   0.00    0.0
2158 455634.000   22.304514707  114.186246950     8.0192   2   8   0.2952   0.3339   0.7851   0.1205  -0.2560   0.3503   0.00    0.0
2158 455635.000   22.304551935  114.186202162     8.1815   2   7   0.3286   0.5616   0.8104   0.2893  -0.4133   0.2890   0.00    0.0
2158 455636.000   22.304591677  114.186158322     8.1806   2   9   0.2867   0.3195   0.7651   0.1138  -0.2439   0.3424   0.00    0.0
2158 455637.000   22.304628733  114.186114264     8.2072   2   8   0.2851   0.3246   0.7558   0.1236  -0.2409   0.3381   0.00    0.0
2158 455638.000   22.304664139  114.186072768     8.2885   2   8   0.2822   0.3208   0.7476   0.1239  -0.2347   0.3354   0.00    0.0
2158 455639.000   22.304696573  114.186031064     8.4279   2   6   0.2781   0.3132   0.7405   0.1180  -0.2313   0.3326   0.00    0.0
2158 455640.000   22.304730521  114.185993555     8.5018   2   7   0.2759   0.3136   0.7330   0.1222  -0.2262   0.3299   0.00    0.0
2158 455641.000   22.304763302  114.185954911     8.6591   2   5   0.2732   0.3133   0.7289   0.1243  -0.2283   0.3256   0.00    0.0
2158 455642.000   22.304803392  114.185929998     8.8627   2   5   0.2703   0.3081   0.7200   0.1228  -0.2229   0.3223   0.00    0.0
2158 455643.000   22.304845326  114.185915684     9.1205   2   5   0.2683   0.3049   0.7122   0.1237  -0.2166   0.3200   0.00    0.0
2158 455644.000   22.304888371  114.185922347     9.1654   2   6   0.2657   0.3007   0.7041   0.1228  -0.2125   0.3166   0.00    0.0
2158 455645.000   22.304926145  114.185944413     9.1491   2   8   0.2587   0.2744   0.6942   0.0976  -0.1958   0.3165   0.00    0.0
2158 455646.000   22.304957812  114.185969978     9.0055   2   5   0.6204   1.0152   0.8734   0.7497   0.6967   0.6332   0.00    0.0
2158 455647.000   22.304980925  114.186013143     8.3657   4   2   1.0044   1.1954   1.5848  -0.4536   0.7580   1.0723   0.00    0.0
2158 455648.000   22.304990635  114.186081643     6.7955   2   4   1.3226   1.2129   2.7379  -0.6300   0.7751   1.7165   0.00    0.0
2158 455649.000   22.304997483  114.186150003     3.7588   4   2   1.5500   1.2906   3.5217  -0.8052   0.5541   2.1628   0.00    0.0
2158 455650.000   22.305037331  114.186199380     6.5189   4   0   1.8076   1.5605   3.9294   0.0446  -0.8062   2.1363   0.00    0.0
2158 455651.000   22.305099419  114.186227319    13.1538   4   0   1.8507   1.6782   4.0928   0.2181  -0.9554   2.0990   0.00    0.0
2158 455652.000   22.305173271  114.186257965     9.4445   4   0   1.9018   1.6847   4.2151  -0.0413  -0.8977   2.0464   0.00    0.0
2158 455653.000   22.305222663  114.186297507     9.3438   4   0   1.9107   1.6873   4.2648   0.0864  -0.8966   2.0604   0.00    0.0
2158 455654.000   22.305235252  114.186331601     5.2033   4   0   1.9150   1.6881   4.2897   0.0713  -0.9030   2.0736   0.00    0.0
2158 455655.000   22.305197136  114.186373283     2.6387   4   0   1.8477   1.6767   4.5688  -0.7845  -1.1700   2.3365   0.00    0.0
2158 455656.000   22.305209611  114.186457693     3.9270   4   0   1.9854   1.6854   4.5058  -0.6812  -1.2268   2.4398   0.00    0.0
2158 455657.000   22.305241307  114.186543454    10.8083   4   0   2.2998   1.8872   5.1680  -0.8281  -1.1374   2.9587   0.00    0.0
2158 455658.000   22.305279640  114.186547414    17.3558   4   0   1.8654   1.8223   4.6454   0.2482   0.3657   2.3697   0.00    0.0
2158 455659.000   22.305323772  114.186553255    23.6088   4   0   1.8002   1.6949   4.4754   0.5474   1.0796   2.2102   0.00    0.0
2158 455660.000   22.305426754  114.186450333    34.9599   4   2   1.7601   1.5851   4.3787   0.6974   1.2964   2.1571   0.00    0.0
2158 455661.000   22.305505223  114.186319306    24.9794   2   5   1.8836   1.5063   4.4129   0.1819  -0.3290   2.2763   0.00    0.0
2158 455662.000   22.305585904  114.186296879    18.7398   4   0   2.4552   2.0001   5.4834  -0.5191  -1.9555   2.8625   0.00    0.0
2158 455663.000   22.305584932  114.186304682     9.5547   4   2   2.3714   2.3619   5.5415   1.3415  -2.3526   1.6747   0.00    0.0
2158 455664.000   22.305586875  114.186340172    -3.2650   4   2   2.1365   1.9969   4.6904   1.3368  -1.5491   1.3859   0.00    0.0
2158 455665.000   22.305608378  114.186351405   -15.3578   4   2   2.1483   2.3449   4.9347   1.4684  -2.1391   1.1408   0.00    0.0
2158 455666.000   22.305642104  114.186327079   -20.1415   4   0   2.1607   2.4018   5.0739   1.4871  -2.2807   1.0977   0.00    0.0
2158 455667.000   22.305683704  114.186266726   -17.0675   4   0   2.1382   1.9976   4.6194   1.3400  -1.5270   1.3777   0.00    0.0
2158 455668.000   22.305725730  114.186210206   -14.3483   4   2   2.1269   1.9326   4.4687   1.3021  -1.5136   1.3418   0.00    0.0
2158 455669.000   22.305729246  114.186182673    -9.6822   4   0   2.1365   1.9732   4.4901   1.3340  -1.4341   1.3788   0.00    0.0
2158 455670.000   22.305775635  114.186201984   -10.2211   4   2   2.3557   2.6817   5.2026   1.8504  -1.5383   1.7072   0.00    0.0
2158 455671.000   22.305834719  114.186247795   -11.4540   4   2   2.3998   2.7643   5.4661   1.9148  -1.5879   1.8168   0.00    0.0
2158 455672.000   22.305880399  114.186260762   -13.4710   4   2   2.3790   2.7645   5.5171   1.9038  -1.5999   1.8662   0.00    0.0
2158 455673.000   22.305928778  114.186271462    -7.1456   2   4   1.5739   2.3077   4.5286   1.5879  -1.8247   0.6470   0.00    0.0
2158 455674.000   22.305999514  114.186334339   -11.6367   4   0   2.0645   3.2403   5.7524   1.7497  -3.4075   0.3063   0.00    0.0
2158 455675.000   22.306033905  114.186380430   -16.3914   4   0   2.2517   3.7130   6.9354   1.9978  -4.3094  -1.2840   0.00    0.0
2158 455676.000   22.306061353  114.186392717   -18.5587   4   0   2.2377   3.8481   7.2902   2.0242  -4.5725  -1.3399   0.00    0.0
2158 455677.000   22.306126520  114.186451182   -29.6577   4   0   2.2648   3.9241   7.6486   2.0752  -4.7612  -1.5684   0.00    0.0
2158 455678.000   22.306211310  114.186522871   -46.4946   4   0   2.6005   4.0034   7.7810   2.3130  -4.8880  -2.1859   0.00    0.0
2158 455679.000   22.306290268  114.186575362   -55.0515   4   0   2.6346   4.0314   7.8239   2.3592  -4.9293  -2.2843   0.00    0.0
2158 455680.000   22.306245289  114.186497964   -57.3647   4   0   2.6079   4.6483   7.5013   2.7383  -4.7491  -1.5131   0.00    0.0
2158 455681.000   22.306214166  114.186393869   -38.8415   4   2   2.5674   4.5246   6.3741   2.6435  -4.0740   0.8539   0.00    0.0
2158 455682.000   22.306232042  114.186354199   -22.3623   4   2   2.5681   4.4604   6.2149   2.6364  -3.9169   0.8805   0.00    0.0
2158 455683.000   22.306274956  114.186345561    -9.8492   4   2   2.5641   4.4530   6.0901   2.6488  -3.8717   0.8804   0.00    0.0
2158 455684.000   22.306323817  114.186317624    -0.9805   4   0   2.5713   4.4595   6.0789   2.6484  -3.8709   0.9169   0.00    0.0
2158 455685.000   22.306374388  114.186295149     3.1818   4   0   2.5720   4.4569   6.0701   2.6493  -3.8627   0.9201   0.00    0.0
2158 455686.000   22.306401536  114.186248557     9.1056   4   0   2.7004   4.5297   6.6950   2.5183  -4.1480   1.7853   0.00    0.0
2158 455687.000   22.306414829  114.186216950    10.8342   4   0   2.7201   4.5680   7.0585   2.4844  -4.2965   1.9276   0.00    0.0
2158 455688.000   22.306399709  114.186157887    13.1475   4   0   2.7209   4.5848   7.1627   2.4801  -4.3504   1.9480   0.00    0.0
2158 455689.000   22.306416821  114.186114169    16.5906   4   0   2.7213   4.5894   7.1776   2.4802  -4.3604   1.9497   0.00    0.0
2158 455690.000   22.306404078  114.185982515    20.7804   4   0   2.2372   3.6298   7.1690   1.3420  -4.2398   2.0916   0.00    0.0
2158 455691.000   22.306344030  114.185759842    30.8280   4   0   2.2138   3.5791   7.1710   1.2665  -4.2263   2.1096   0.00    0.0
2158 455692.000   22.306186878  114.185292731    52.4834   2   4   2.0404   2.8720   6.6297  -0.4665  -3.5198   2.5787   0.00    0.0
2158 455693.000   22.306183917  114.185020512    82.3152   4   0   2.6109   4.3935   6.4911   1.4486  -4.4467   2.7354   0.00    0.0
2158 455694.000   22.306241674  114.185045906    83.5157   4   2   2.2471   3.0308   5.6337  -1.0132  -3.5800   2.7425   0.00    0.0
2158 455695.000   22.306277314  114.185029078    82.5743   4   0   2.2071   2.9353   5.2366  -0.8041  -3.4111   2.4651   0.00    0.0
2158 455696.000   22.306283750  114.185023621    77.0696   4   2   2.1647   2.7996   4.8009  -0.6119  -3.1639   2.2729   0.00    0.0
2158 455697.000   22.306247385  114.184991388    71.4393   2   4   2.1337   2.7983   4.5082  -0.3897  -3.0435   2.1437   0.00    0.0
2158 455698.000   22.306258578  114.184915792    74.0906   2   4   2.0730   3.2681   4.8781   1.6938  -2.9529   1.9725   0.00    0.0
2158 455699.000   22.306310595  114.184915202    73.3193   4   3   2.2323   3.3297   4.5668   1.5913  -3.2090   1.8557   0.00    0.0
2158 455700.000   22.306340650  114.184894026    74.3404   2   4   1.8880   3.2539   4.3134   1.9763  -2.5760   1.0261   0.00    0.0
2158 455701.000   22.306360060  114.184903951    72.0504   2   4   1.6860   2.8036   3.9337   1.7273  -0.9259   1.8834   0.00    0.0
2158 455702.000   22.306407425  114.184919392    78.3674   4   2   1.7889   2.8969   3.7487   1.9077  -0.3328   1.9044   0.00    0.0
2158 455703.000   22.306432606  114.184903655    84.2195   4   2   1.4514   2.3632   4.1592   1.4242  -1.8759   1.2245   0.00    0.0
2158 455704.000   22.306406286  114.184852252    78.4261   4   2   1.4082   2.3773   4.5545   1.4627  -2.1095   0.7870   0.00    0.0
2158 455705.000   22.306418322  114.184891883    62.0136   2   4   1.5428   2.6916   4.3546   1.7778  -1.6363   0.9896   0.00    0.0
2158 455706.000   22.306409185  114.184867186    65.7216   2   4   1.3370   2.3088   3.5092   1.4840  -2.1595  -0.6405   0.00    0.0
2158 455707.000   22.306404693  114.184855058    65.9424   2   4   1.2394   2.1318   3.1645   1.3600  -1.8274   0.2813   0.00    0.0
2158 455708.000   22.306393406  114.184838795    64.3100   2   5   1.1805   2.0345   2.9039   1.2957  -1.8485  -0.3612   0.00    0.0
2158 455709.000   22.306391397  114.184842803    61.9839   2   5   0.8733   1.4467   2.6340   0.7754  -1.4750   0.6422   0.00    0.0
2158 455710.000   22.306392979  114.184845676    60.7935   2   5   0.7861   1.2557   2.4854   0.5985  -1.3353   0.7401   0.00    0.0
2158 455711.000   22.306393336  114.184845943    59.7908   2   5   0.7360   1.1468   2.3775   0.4947  -1.2568   0.7682   0.00    0.0
2158 455712.000   22.306394140  114.184848100    58.9244   2   5   0.6991   1.0679   2.2882   0.4168  -1.1984   0.7789   0.00    0.0
2158 455713.000   22.306394903  114.184849691    58.4298   2   5   0.6693   1.0056   2.2115   0.3529  -1.1512   0.7817   0.00    0.0
2158 455714.000   22.306396635  114.184860035    56.5473   2   5   0.8972   1.5062   2.2419   0.9115  -1.4300   0.3714   0.00    0.0
2158 455715.000   22.306395347  114.184863162    55.2993   2   5   0.6733   1.0590   2.0852   0.4767  -1.1530   0.6742   0.00    0.0
2158 455716.000   22.306398267  114.184869580    54.4123   2   5   0.6357   0.9770   2.0214   0.3918  -1.0937   0.6966   0.00    0.0
2158 455717.000   22.306400625  114.184874349    53.7052   2   5   0.6108   0.9240   1.9692   0.3366  -1.0548   0.7019   0.00    0.0
2158 455718.000   22.306402890  114.184879586    53.0276   2   5   0.5902   0.8808   1.9225   0.2897  -1.0221   0.7029   0.00    0.0
2158 455719.000   22.306404743  114.184883192    52.5797   2   5   0.5723   0.8440   1.8798   0.2477  -0.9936   0.7016   0.00    0.0
2158 455720.000   22.306405977  114.184884739    52.4506   2   6   0.5563   0.8123   1.8406   0.2092  -0.9684   0.6986   0.00    0.0
2158 455721.000   22.306407667  114.184887361    52.1282   2   6   0.5418   0.7838   1.8029   0.1703  -0.9446   0.6958   0.00    0.0
2158 455722.000   22.306409048  114.184889313    51.9729   2   5   0.5297   0.7599   1.7707   0.1363  -0.9254   0.6897   0.00    0.0
2158 455723.000   22.306411080  114.184891830    51.6548   2   5   0.5237   0.7531   1.7363   0.1443  -0.9059   0.6855   0.00    0.0
2158 455724.000   22.306414215  114.184888818    51.5790   2   6   0.5071   0.7199   1.7085   0.0438  -0.8901   0.6799   0.00    0.0
2158 455725.000   22.306421982  114.184880025    51.5149   2   5   0.4985   0.7033   1.6839  -0.0514  -0.8770   0.6714   0.00    0.0
2158 455726.000   22.306443346  114.184857881    52.2653   2   4   1.2447   0.6880   1.8488  -0.2493  -0.8841   1.1749   0.00    0.0
2158 455727.000   22.306457725  114.184824649    51.5229   2   5   0.4813   0.6737   1.6335  -0.1060  -0.8501   0.6587   0.00    0.0
2158 455728.000   22.306484400  114.184791071    49.3085   4   3   0.5176   0.7714   1.9544   0.2610  -1.0707   0.4436   0.00    0.0
2158 455729.000   22.306509857  114.184750406    49.0995   2   5   0.4619   0.6362   1.5874  -0.1642  -0.8162   0.6588   0.00    0.0
2158 455730.000   22.306551063  114.184745201    45.2346   4   2   0.8286   1.4115   1.7477   0.9236  -1.2793  -0.3605   0.00    0.0
2158 455731.000   22.306580835  114.184718956    43.0851   2   4   0.9680   1.5547   1.6641   1.1037  -1.2759  -0.5011   0.00    0.0
2158 455732.000   22.306594061  114.184668570    42.7654   2   4   0.6541   0.9101   1.4245   0.5836  -0.7978   0.4976   0.00    0.0
2158 455733.000   22.306616754  114.184642098    41.5204   2   5   0.5893   0.7502   1.3385   0.4592  -0.6616   0.5581   0.00    0.0
2158 455734.000   22.306636861  114.184623038    40.1381   2   7   0.5468   0.6810   1.3009   0.3900  -0.6194   0.5638   0.00    0.0
2158 455735.000   22.306653912  114.184614595    37.5710   2   7   0.5141   0.6098   1.2492   0.3302  -0.5579   0.5689   0.00    0.0
2158 455736.000   22.306666752  114.184608542    35.5503   2   7   0.4929   0.5822   1.2168   0.3031  -0.5302   0.5618   0.00    0.0
2158 455737.000   22.306674173  114.184592853    35.0237   2   6   0.4758   0.5699   1.1951   0.2883  -0.5294   0.5444   0.00    0.0
2158 455738.000   22.306681627  114.184587065    34.3499   2   7   0.4591   0.5405   1.1589   0.2681  -0.5016   0.5327   0.00    0.0
2158 455739.000   22.306684034  114.184580304    33.7985   2   7   0.4404   0.4941   1.1101   0.2376  -0.4493   0.5265   0.00    0.0
2158 455740.000   22.306684836  114.184584046    32.1544   2   7   0.4243   0.4537   1.0650   0.2118  -0.4005   0.5195   0.00    0.0
2158 455741.000   22.306684979  114.184591743    30.5644   2   7   0.4132   0.4243   1.0272   0.1966  -0.3606   0.5122   0.00    0.0
2158 455742.000   22.306683520  114.184597992    28.8871   2   7   0.4044   0.3953   0.9965   0.1824  -0.3216   0.5075   0.00    0.0
2158 455743.000   22.306681292  114.184602946    27.3231   2   9   0.3967   0.3757   0.9689   0.1762  -0.2896   0.5004   0.00    0.0
2158 455744.000   22.306679853  114.184607198    26.1713   2   7   0.3878   0.3588   0.9447   0.1675  -0.2684   0.4912   0.00    0.0
2158 455745.000   22.306678265  114.184611078    25.0848   2   9   0.3792   0.3438   0.9218   0.1597  -0.2484   0.4821   0.00    0.0
2158 455746.000   22.306677084  114.184614519    24.1550   2   8   0.3714   0.3315   0.9014   0.1535  -0.2322   0.4734   0.00    0.0
2158 455747.000   22.306676057  114.184617698    23.3791   2   9   0.3641   0.3204   0.8829   0.1478  -0.2175   0.4653   0.00    0.0
2158 455748.000   22.306675101  114.184620242    22.6810   2  10   0.3571   0.3099   0.8652   0.1422  -0.2035   0.4575   0.00    0.0
2158 455749.000   22.306673907  114.184622366    22.0434   2   8   0.3504   0.3008   0.8486   0.1372  -0.1920   0.4496   0.00    0.0
2158 455750.000   22.306672889  114.184624281    21.5063   2   9   0.3440   0.2926   0.8333   0.1326  -0.1813   0.4423   0.00    0.0
2158 455751.000   22.306672027  114.184625858    21.0542   2   8   0.3380   0.2850   0.8189   0.1285  -0.1715   0.4352   0.00    0.0
2158 455752.000   22.306671223  114.184626958    20.6108   2   9   0.3312   0.2776   0.8050   0.1230  -0.1632   0.4279   0.00    0.0
2158 455753.000   22.306670046  114.184627103    20.1493   2   9   0.3257   0.2718   0.7930   0.1204  -0.1525   0.4221   0.00    0.0
2158 455754.000   22.306668980  114.184627183    19.7333   2   8   0.3196   0.2654   0.7805   0.1156  -0.1455   0.4153   0.00    0.0
2158 455755.000   22.306667642  114.184627579    19.2086   2   8   0.3136   0.2589   0.7677   0.1118  -0.1366   0.4084   0.00    0.0
2158 455756.000   22.306666275  114.184627585    18.7067   2   9   0.3079   0.2527   0.7556   0.1082  -0.1283   0.4019   0.00    0.0
2158 455757.000   22.306664999  114.184627266    18.2739   2   9   0.3025   0.2471   0.7441   0.1047  -0.1205   0.3956   0.00    0.0
2158 455758.000   22.306663641  114.184626710    17.8629   2   9   0.2972   0.2418   0.7331   0.1015  -0.1131   0.3895   0.00    0.0
2158 455759.000   22.306662295  114.184626073    17.5052   2  10   0.2922   0.2368   0.7229   0.0986  -0.1060   0.3838   0.00    0.0
2158 455760.000   22.306661031  114.184625196    17.1682   2  10   0.2873   0.2321   0.7128   0.0957  -0.0996   0.3780   0.00    0.0
2158 455761.000   22.306659693  114.184624188    16.8853   2  11   0.2826   0.2278   0.7032   0.0929  -0.0933   0.3726   0.00    0.0
2158 455762.000   22.306658459  114.184623389    16.6355   2   8   0.2777   0.2239   0.6938   0.0901  -0.0874   0.3670   0.00    0.0
2158 455763.000   22.306657481  114.184622464    16.4436   2   8   0.2730   0.2197   0.6845   0.0873  -0.0824   0.3615   0.00    0.0
2158 455764.000   22.306656723  114.184621623    16.2974   2   8   0.2684   0.2160   0.6756   0.0846  -0.0773   0.3561   0.00    0.0
2158 455765.000   22.306655543  114.184620895    16.0593   2   8   0.2641   0.2127   0.6677   0.0815  -0.0745   0.3514   0.00    0.0
2158 455766.000   22.306654976  114.184620496    15.8997   2   8   0.2600   0.2099   0.6601   0.0784  -0.0715   0.3467   0.00    0.0
2158 455767.000   22.306654865  114.184620486    15.8707   2   8   0.2565   0.2071   0.6538   0.0768  -0.0664   0.3430   0.00    0.0
2158 455768.000   22.306654068  114.184620119    15.7010   2   9   0.2528   0.2042   0.6461   0.0743  -0.0641   0.3385   0.00    0.0
2158 455769.000   22.306653478  114.184619868    15.5426   2   9   0.2493   0.2016   0.6388   0.0723  -0.0604   0.3344   0.00    0.0
2158 455770.000   22.306653476  114.184620271    15.5441   2   9   0.2462   0.1997   0.6328   0.0710  -0.0544   0.3310   0.00    0.0
2158 455771.000   22.306653644  114.184620646    15.5373   2   9   0.2435   0.1973   0.6270   0.0703  -0.0475   0.3279   0.00    0.0
2158 455772.000   22.306653563  114.184621148    15.5441   2   9   0.2409   0.1955   0.6215   0.0695  -0.0402   0.3251   0.00    0.0
2158 455773.000   22.306653118  114.184621424    15.4640   2   8   0.2387   0.1935   0.6163   0.0690  -0.0313   0.3224   0.00    0.0
2158 455774.000   22.306652532  114.184621745    15.3896   2   8   0.2367   0.1919   0.6112   0.0690  -0.0175   0.3199   0.00    0.0
2158 455775.000   22.306651729  114.184621700    15.1593   2   8   0.2341   0.1897   0.6049   0.0672  -0.0047   0.3165   0.00    0.0
2158 455776.000   22.306650831  114.184621505    14.8921   2   8   0.2311   0.1872   0.5992   0.0645   0.0116   0.3135   0.00    0.0
2158 455777.000   22.306649910  114.184621161    14.6688   2   9   0.2283   0.1850   0.5943   0.0623   0.0150   0.3104   0.00    0.0
2158 455778.000   22.306649056  114.184621013    14.4572   2   8   0.2258   0.1832   0.5887   0.0608   0.0192   0.3073   0.00    0.0
2158 455779.000   22.306648590  114.184620878    14.2945   2   8   0.2233   0.1811   0.5835   0.0588   0.0215   0.3043   0.00    0.0
2158 455780.000   22.306648199  114.184620879    14.1462   2   8   0.2209   0.1792   0.5784   0.0572   0.0243   0.3014   0.00    0.0
2158 455781.000   22.306647821  114.184621259    13.9569   2   8   0.2185   0.1773   0.5732   0.0561   0.0296   0.2984   0.00    0.0
2158 455782.000   22.306647332  114.184621598    13.7381   2   8   0.2161   0.1754   0.5680   0.0550   0.0338   0.2954   0.00    0.0
