% program   : RTKPOST demo5 b34k
% inp file  : D:\0POLYU¿Î³Ì\AAE6102\25.3.20_Lab\AAE6102_Laboratory-main\GNSS Data\UrbanNav - Medium\20210521.medium-urban.whampoa.ublox.f9p.obs
% inp file  : D:\0POLYU¿Î³Ì\AAE6102\25.3.20_Lab\AAE6102_Laboratory-main\GNSS Data\UrbanNav - Medium\hksc141g.21*
% obs start : 2021/05/21 06:29:02.0 GPST (week2158 455342.0s)
% obs end   : 2021/05/21 06:54:39.0 GPST (week2158 456879.0s)
% pos mode  : Single
% elev mask : 20.0 deg
% ionos opt : Broadcast
% tropo opt : Saastamoinen
% ephemeris : Broadcast
% navi sys  : GPS GLONASS Galileo
%
% (lat/lon/height=WGS84/ellipsoidal,Q=1:fix,2:float,3:sbas,4:dgps,5:single,6:ppp,ns=# of satellites)
%  GPST          latitude(deg) longitude(deg)  height(m)   Q  ns   sdn(m)   sde(m)   sdu(m)  sdne(m)  sdeu(m)  sdun(m) age(s)  ratio
2158 455342.000   22.301566002  114.190346201     4.6075   5  17   2.3205   2.6451   5.9309   0.6978   1.3248  -0.9440   0.00    0.0
2158 455343.000   22.301570604  114.190344190     5.8390   5  17   2.3204   2.6452   5.9308   0.6977   1.3256  -0.9436   0.00    0.0
2158 455344.000   22.301580247  114.190338941     7.8440   5  17   2.3203   2.6453   5.9307   0.6976   1.3264  -0.9432   0.00    0.0
2158 455345.000   22.301587858  114.190333737     8.9431   5  17   2.3202   2.6454   5.9306   0.6974   1.3272  -0.9428   0.00    0.0
2158 455346.000   22.301591876  114.190333427     9.6977   5  17   2.3201   2.6456   5.9305   0.6973   1.3280  -0.9424   0.00    0.0
2158 455347.000   22.301592367  114.190339886     9.7115   5  17   2.3200   2.6457   5.9304   0.6972   1.3288  -0.9420   0.00    0.0
2158 455348.000   22.301590781  114.190334761     9.2258   5  17   2.3199   2.6458   5.9302   0.6971   1.3296  -0.9416   0.00    0.0
2158 455349.000   22.301589535  114.190324456     8.9960   5  17   2.3198   2.6459   5.9301   0.6969   1.3304  -0.9412   0.00    0.0
2158 455350.000   22.301587242  114.190315063     8.5653   5  17   2.3197   2.6460   5.9300   0.6968   1.3312  -0.9408   0.00    0.0
2158 455351.000   22.301590399  114.190299612     8.5997   5  17   2.3196   2.6461   5.9299   0.6967   1.3320  -0.9404   0.00    0.0
2158 455352.000   22.301598869  114.190286544     8.6094   5  17   2.3195   2.6463   5.9298   0.6966   1.3328  -0.9400   0.00    0.0
2158 455353.000   22.301609698  114.190281322     8.2112   5  17   2.3194   2.6464   5.9297   0.6964   1.3336  -0.9396   0.00    0.0
2158 455354.000   22.301621314  114.190272430     7.8558   5  17   2.3193   2.6465   5.9296   0.6963   1.3344  -0.9392   0.00    0.0
2158 455355.000   22.301633233  114.190267120     7.6274   5  17   2.3192   2.6466   5.9295   0.6962   1.3352  -0.9388   0.00    0.0
2158 455356.000   22.301649486  114.190260337     7.6502   5  17   2.3191   2.6467   5.9294   0.6961   1.3359  -0.9384   0.00    0.0
2158 455357.000   22.301664213  114.190246384     5.9997   5  17   2.3190   2.6468   5.9293   0.6959   1.3367  -0.9380   0.00    0.0
2158 455358.000   22.301693874  114.190233819     6.9983   5  17   2.3189   2.6469   5.9292   0.6958   1.3375  -0.9377   0.00    0.0
2158 455359.000   22.301719589  114.190219752     4.7525   5  17   2.3188   2.6471   5.9291   0.6957   1.3383  -0.9373   0.00    0.0
2158 455360.000   22.301760467  114.190197718     6.1766   5  17   2.3187   2.6472   5.9290   0.6955   1.3391  -0.9369   0.00    0.0
2158 455361.000   22.301804136  114.190179015     6.0413   5  17   2.3186   2.6473   5.9289   0.6954   1.3399  -0.9365   0.00    0.0
2158 455362.000   22.301850716  114.190156820     5.9589   5  17   2.3185   2.6474   5.9288   0.6953   1.3407  -0.9361   0.00    0.0
2158 455363.000   22.301904592  114.190134487     6.2768   5  17   2.3184   2.6475   5.9287   0.6952   1.3415  -0.9357   0.00    0.0
2158 455364.000   22.301959040  114.190108035     6.1790   5  17   2.3183   2.6476   5.9286   0.6950   1.3423  -0.9353   0.00    0.0
2158 455365.000   22.302009506  114.190081912     6.1327   5  17   2.3182   2.6478   5.9285   0.6949   1.3431  -0.9349   0.00    0.0
2158 455366.000   22.302059538  114.190053910     6.1659   5  16   2.5145   2.8257   6.0731   1.2017   0.7112  -1.4688   0.00    0.0
2158 455367.000   22.302110380  114.190028759     6.3696   5  16   2.5144   2.8259   6.0730   1.2016   0.7127  -1.4685   0.00    0.0
2158 455368.000   22.302154294  114.190000081     6.9407   5  16   2.5142   2.8260   6.0729   1.2015   0.7143  -1.4681   0.00    0.0
2158 455369.000   22.302198980  114.189969345     8.0164   5  16   2.5141   2.8261   6.0728   1.2014   0.7158  -1.4678   0.00    0.0
2158 455370.000   22.302245831  114.189942117     8.8163   5  16   2.5139   2.8263   6.0726   1.2013   0.7173  -1.4674   0.00    0.0
2158 455371.000   22.302263501  114.189902082     6.0962   5  15   2.8293   3.7682   6.4310   2.1630  -2.1816  -2.2138   0.00    0.0
2158 455372.000   22.302274056  114.189860923     5.9005   5  15   2.8292   3.7682   6.4308   2.1629  -2.1810  -2.2136   0.00    0.0
2158 455373.000   22.302292482  114.189816802     5.9041   5  16   2.8026   3.5355   6.1590   2.0433  -2.6767  -2.3690   0.00    0.0
2158 455374.000   22.302304338  114.189779432     4.6580   5  15   3.0247   3.5926   6.2147   2.2139  -2.7738  -2.5607   0.00    0.0
2158 455375.000   22.302279301  114.189717179     6.0645   5  15   2.8288   3.7680   6.4305   2.1625  -2.1791  -2.2128   0.00    0.0
2158 455376.000   22.302263624  114.189684841     6.3217   5  15   2.8286   3.7680   6.4303   2.1624  -2.1785  -2.2126   0.00    0.0
2158 455377.000   22.302246320  114.189646515     7.6498   5  15   2.8285   3.7679   6.4302   2.1622  -2.1779  -2.2123   0.00    0.0
2158 455378.000   22.302227065  114.189622862     7.9470   5  15   2.8284   3.7679   6.4301   2.1621  -2.1773  -2.2121   0.00    0.0
2158 455379.000   22.302209380  114.189596433     8.0741   5  15   2.8282   3.7678   6.4300   2.1620  -2.1767  -2.2119   0.00    0.0
2158 455380.000   22.302183390  114.189556789     8.4592   5  15   2.8281   3.7678   6.4298   2.1619  -2.1760  -2.2116   0.00    0.0
2158 455381.000   22.302184215  114.189568820     5.9461   5  16   2.5124   2.8277   6.0712   1.2002   0.7340  -1.4635   0.00    0.0
2158 455382.000   22.302158876  114.189529441     8.7176   5  16   2.5122   2.8278   6.0711   1.2001   0.7355  -1.4631   0.00    0.0
2158 455383.000   22.302131515  114.189485222    10.4682   5  16   2.5121   2.8280   6.0709   1.2000   0.7370  -1.4628   0.00    0.0
2158 455384.000   22.302104885  114.189445530    10.6421   5  16   2.5120   2.8281   6.0708   1.1999   0.7385  -1.4624   0.00    0.0
2158 455385.000   22.302092311  114.189415316    11.5647   5  16   2.5118   2.8282   6.0707   1.1999   0.7400  -1.4621   0.00    0.0
2158 455386.000   22.302067348  114.189381478    10.2902   5  16   2.5117   2.8284   6.0705   1.1998   0.7415  -1.4617   0.00    0.0
2158 455387.000   22.302046776  114.189340180     9.6075   5  17   2.3159   2.6503   5.9263   0.6921   1.3604  -0.9262   0.00    0.0
2158 455388.000   22.302025382  114.189289146     6.0699   5  17   2.3158   2.6505   5.9263   0.6920   1.3612  -0.9258   0.00    0.0
2158 455389.000   22.302020923  114.189236064     5.4403   5  17   2.3157   2.6506   5.9262   0.6919   1.3620  -0.9254   0.00    0.0
2158 455390.000   22.302021175  114.189173800     5.5152   5  17   2.3156   2.6507   5.9261   0.6917   1.3628  -0.9250   0.00    0.0
2158 455391.000   22.302062839  114.189134894    10.2971   5  16   2.7766   2.7611   7.1593   1.2893   2.2279   2.3023   0.00    0.0
2158 455392.000   22.302087654  114.189060818     4.8708   5  15   2.7766   2.9392   7.5467   1.3008   2.7145   2.3180   0.00    0.0
2158 455393.000   22.302112317  114.188996215    -1.2970   5  15   2.7765   2.9394   7.5472   1.3008   2.7153   2.3184   0.00    0.0
2158 455394.000   22.302143584  114.188964849     3.4250   5  16   2.7762   2.7616   7.1607   1.2894   2.2303   2.3037   0.00    0.0
2158 455395.000   22.302178025  114.188924965     3.9873   5  15   2.9573   2.7656   7.1649   1.3452   2.2237   2.2526   0.00    0.0
2158 455396.000   22.302198953  114.188883811     7.2007   5  15   2.9573   2.7657   7.1653   1.3453   2.2246   2.2534   0.00    0.0
2158 455397.000   22.302191650  114.188843509     1.3988   5  15   3.9153   2.7712   9.3341   1.0213   1.9084   4.6734   0.00    0.0
2158 455398.000   22.302196318  114.188818605     2.2842   5  15   3.9154   2.7714   9.3360   1.0219   1.9099   4.6745   0.00    0.0
2158 455399.000   22.302200579  114.188798940     2.1738   5  15   3.9156   2.7715   9.3379   1.0225   1.9114   4.6756   0.00    0.0
2158 455400.000   22.302206357  114.188783036     2.3192   5  15   3.9157   2.7716   9.3398   1.0231   1.9129   4.6767   0.00    0.0
2158 455401.000   22.302198969  114.188763548     0.3606   5  15   3.9158   2.7718   9.3416   1.0236   1.9143   4.6778   0.00    0.0
2158 455402.000   22.302196105  114.188747775     0.1126   5  15   3.9160   2.7719   9.3435   1.0242   1.9158   4.6789   0.00    0.0
2158 455403.000   22.302188118  114.188743864    -0.8893   5  15   3.9161   2.7720   9.3454   1.0248   1.9173   4.6800   0.00    0.0
2158 455404.000   22.302172199  114.188740238    -1.7424   5  15   3.9162   2.7722   9.3472   1.0253   1.9188   4.6811   0.00    0.0
2158 455405.000   22.302168434  114.188737367    -1.1398   5  15   3.9164   2.7723   9.3491   1.0259   1.9202   4.6822   0.00    0.0
2158 455406.000   22.302173715  114.188734903     0.9578   5  15   3.9165   2.7724   9.3510   1.0265   1.9217   4.6833   0.00    0.0
2158 455407.000   22.302318912  114.188763789    38.7885   5  16   2.6313   2.7308   6.3530  -0.5802   0.6375   1.4251   0.00    0.0
2158 455408.000   22.302311505  114.188760274    37.5373   5  16   2.6311   2.7308   6.3531  -0.5801   0.6393   1.4254   0.00    0.0
2158 455409.000   22.302343258  114.188763112    46.0405   5  16   2.6310   2.7309   6.3531  -0.5800   0.6410   1.4258   0.00    0.0
2158 455410.000   22.302332921  114.188762583    42.8872   5  16   2.6309   2.7310   6.3532  -0.5799   0.6428   1.4261   0.00    0.0
2158 455411.000   22.302342586  114.188763839    44.9486   5  16   2.6307   2.7311   6.3532  -0.5799   0.6445   1.4265   0.00    0.0
2158 455412.000   22.302176162  114.188733231     0.8326   5  15   3.9172   2.7732   9.3622   1.0299   1.9305   4.6899   0.00    0.0
2158 455413.000   22.302175983  114.188733743     0.7048   5  15   3.9174   2.7734   9.3641   1.0305   1.9320   4.6910   0.00    0.0
2158 455414.000   22.302175875  114.188734325     0.7394   5  15   3.9175   2.7735   9.3660   1.0310   1.9335   4.6921   0.00    0.0
2158 455415.000   22.302175631  114.188735075     0.8091   5  15   3.9176   2.7736   9.3678   1.0316   1.9349   4.6932   0.00    0.0
2158 455416.000   22.302176443  114.188734907     0.6691   5  15   3.9177   2.7738   9.3697   1.0322   1.9364   4.6943   0.00    0.0
2158 455417.000   22.302175442  114.188734108     0.2228   5  15   3.9179   2.7739   9.3716   1.0328   1.9379   4.6954   0.00    0.0
2158 455418.000   22.302179460  114.188733272     0.9992   5  15   3.9180   2.7740   9.3735   1.0333   1.9394   4.6965   0.00    0.0
2158 455419.000   22.302179969  114.188734846     0.6935   5  15   3.9181   2.7742   9.3753   1.0339   1.9408   4.6976   0.00    0.0
2158 455420.000   22.302179400  114.188732776     0.3472   5  15   3.9182   2.7743   9.3772   1.0345   1.9423   4.6987   0.00    0.0
2158 455421.000   22.302180072  114.188734110     0.4025   5  15   3.9184   2.7744   9.3791   1.0350   1.9438   4.6998   0.00    0.0
2158 455422.000   22.302179448  114.188734162    -0.0243   5  15   3.9185   2.7746   9.3810   1.0356   1.9452   4.7009   0.00    0.0
2158 455423.000   22.302179532  114.188734262     0.0357   5  15   3.9186   2.7747   9.3828   1.0362   1.9467   4.7019   0.00    0.0
2158 455424.000   22.302178092  114.188733366    -0.1636   5  15   3.9187   2.7748   9.3847   1.0368   1.9482   4.7030   0.00    0.0
2158 455425.000   22.302179050  114.188732887    -0.4897   5  15   3.9189   2.7750   9.3866   1.0373   1.9496   4.7041   0.00    0.0
2158 455426.000   22.302177407  114.188729934    -0.7135   5  15   3.9190   2.7751   9.3884   1.0379   1.9511   4.7052   0.00    0.0
2158 455427.000   22.302175858  114.188728304    -0.5560   5  15   3.9191   2.7752   9.3903   1.0385   1.9526   4.7063   0.00    0.0
2158 455428.000   22.302175981  114.188728038    -0.0339   5  15   3.9192   2.7754   9.3922   1.0390   1.9540   4.7074   0.00    0.0
2158 455429.000   22.302175816  114.188726583     0.3733   5  15   3.9194   2.7755   9.3941   1.0396   1.9555   4.7085   0.00    0.0
2158 455430.000   22.302506955  114.188785639    88.3344   5  16   2.6281   2.7326   6.3542  -0.5784   0.6767   1.4329   0.00    0.0
2158 455431.000   22.302515887  114.188785981    91.3222   5  16   2.6279   2.7326   6.3542  -0.5783   0.6783   1.4332   0.00    0.0
2158 455432.000   22.302513949  114.188785009    91.2360   5  16   2.6278   2.7327   6.3543  -0.5782   0.6800   1.4336   0.00    0.0
2158 455433.000   22.302519797  114.188785026    93.2987   5  16   2.6277   2.7328   6.3544  -0.5782   0.6816   1.4339   0.00    0.0
2158 455434.000   22.302526461  114.188784164    94.6451   5  16   2.6275   2.7329   6.3544  -0.5781   0.6833   1.4342   0.00    0.0
2158 455435.000   22.302524421  114.188785860    94.9069   5  16   2.6274   2.7330   6.3545  -0.5780   0.6849   1.4346   0.00    0.0
2158 455436.000   22.302530952  114.188787629    96.2976   5  16   2.6273   2.7330   6.3545  -0.5779   0.6866   1.4349   0.00    0.0
2158 455437.000   22.302531949  114.188788557    96.7334   5  16   2.6271   2.7331   6.3546  -0.5779   0.6882   1.4352   0.00    0.0
2158 455438.000   22.302178028  114.188725890     3.2491   5  15   3.9204   2.7767   9.4109   1.0448   1.9687   4.7182   0.00    0.0
2158 455439.000   22.302177306  114.188726239     2.9018   5  15   3.9206   2.7769   9.4128   1.0453   1.9702   4.7193   0.00    0.0
2158 455440.000   22.302176914  114.188723994     2.2319   5  15   3.9207   2.7770   9.4147   1.0459   1.9716   4.7204   0.00    0.0
2158 455441.000   22.302175864  114.188719713     1.3400   5  15   3.9208   2.7771   9.4165   1.0465   1.9731   4.7215   0.00    0.0
2158 455442.000   22.302175055  114.188720405     1.7625   5  15   3.9209   2.7773   9.4184   1.0471   1.9745   4.7225   0.00    0.0
2158 455443.000   22.302163828  114.188716245     0.5139   5  15   3.9210   2.7774   9.4203   1.0476   1.9760   4.7236   0.00    0.0
2158 455444.000   22.302141674  114.188709281     0.6682   5  15   3.9212   2.7776   9.4222   1.0482   1.9775   4.7247   0.00    0.0
2158 455445.000   22.302106123  114.188695700     2.9210   5  15   3.9213   2.7777   9.4240   1.0488   1.9789   4.7258   0.00    0.0
2158 455446.000   22.302060923  114.188666200     2.9212   5  15   3.9214   2.7778   9.4259   1.0494   1.9804   4.7269   0.00    0.0
2158 455447.000   22.302006368  114.188623511     2.9397   5  15   3.9215   2.7780   9.4278   1.0499   1.9819   4.7279   0.00    0.0
2158 455448.000   22.301946706  114.188585538     4.3017   5  15   3.9216   2.7781   9.4296   1.0505   1.9834   4.7290   0.00    0.0
2158 455449.000   22.301883692  114.188537134     2.3963   5  15   3.9218   2.7783   9.4315   1.0511   1.9848   4.7301   0.00    0.0
2158 455450.000   22.301831342  114.188483136     3.7983   5  15   3.9219   2.7784   9.4334   1.0517   1.9863   4.7312   0.00    0.0
2158 455451.000   22.301779146  114.188423774     3.7497   5  15   3.9220   2.7785   9.4352   1.0523   1.9878   4.7323   0.00    0.0
2158 455452.000   22.301731249  114.188366925     4.5506   5  15   3.9221   2.7787   9.4371   1.0528   1.9893   4.7334   0.00    0.0
2158 455453.000   22.301679931  114.188319537     5.7201   5  15   3.9223   2.7788   9.4390   1.0534   1.9907   4.7344   0.00    0.0
2158 455454.000   22.301630326  114.188267756     7.6702   5  15   3.9224   2.7790   9.4408   1.0540   1.9922   4.7355   0.00    0.0
2158 455455.000   22.301582925  114.188221282     9.8444   5  14   4.7985   3.5528  11.4000   2.6889   4.2558   6.3316   0.00    0.0
2158 455456.000   22.301546422  114.188151005    11.5357   5  13   5.0658   3.8861  11.9188   2.1617   3.5576   6.7630   0.00    0.0
2158 455457.000   22.301450589  114.188107707    10.4738   5  15   3.6219   3.0610   7.7435  -1.7562  -2.4864   3.7176   0.00    0.0
2158 455458.000   22.301470406  114.187976830     1.3217   5  14   3.8478   3.2242   7.7976  -2.0975  -2.2920   3.5548   0.00    0.0
2158 455459.000   22.301466591  114.187859243     8.3747   5  16   2.7517   2.5595   6.5896   0.5818   1.4563   1.1940   0.00    0.0
2158 455460.000   22.301441702  114.187818892     7.6536   5  16   2.7516   2.5596   6.5898   0.5818   1.4570   1.1949   0.00    0.0
2158 455461.000   22.301395247  114.187830368     7.9149   5  16   2.7024   2.7419   6.3992   0.4455  -0.4817   1.8196   0.00    0.0
2158 455462.000   22.301400499  114.187750337     1.9278   5  14   2.9525   2.9291   6.6532  -1.0124   0.9533   1.4484   0.00    0.0
2158 455463.000   22.301338962  114.187827666    14.8259   5  16   2.7021   2.7420   6.3995   0.4459  -0.4747   1.8203   0.00    0.0
2158 455464.000   22.301301252  114.187841748    18.2005   5  16   2.7020   2.7421   6.3997   0.4462  -0.4712   1.8206   0.00    0.0
2158 455465.000   22.301296348  114.187806855    19.2890   5  16   2.7018   2.7422   6.3998   0.4464  -0.4677   1.8210   0.00    0.0
2158 455466.000   22.301294631  114.187804763    21.4086   5  16   2.7017   2.7422   6.4000   0.4467  -0.4641   1.8213   0.00    0.0
2158 455467.000   22.301279592  114.187822188    27.9446   5  15   2.7565   2.7475   7.2820   0.3274   0.6124   1.1905   0.00    0.0
2158 455468.000   22.301270961  114.187824593    24.6780   5  15   2.7563   2.7476   7.2820   0.3275   0.6159   1.1909   0.00    0.0
2158 455469.000   22.301295142  114.187767067    25.0895   5  16   2.7166   2.5028   7.1900   0.7972   1.3007   0.9390   0.00    0.0
2158 455470.000   22.301329605  114.187757667    30.2053   5  15   3.5234   2.6474   7.6877  -1.1404  -0.8076   2.6436   0.00    0.0
2158 455471.000   22.301353395  114.187751411    30.2791   5  15   3.5235   2.6474   7.6884  -1.1403  -0.8064   2.6446   0.00    0.0
2158 455472.000   22.301352735  114.187754686    31.4668   5  15   3.5235   2.6475   7.6891  -1.1403  -0.8052   2.6457   0.00    0.0
2158 455473.000   22.301353118  114.187754273    33.9838   5  15   3.5235   2.6475   7.6898  -1.1403  -0.8039   2.6468   0.00    0.0
2158 455474.000   22.301372342  114.187770579    15.0685   5  14   3.8441   3.2218   7.8057  -2.0912  -2.2790   3.5611   0.00    0.0
2158 455475.000   22.301361005  114.187767630    12.7749   5  14   3.8439   3.2217   7.8063  -2.0908  -2.2782   3.5615   0.00    0.0
2158 455476.000   22.301444212  114.187696988    17.0523   5  13   4.0448   3.3612   7.8403  -2.3617  -2.4250   3.6876   0.00    0.0
2158 455477.000   22.301495364  114.187663497     6.1552   5  12   4.3892   3.4718   8.3999  -2.6568  -1.8046   2.9094   0.00    0.0
2158 455478.000   22.301449759  114.187648783    16.7487   5  13   4.0442   3.3609   7.8414  -2.3608  -2.4237   3.6886   0.00    0.0
2158 455479.000   22.301369106  114.187712618    10.9750   5  14   3.8429   3.2211   7.8083  -2.0892  -2.2749   3.5630   0.00    0.0
2158 455480.000   22.301376137  114.187749270    13.1675   5  14   3.8427   3.2210   7.8088  -2.0888  -2.2741   3.5634   0.00    0.0
2158 455481.000   22.301383084  114.187826943     8.0554   5  14   3.8424   3.2208   7.8093  -2.0884  -2.2733   3.5638   0.00    0.0
2158 455482.000   22.301388777  114.187880800    -1.6376   5  14   3.8422   3.2207   7.8098  -2.0880  -2.2725   3.5642   0.00    0.0
2158 455483.000   22.301418272  114.187922676     3.6794   5  12   3.3857   3.7407   7.0439  -1.1133   2.4962   1.6259   0.00    0.0
2158 455484.000   22.301441146  114.187962853     3.1822   5  13   3.3659   2.9992   6.6589  -1.4324   1.0475   1.3462   0.00    0.0
2158 455485.000   22.301561620  114.187976135    14.0081   5  14   2.9480   2.9307   6.6559  -1.0080   0.9850   1.4645   0.00    0.0
2158 455486.000   22.301609776  114.188038109    16.0889   5  14   2.8126   2.9104   6.9516  -0.6901   1.5717   1.2375   0.00    0.0
2158 455487.000   22.301672568  114.188063624    25.5982   5  14   3.8410   3.2200   7.8124  -2.0860  -2.2684   3.5661   0.00    0.0
2158 455488.000   22.301693424  114.188142658    23.0714   5  14   3.8408   3.2198   7.8129  -2.0856  -2.2675   3.5664   0.00    0.0
2158 455489.000   22.301686605  114.188218584    22.5440   5  12   4.0527   4.0624   8.1168  -2.2001  -1.0516   3.7800   0.00    0.0
2158 455490.000   22.301633851  114.188400729    30.2696   5  13   3.8663   3.5279   7.9625  -1.5476  -2.0690   4.0256   0.00    0.0
2158 455491.000   22.301684819  114.188405275    32.0349   5  13   3.8659   3.5280   7.9631  -1.5474  -2.0681   4.0258   0.00    0.0
2158 455492.000   22.301693625  114.188461072    35.9922   5  13   3.8655   3.5281   7.9636  -1.5472  -2.0672   4.0260   0.00    0.0
2158 455493.000   22.301655349  114.188517575    30.6404   5  14   3.7390   3.4250   7.9232  -1.2505  -1.8938   3.9269   0.00    0.0
2158 455494.000   22.301733341  114.188426904    30.5491   5  14   3.7565   3.1541   7.8127  -1.9567  -2.5912   3.8478   0.00    0.0
2158 455495.000   22.301960301  114.188145004    69.4610   5  15   3.4821   2.7046   7.3965  -1.2315  -0.8392   2.9415   0.00    0.0
2158 455496.000   22.301776131  114.188364641    25.7050   5  13   4.0385   3.3580   7.8518  -2.3530  -2.4123   3.6970   0.00    0.0
2158 455497.000   22.301786663  114.188358299    27.5117   5  13   4.0382   3.3578   7.8524  -2.3525  -2.4116   3.6975   0.00    0.0
2158 455498.000   22.301791249  114.188358026    28.5059   5  13   4.0378   3.3577   7.8530  -2.3521  -2.4110   3.6979   0.00    0.0
2158 455499.000   22.301789473  114.188350451    27.7235   5  13   4.0375   3.3575   7.8535  -2.3517  -2.4103   3.6984   0.00    0.0
2158 455500.000   22.301796216  114.188320888    17.5101   5  12   4.0559   3.4495   8.0703  -2.4159  -2.0827   3.5999   0.00    0.0
2158 455501.000   22.301794836  114.188325800    17.2956   5  12   4.0556   3.4493   8.0708  -2.4155  -2.0819   3.6003   0.00    0.0
2158 455502.000   22.301659324  114.188443725    26.4817   5  13   3.7568   3.2063   7.9989  -1.9726  -2.3879   3.8226   0.00    0.0
2158 455503.000   22.301654601  114.188441626    25.3471   5  13   3.7565   3.2063   7.9994  -1.9722  -2.3872   3.8230   0.00    0.0
2158 455504.000   22.301649692  114.188441435    24.6465   5  13   3.7563   3.2062   7.9999  -1.9719  -2.3864   3.8233   0.00    0.0
2158 455505.000   22.301566639  114.188514550    17.7165   5  14   3.6135   3.1030   7.9612  -1.7493  -2.2478   3.7160   0.00    0.0
2158 455506.000   22.301556183  114.188511006    15.7946   5  14   3.6133   3.1029   7.9616  -1.7490  -2.2469   3.7163   0.00    0.0
2158 455507.000   22.301555692  114.188518296    16.1910   5  14   3.6132   3.1029   7.9621  -1.7487  -2.2459   3.7165   0.00    0.0
2158 455508.000   22.301578155  114.188528546    18.8038   5  14   3.6130   3.1028   7.9625  -1.7483  -2.2450   3.7168   0.00    0.0
2158 455509.000   22.301575637  114.188523753    18.4293   5  14   3.6128   3.1027   7.9629  -1.7480  -2.2440   3.7170   0.00    0.0
2158 455510.000   22.301569854  114.188525503    16.6965   5  14   3.6126   3.1027   7.9634  -1.7476  -2.2431   3.7173   0.00    0.0
2158 455511.000   22.301587824  114.188505415    17.1595   5  14   3.6124   3.1026   7.9638  -1.7473  -2.2421   3.7175   0.00    0.0
2158 455512.000   22.301594442  114.188495844    16.4114   5  14   3.6122   3.1025   7.9643  -1.7470  -2.2412   3.7178   0.00    0.0
2158 455513.000   22.301606928  114.188497303    17.4699   5  14   3.6120   3.1025   7.9647  -1.7466  -2.2402   3.7180   0.00    0.0
2158 455514.000   22.301619895  114.188495377    19.8894   5  14   3.6118   3.1024   7.9651  -1.7463  -2.2393   3.7183   0.00    0.0
2158 455515.000   22.301622097  114.188495682    21.1460   5  14   3.6116   3.1023   7.9656  -1.7459  -2.2383   3.7185   0.00    0.0
2158 455516.000   22.301637187  114.188495295    23.4982   5  14   3.6114   3.1023   7.9660  -1.7456  -2.2374   3.7188   0.00    0.0
2158 455517.000   22.301650124  114.188486699    22.3139   5  15   3.6105   3.0548   7.7754  -1.7336  -2.4369   3.7364   0.00    0.0
2158 455518.000   22.301663010  114.188495177    27.4244   5  15   3.6103   3.0547   7.7759  -1.7332  -2.4360   3.7367   0.00    0.0
2158 455519.000   22.302071889  114.188029419   120.6116   5  16   3.3338   2.6156   7.2834  -0.9044  -1.2772   3.1924   0.00    0.0
2158 455520.000   22.301706349  114.188514646    42.9077   5  15   3.6099   3.0545   7.7770  -1.7325  -2.4343   3.7373   0.00    0.0
2158 455521.000   22.301722994  114.188524015    49.4962   5  15   3.6097   3.0544   7.7775  -1.7321  -2.4335   3.7376   0.00    0.0
2158 455522.000   22.302035505  114.188173306   120.1652   5  16   3.3338   2.6157   7.2863  -0.9040  -1.2750   3.1948   0.00    0.0
2158 455523.000   22.301736466  114.188529096    54.2751   5  15   3.6093   3.0542   7.7785  -1.7313  -2.4318   3.7382   0.00    0.0
2158 455524.000   22.301723877  114.188537960    53.0932   5  15   3.6091   3.0541   7.7791  -1.7309  -2.4309   3.7385   0.00    0.0
2158 455525.000   22.301740853  114.188533332    51.3746   5  15   3.6089   3.0540   7.7796  -1.7305  -2.4301   3.7388   0.00    0.0
2158 455526.000   22.301795746  114.188511580    51.3579   5  15   3.6086   3.0539   7.7801  -1.7301  -2.4292   3.7391   0.00    0.0
2158 455527.000   22.301855566  114.188494936    54.7464   5  15   3.6084   3.0538   7.7807  -1.7297  -2.4283   3.7393   0.00    0.0
2158 455528.000   22.301894755  114.188524745    54.2886   5  15   3.6082   3.0537   7.7812  -1.7293  -2.4275   3.7396   0.00    0.0
2158 455529.000   22.301999687  114.188516528    57.7574   5  15   3.6080   3.0536   7.7817  -1.7289  -2.4266   3.7399   0.00    0.0
2158 455530.000   22.302062685  114.188528327    56.5165   5  15   3.6078   3.0535   7.7822  -1.7285  -2.4258   3.7402   0.00    0.0
2158 455531.000   22.302121447  114.188552561    55.2717   5  15   3.6076   3.0534   7.7828  -1.7282  -2.4249   3.7405   0.00    0.0
2158 455532.000   22.302059426  114.188539066    17.9700   5  14   4.2783   3.1454  10.2502  -1.1167  -0.9141   5.4161   0.00    0.0
2158 455533.000   22.302087722  114.188537329     2.3657   5  13   4.3139   3.2392  10.8790  -0.9025   1.4111   5.6001   0.00    0.0
2158 455534.000   22.302318302  114.188631309    62.0817   5  14   3.6079   3.1011   7.9739  -1.7394  -2.2200   3.7231   0.00    0.0
2158 455535.000   22.302386585  114.188642388    64.9365   5  14   3.6077   3.1010   7.9744  -1.7390  -2.2190   3.7233   0.00    0.0
2158 455536.000   22.302665007  114.188385962   118.9977   5  15   3.3444   2.7229   7.4212  -1.0082  -0.7665   3.1491   0.00    0.0
2158 455537.000   22.302287610  114.188588186    -1.8652   5  13   4.3125   3.2398  10.8822  -0.8964   1.4261   5.6004   0.00    0.0
2158 455538.000   22.302404300  114.188555760    16.7698   5  14   3.9384   2.9725  10.0366   1.2096   2.7330   4.8965   0.00    0.0
2158 455539.000   22.302424951  114.188583646    14.4329   5  14   3.9385   2.9727  10.0385   1.2101   2.7343   4.8975   0.00    0.0
2158 455540.000   22.302432456  114.188605164    12.1217   5  14   3.9385   2.9729  10.0404   1.2106   2.7356   4.8985   0.00    0.0
2158 455541.000   22.302442716  114.188610085     9.3167   5  14   3.9386   2.9731  10.0424   1.2111   2.7369   4.8995   0.00    0.0
2158 455542.000   22.302438250  114.188600543     4.6046   5  14   3.9387   2.9734  10.0443   1.2117   2.7382   4.9005   0.00    0.0
2158 455543.000   22.302430726  114.188594760     2.0750   5  14   3.9388   2.9736  10.0462   1.2122   2.7395   4.9015   0.00    0.0
2158 455544.000   22.302433260  114.188604184     3.5358   5  14   3.9389   2.9738  10.0481   1.2127   2.7408   4.9025   0.00    0.0
2158 455545.000   22.302440270  114.188610363     5.0954   5  14   3.9390   2.9740  10.0500   1.2132   2.7421   4.9035   0.00    0.0
2158 455546.000   22.302433628  114.188604111     2.9494   5  14   3.9391   2.9742  10.0519   1.2138   2.7434   4.9045   0.00    0.0
2158 455547.000   22.302436503  114.188605293     2.7917   5  14   3.9391   2.9744  10.0538   1.2143   2.7447   4.9054   0.00    0.0
2158 455548.000   22.302435777  114.188606948     2.3434   5  14   3.9392   2.9747  10.0557   1.2148   2.7461   4.9064   0.00    0.0
2158 455549.000   22.302431460  114.188607550     2.6011   5  14   3.9393   2.9749  10.0577   1.2153   2.7474   4.9074   0.00    0.0
2158 455550.000   22.302434621  114.188606762     2.1745   5  14   3.9394   2.9751  10.0596   1.2158   2.7487   4.9084   0.00    0.0
2158 455551.000   22.302433472  114.188608946     2.7644   5  14   3.9395   2.9753  10.0615   1.2164   2.7500   4.9094   0.00    0.0
2158 455552.000   22.302437501  114.188611605     4.3825   5  14   3.9395   2.9755  10.0634   1.2169   2.7513   4.9104   0.00    0.0
2158 455553.000   22.302431088  114.188616074     4.4996   5  14   3.9396   2.9757  10.0653   1.2174   2.7526   4.9114   0.00    0.0
2158 455554.000   22.302436199  114.188620044     6.3594   5  14   3.9397   2.9759  10.0672   1.2179   2.7539   4.9124   0.00    0.0
2158 455555.000   22.302439198  114.188620000     5.2025   5  14   3.9398   2.9762  10.0691   1.2184   2.7552   4.9134   0.00    0.0
2158 455556.000   22.302406189  114.188512160   -19.2092   5   8   6.6039  11.1716  28.9882   7.1581  17.1770  12.0690   0.00    0.0
2158 455557.000   22.302412748  114.188568887    -7.2733   5  10   6.5051   9.2166  24.4901   6.6418  14.0402  11.3208   0.00    0.0
2158 455558.000   22.302414174  114.188569933   -14.9733   5  12   4.0060   3.3992  10.8387   0.6096   3.7528   4.6179   0.00    0.0
2158 455559.000   22.302430697  114.188606093    -3.9316   5  12   4.0061   3.3995  10.8403   0.6108   3.7537   4.6190   0.00    0.0
2158 455560.000   22.302573100  114.189021526   113.9064   5  11   5.3146   4.4899  13.6430   3.3791   6.1794   7.0791   0.00    0.0
2158 455561.000   22.302586707  114.189050590   114.8705   5  11   5.3142   4.4904  13.6447   3.3790   6.1804   7.0795   0.00    0.0
2158 455562.000   22.302570516  114.189028265   105.8276   5  10   5.4622   5.0004  13.6613   3.7681   6.2937   7.1365   0.00    0.0
2158 455563.000   22.302311552  114.188752459    55.5771   5  10   4.3906   3.5974  13.0464  -0.4183   4.1974   3.5024   0.00    0.0
2158 455564.000   22.302429087  114.188681056    18.3402   5  13   3.9447   3.1213  10.2286   1.1512   3.0405   4.8905   0.00    0.0
2158 455565.000   22.302532749  114.188767738    42.9806   5  12   4.9950   4.4910  13.6301   3.3496   6.1913   7.1780   0.00    0.0
2158 455566.000   22.302462900  114.188522601   -24.3851   5   9   6.5696  11.1186  28.8500   7.1045  17.0864  11.9914   0.00    0.0
2158 455567.000   22.302494018  114.188523131   -20.9498   5   9   6.5662  11.1133  28.8362   7.0992  17.0773  11.9836   0.00    0.0
2158 455568.000   22.302557302  114.188530012    -9.3579   5   8   6.6301  11.1101  29.3901   7.1081  17.1045  12.2000   0.00    0.0
2158 455569.000   22.302600417  114.188517754    -8.1570   5   9   6.5593  11.1028  28.8086   7.0884  17.0592  11.9680   0.00    0.0
2158 455570.000   22.302651316  114.188594040    13.9795   5  13   4.0030   3.2338  10.2514   1.5449   2.3401   4.8003   0.00    0.0
2158 455571.000   22.302727110  114.188561032     8.1220   5  14   3.9410   2.9797  10.0996   1.2268   2.7761   4.9290   0.00    0.0
2158 455572.000   22.302779474  114.188529453     7.1289   5  13   4.0030   3.2342  10.2554   1.5453   2.3429   4.8023   0.00    0.0
2158 455573.000   22.302827008  114.188476907     2.8267   5  14   3.9943   3.0525   9.8413   1.4514   1.5499   4.7232   0.00    0.0
2158 455574.000   22.302886863  114.188441339     2.4929   5  14   3.9943   3.0526   9.8432   1.4516   1.5516   4.7243   0.00    0.0
2158 455575.000   22.302936651  114.188394659    -1.1825   5  13   5.0388   4.1410  11.6331   3.2715   4.4443   6.4315   0.00    0.0
2158 455576.000   22.302984698  114.188310240     2.8709   5  12   5.0985   5.2659  12.3573   3.6395   2.4932   6.1732   0.00    0.0
2158 455577.000   22.303040500  114.188272971     6.2517   5  12   5.0976   5.2653  12.3600   3.6385   2.4932   6.1736   0.00    0.0
2158 455578.000   22.303079346  114.188192856     2.4344   5  12   5.0967   5.2648  12.3627   3.6375   2.4933   6.1741   0.00    0.0
2158 455579.000   22.303177770  114.188194184     4.4154   5  13   4.0069   4.1443  11.0671   1.7333  -3.4187   4.5564   0.00    0.0
2158 455580.000   22.303242457  114.188133975    14.5943   5  14   3.4850   4.0945   8.7098   1.3187  -4.0069   2.6949   0.00    0.0
2158 455581.000   22.303240530  114.188038181    -2.4441   5  13   4.0068   4.1440  11.0724   1.7329  -3.4182   4.5589   0.00    0.0
2158 455582.000   22.303310755  114.187950028     1.1293   5  13   4.0068   4.1438  11.0751   1.7327  -3.4180   4.5602   0.00    0.0
2158 455583.000   22.303354130  114.187861504    -3.4309   5  13   4.0067   4.1437  11.0777   1.7325  -3.4177   4.5615   0.00    0.0
2158 455584.000   22.303437960  114.187776378     2.6282   5  13   4.0067   4.1435  11.0804   1.7323  -3.4174   4.5627   0.00    0.0
2158 455585.000   22.303499445  114.187708198    -1.2530   5  13   4.0066   4.1433  11.0831   1.7321  -3.4172   4.5640   0.00    0.0
2158 455586.000   22.303576353  114.187632229     1.0871   5  13   4.0066   4.1432  11.0857   1.7319  -3.4169   4.5652   0.00    0.0
2158 455587.000   22.303544699  114.187154305    57.9149   5  13   5.0299   4.1421  11.6545   3.2666   4.4523   6.4342   0.00    0.0
2158 455588.000   22.303062700  114.186918545     6.1295   5   8  18.4954   6.6899  31.1666  10.0621  12.8244  23.3834   0.00    0.0
2158 455590.000   22.302874741  114.186530409   -83.8259   5   9  10.6022   6.5173  19.1320   7.1993   9.7562  13.1899   0.00    0.0
2158 455591.000   22.303781348  114.187015735    36.1244   5  11   5.2084   3.3051  11.0387   2.0402   2.7949   6.0421   0.00    0.0
2158 455592.000   22.303780150  114.186930572    11.4531   5  12   5.2854   4.7923  13.0756   3.8205   5.8390   7.1469   0.00    0.0
2158 455593.000   22.303834552  114.186759351    54.9477   5  14   3.9424   2.9846  10.1414   1.2384   2.8053   4.9499   0.00    0.0
2158 455594.000   22.303795833  114.186554957    25.6452   5  12   6.2653   4.2770  14.6252   3.7974   6.2248   8.6280   0.00    0.0
2158 455595.000   22.303999521  114.186584858    63.2603   5  13   4.6455   2.9850  10.6037   1.2424   2.8096   5.6656   0.00    0.0
2158 455596.000   22.304134243  114.186895441     5.1269   5  11   4.7712   4.3791  11.6673   2.0424  -2.7550   5.3397   0.00    0.0
2158 455597.000   22.304164796  114.186821629     2.4912   5  11   4.7712   4.3789  11.6703   2.0424  -2.7544   5.3411   0.00    0.0
2158 455598.000   22.304152011  114.186768596    -2.3510   5  12   4.0170   4.3687  11.3650   1.8455  -2.8940   4.6564   0.00    0.0
2158 455599.000   22.304207642  114.186728990     2.6284   5  11   4.7713   4.3786  11.6763   2.0423  -2.7531   5.3440   0.00    0.0
2158 455600.000   22.304253624  114.186720951     7.1392   5  11   4.7713   4.3785  11.6792   2.0423  -2.7524   5.3454   0.00    0.0
2158 455601.000   22.304292531  114.186685098     6.4063   5  11   4.7713   4.3783  11.6822   2.0423  -2.7518   5.3468   0.00    0.0
2158 455602.000   22.304307062  114.186668355    11.5946   5  11   4.7714   4.3782  11.6852   2.0423  -2.7511   5.3483   0.00    0.0
2158 455603.000   22.304340528  114.186645087    12.0143   5  11   4.7714   4.3780  11.6882   2.0422  -2.7505   5.3497   0.00    0.0
2158 455604.000   22.304360720  114.186634720     9.0747   5  11   4.7714   4.3779  11.6912   2.0422  -2.7499   5.3511   0.00    0.0
2158 455605.000   22.304378370  114.186606285     8.6773   5  11   4.7715   4.3777  11.6941   2.0422  -2.7492   5.3526   0.00    0.0
2158 455606.000   22.304394750  114.186581332    11.5710   5  11   4.7715   4.3776  11.6971   2.0422  -2.7486   5.3540   0.00    0.0
2158 455607.000   22.304344466  114.186163963    75.0944   5  12   4.7487   3.2446  10.7298   1.6736   2.4814   5.5547   0.00    0.0
2158 455608.000   22.304417159  114.186528922    11.5884   5  11   4.7716   4.3773  11.7031   2.0421  -2.7473   5.3568   0.00    0.0
2158 455609.000   22.304424217  114.186503491    10.8729   5  11   4.7716   4.3771  11.7061   2.0421  -2.7466   5.3583   0.00    0.0
2158 455610.000   22.304426344  114.186481336    10.3177   5  11   4.7716   4.3770  11.7091   2.0420  -2.7460   5.3597   0.00    0.0
2158 455611.000   22.304404520  114.186471286    10.2558   5  12   4.7597   4.1869  11.5960   2.1448  -3.1040   5.4126   0.00    0.0
2158 455612.000   22.304232166  114.186407255   -13.1328   5  13   4.0053   4.1392  11.1553   1.7267  -3.4105   4.5979   0.00    0.0
2158 455613.000   22.304386238  114.186427671     8.5092   5  12   4.7598   4.1866  11.6020   2.1448  -3.1029   5.4155   0.00    0.0
2158 455614.000   22.304387786  114.186419038     7.2158   5  12   4.7598   4.1865  11.6050   2.1448  -3.1023   5.4170   0.00    0.0
2158 455615.000   22.304384346  114.186415297     5.7733   5  12   4.7598   4.1864  11.6080   2.1449  -3.1017   5.4185   0.00    0.0
2158 455616.000   22.304377268  114.186412038     4.0431   5  12   4.7598   4.1863  11.6110   2.1449  -3.1012   5.4199   0.00    0.0
2158 455617.000   22.304378035  114.186388406     7.5673   5  12   4.7598   4.1862  11.6140   2.1449  -3.1006   5.4214   0.00    0.0
2158 455618.000   22.304370263  114.186392516     6.1658   5  12   4.7599   4.1861  11.6169   2.1449  -3.1000   5.4228   0.00    0.0
2158 455619.000   22.304371472  114.186388471     6.6202   5  12   4.7599   4.1860  11.6199   2.1449  -3.0995   5.4243   0.00    0.0
2158 455620.000   22.304370449  114.186378891     8.0979   5  12   4.7599   4.1859  11.6229   2.1450  -3.0989   5.4257   0.00    0.0
2158 455621.000   22.304369939  114.186371027     9.3522   5  12   4.7599   4.1858  11.6259   2.1450  -3.0984   5.4272   0.00    0.0
2158 455622.000   22.304377425  114.186363356    11.4034   5  12   4.7599   4.1857  11.6289   2.1450  -3.0978   5.4286   0.00    0.0
2158 455623.000   22.304385509  114.186367361    11.6820   5  12   4.7599   4.1856  11.6319   2.1450  -3.0972   5.4300   0.00    0.0
2158 455624.000   22.304388650  114.186366647    11.6382   5  12   4.7599   4.1855  11.6349   2.1450  -3.0967   5.4315   0.00    0.0
2158 455625.000   22.304397928  114.186370022    10.8302   5  12   4.7599   4.1854  11.6379   2.1450  -3.0961   5.4329   0.00    0.0
2158 455626.000   22.304406672  114.186371919    10.6488   5  12   4.7600   4.1852  11.6409   2.1451  -3.0956   5.4344   0.00    0.0
2158 455627.000   22.304436913  114.186382823    17.3714   5  13   3.9420   4.1078   8.8245   1.5701  -3.9575   3.0464   0.00    0.0
2158 455628.000   22.304440164  114.186375798    16.5599   5  13   3.9419   4.1077   8.8259   1.5700  -3.9574   3.0475   0.00    0.0
2158 455629.000   22.304289817  114.186346914     5.0379   5  14   3.4785   4.0869   8.7759   1.3043  -4.0065   2.7442   0.00    0.0
2158 455630.000   22.304280012  114.186346983     0.2868   5  14   3.4784   4.0867   8.7772   1.3040  -4.0065   2.7452   0.00    0.0
2158 455631.000   22.304439493  114.186361849     6.0354   5  13   3.9415   4.1073   8.8300   1.5697  -3.9573   3.0505   0.00    0.0
2158 455632.000   22.304317080  114.186309024     3.1076   5  14   3.4781   4.0864   8.7800   1.3035  -4.0065   2.7472   0.00    0.0
2158 455633.000   22.304483739  114.186312138     3.6052   5  12   4.7600   4.1845  11.6619   2.1452  -3.0916   5.4444   0.00    0.0
2158 455634.000   22.304530887  114.186286295     6.4857   5  12   4.7600   4.1844  11.6649   2.1452  -3.0910   5.4459   0.00    0.0
2158 455635.000   22.304557847  114.186233853     6.0714   5  12   4.7600   4.1843  11.6679   2.1452  -3.0905   5.4473   0.00    0.0
2158 455636.000   22.304398210  114.186136250   -21.6247   5  13   4.0040   4.1355  11.2198   1.7217  -3.4047   4.6279   0.00    0.0
2158 455637.000   22.304501935  114.186097350   -12.1283   5  13   4.0039   4.1353  11.2225   1.7215  -3.4045   4.6291   0.00    0.0
2158 455638.000   22.304628693  114.186066568    -0.3917   5  11   6.9873   5.8736  14.3843   5.0684   5.0087   8.5257   0.00    0.0
2158 455639.000   22.304685401  114.186047030     1.1156   5  11   6.9854   5.8727  14.3868   5.0668   5.0081   8.5253   0.00    0.0
2158 455640.000   22.304727751  114.186013847     2.5467   5  11   6.9835   5.8719  14.3893   5.0652   5.0076   8.5249   0.00    0.0
2158 455641.000   22.304761318  114.185972154     3.3690   5  11   6.9816   5.8710  14.3917   5.0635   5.0070   8.5246   0.00    0.0
2158 455642.000   22.304859516  114.185989630    19.8244   5  13   4.6383   3.3352  11.0607   1.3792   0.1454   5.8158   0.00    0.0
2158 455643.000   22.304806008  114.185915987     1.2042   5  12   6.1764   4.1943  14.3913   3.5038   4.8412   8.4483   0.00    0.0
2158 455644.000   22.304888312  114.185946780    12.9434   5  13   4.6386   3.3351  11.0659   1.3806   0.1906   5.8183   0.00    0.0
2158 455645.000   22.304900190  114.185957115    10.3951   5  13   4.6388   3.3351  11.0684   1.3813   0.2094   5.8196   0.00    0.0
2158 455646.000   22.304928489  114.185980111    16.2997   5  13   4.6389   3.3350  11.0710   1.3820   0.2267   5.8209   0.00    0.0
2158 455647.000   22.304959556  114.185997926    19.1204   5  13   4.6391   3.3350  11.0736   1.3827   0.2428   5.8221   0.00    0.0
2158 455648.000   22.304981123  114.186024843    22.7081   5  13   4.6393   3.3349  11.0761   1.3834   0.2578   5.8234   0.00    0.0
2158 455649.000   22.305009316  114.186055074    29.0288   5  13   4.6394   3.3349  11.0787   1.3841   0.2720   5.8247   0.00    0.0
2158 455650.000   22.305006897  114.186101625    29.2937   5  13   4.6396   3.3348  11.0812   1.3848   0.2855   5.8259   0.00    0.0
2158 455651.000   22.305035271  114.186125551    29.7623   5  13   4.6397   3.3348  11.0838   1.3855   0.2984   5.8272   0.00    0.0
2158 455652.000   22.305084937  114.186168596    29.0030   5  13   4.6399   3.3347  11.0864   1.3862   0.3108   5.8285   0.00    0.0
2158 455653.000   22.305144231  114.186220263    37.8334   5  13   4.6400   3.3347  11.0889   1.3869   0.3226   5.8297   0.00    0.0
2158 455654.000   22.305188674  114.186267919    38.5184   5  13   4.6402   3.3346  11.0915   1.3876   0.3341   5.8310   0.00    0.0
2158 455655.000   22.305299911  114.186347473    54.5016   5  13   4.6403   3.3346  11.0941   1.3883   0.3451   5.8322   0.00    0.0
2158 455656.000   22.305358045  114.186380925    60.4030   5  13   4.6404   3.3345  11.0966   1.3889   0.3558   5.8335   0.00    0.0
2158 455657.000   22.305352989  114.186374383    54.4639   5  13   4.6406   3.3345  11.0992   1.3896   0.3664   5.8347   0.00    0.0
2158 455658.000   22.305352182  114.186387443    51.3136   5  13   4.6407   3.3344  11.1018   1.3903   0.3766   5.8360   0.00    0.0
2158 455659.000   22.305362934  114.186448469    52.5932   5  12   4.6579   3.5262  11.2546   1.2163   1.5007   5.7746   0.00    0.0
2158 455660.000   22.305424262  114.186417517    55.2669   5  12   4.6580   3.5262  11.2572   1.2170   1.5033   5.7758   0.00    0.0
2158 455661.000   22.305433564  114.186404446    51.2597   5  13   4.6412   3.3343  11.1095   1.3924   0.4058   5.8398   0.00    0.0
2158 455662.000   22.305394915  114.186298964    61.8182   5  12   4.7597   4.1814  11.7491   2.1455  -3.0753   5.4855   0.00    0.0
2158 455663.000   22.305413205  114.186288277    61.5073   5  12   4.7597   4.1813  11.7521   2.1455  -3.0748   5.4869   0.00    0.0
2158 455664.000   22.305438492  114.186263161    72.5507   5  12   4.7597   4.1812  11.7551   2.1456  -3.0742   5.4883   0.00    0.0
2158 455665.000   22.305413339  114.186239240    63.3415   5  12   4.7597   4.1811  11.7582   2.1456  -3.0736   5.4897   0.00    0.0
2158 455666.000   22.305419804  114.186200886    62.5392   5  12   4.7597   4.1810  11.7612   2.1456  -3.0730   5.4911   0.00    0.0
2158 455667.000   22.305435968  114.186164628    66.4729   5  12   4.7597   4.1809  11.7642   2.1456  -3.0725   5.4925   0.00    0.0
2158 455668.000   22.305436178  114.186104319    68.3071   5  12   4.7596   4.1808  11.7672   2.1456  -3.0719   5.4939   0.00    0.0
2158 455669.000   22.305455483  114.186084232    67.9173   5  12   4.7596   4.1807  11.7702   2.1456  -3.0713   5.4953   0.00    0.0
2158 455670.000   22.305809401  114.186239615   138.9032   5  10   8.0305  14.9640  16.0310   9.0088  -8.3883   6.6604   0.00    0.0
2158 455671.000   22.305775062  114.186096062   134.8740   5  10   8.0292  14.9617  16.0296   9.0079  -8.3809   6.6621   0.00    0.0
2158 455672.000   22.305790102  114.186017231   133.3271   5  10   8.0278  14.9593  16.0282   9.0069  -8.3735   6.6638   0.00    0.0
2158 455673.000   22.305701825  114.185620019   161.7232   5  12   4.8494   3.6397  11.2116   1.1424  -1.4038   6.0105   0.00    0.0
2158 455674.000   22.305779484  114.185676701   159.5063   5  12   4.8492   3.6399  11.2129   1.1442  -1.3991   6.0110   0.00    0.0
2158 455675.000   22.305789198  114.185695727   161.0665   5  12   4.8489   3.6401  11.2142   1.1461  -1.3945   6.0115   0.00    0.0
2158 455676.000   22.305807108  114.185724552   158.0341   5  12   4.8486   3.6403  11.2155   1.1479  -1.3898   6.0120   0.00    0.0
2158 455677.000   22.305929873  114.185666338   143.4313   5  10   5.4404   3.7791  11.4589   0.8031   0.3134   6.1452   0.00    0.0
2158 455678.000   22.305789671  114.185738960   140.7005   5   9   6.6516   3.9939  11.4710  -2.0719  -0.7265   6.2983   0.00    0.0
2158 455679.000   22.305841099  114.185765440   140.4613   5   9   6.6511   3.9940  11.4725  -2.0700  -0.7181   6.2994   0.00    0.0
2158 455680.000   22.305682494  114.185188571    36.3773   5   9   7.6220   7.8278  17.4606   6.1044   9.5092  10.3977   0.00    0.0
2158 455681.000   22.305716582  114.185147261    26.2490   5  10   7.2663   5.8119  14.5393   5.0219   6.3031   9.2678   0.00    0.0
2158 455682.000   22.305772128  114.185196992    29.2906   5  10   7.2650   5.8131  14.5408   5.0224   6.3054   9.2677   0.00    0.0
2158 455683.000   22.306337015  114.186499779    -9.7888   5   9  31.9323  68.8881  23.9418  46.4723 -35.5769 -22.4836   0.00    0.0
2158 455684.000   22.306337102  114.186371921    -1.6299   5   9  31.9040  68.8246  23.9081  46.4297 -35.5174 -22.4413   0.00    0.0
2158 455685.000   22.306121735  114.185767098    13.9625   5  10   8.0098  14.9290  16.0102   8.9943  -8.2774   6.6859   0.00    0.0
2158 455686.000   22.306137573  114.185734312    16.9756   5  10   8.0084  14.9266  16.0089   8.9933  -8.2699   6.6875   0.00    0.0
2158 455687.000   22.306121817  114.185625576    12.6984   5  10   8.0070  14.9243  16.0075   8.9923  -8.2625   6.6892   0.00    0.0
2158 455688.000   22.306126475  114.185571841    17.8551   5  10   8.0056  14.9219  16.0061   8.9913  -8.2551   6.6909   0.00    0.0
2158 455689.000   22.306136293  114.185491067    31.8565   5   9   8.2013  15.4072  16.6211   9.3648  -7.1260   7.2667   0.00    0.0
2158 455690.000   22.306312105  114.185765482    43.8003   5  10   4.8685   7.3727  16.5217  -1.2524  -8.6631   6.3972   0.00    0.0
2158 455691.000   22.306247473  114.185515214    51.9747   5  10   4.8681   7.3709  16.5199  -1.2475  -8.6595   6.3964   0.00    0.0
2158 455692.000   22.306143914  114.185241296    56.6852   5  10   4.8678   7.3691  16.5181  -1.2427  -8.6559   6.3956   0.00    0.0
2158 455693.000   22.306230611  114.185085452    92.2798   5   9   7.4541   9.9573  26.9614  -6.2729 -14.7516  12.6965   0.00    0.0
2158 455694.000   22.306166081  114.185137135    65.6781   5  10   4.8670   7.3656  16.5145  -1.2329  -8.6488   6.3940   0.00    0.0
2158 455695.000   22.306234906  114.185011920    94.9676   5   9   7.4522   9.9501  26.9583  -6.2669 -14.7423  12.6938   0.00    0.0
2158 455696.000   22.306254630  114.184937219   107.2966   5   9   7.4512   9.9465  26.9568  -6.2638 -14.7376  12.6925   0.00    0.0
2158 455697.000   22.306232069  114.184889200   112.2179   5   9   7.4502   9.9430  26.9552  -6.2608 -14.7329  12.6911   0.00    0.0
2158 455698.000   22.306292346  114.184971784   112.6815   5   8  10.8661  15.8909  27.6923   7.6762 -11.7540  14.5357   0.00    0.0
2158 455699.000   22.306394233  114.185015733   115.4703   5   8  10.8626  15.8881  27.6906   7.6752 -11.7487  14.5334   0.00    0.0
2158 455700.000   22.306288876  114.185263667    44.3958   5  10   6.2477   5.4814  15.8498   3.3895   4.6534   8.8952   0.00    0.0
2158 455701.000   22.306245866  114.184984392    51.0085   5   9   8.1795  15.3737  16.6052   9.3458  -7.0305   7.2775   0.00    0.0
2158 455702.000   22.306280545  114.185054299    46.5184   5   9   8.1777  15.3709  16.6039   9.3442  -7.0225   7.2784   0.00    0.0
2158 455703.000   22.306318102  114.185049707    47.4179   5  10   4.8638   7.3502  16.4985  -1.1884  -8.6171   6.3866   0.00    0.0
2158 455704.000   22.306317573  114.184947450    42.3455   5  11   4.8614   7.3481  15.9738  -1.1877  -8.5960   6.4312   0.00    0.0
2158 455705.000   22.306310399  114.184845089    46.4504   5  10   7.9816  14.8817  15.9835   8.9740  -8.1283   6.7193   0.00    0.0
2158 455706.000   22.306335637  114.184880857    48.7503   5  11   4.8606   7.3446  15.9708  -1.1776  -8.5891   6.4300   0.00    0.0
2158 455707.000   22.306352634  114.184889267    45.3383   5  12   4.3673   6.8917  15.9677  -2.6038  -8.5517   6.4674   0.00    0.0
2158 455708.000   22.306337350  114.184879293    41.1151   5  12   4.3667   6.8898  15.9662  -2.6019  -8.5485   6.4666   0.00    0.0
2158 455709.000   22.306325319  114.184871002    38.3873   5  12   4.3661   6.8878  15.9648  -2.5999  -8.5453   6.4657   0.00    0.0
2158 455710.000   22.306368398  114.184851493    47.0570   5  11   6.3770   7.9378  20.1404  -5.0105 -11.0209   9.9438   0.00    0.0
2158 455711.000   22.306475207  114.184572653   109.1099   5  12   5.5572   3.6486  12.1003  -1.7475  -2.8176   6.9666   0.00    0.0
2158 455712.000   22.306488136  114.184575007   111.0047   5  12   5.5572   3.6486  12.1025  -1.7464  -2.8158   6.9677   0.00    0.0
2158 455713.000   22.306487934  114.184574843   111.7314   5  12   5.5571   3.6486  12.1047  -1.7453  -2.8140   6.9687   0.00    0.0
2158 455714.000   22.306394246  114.184609324    94.1365   5  13   4.2254   3.5692  10.8220  -0.5571  -1.9494   5.3840   0.00    0.0
2158 455715.000   22.306399774  114.184617538    92.7156   5  13   4.2250   3.5694  10.8230  -0.5547  -1.9468   5.3842   0.00    0.0
2158 455716.000   22.306525007  114.184590721   114.8474   5  12   5.5569   3.6487  12.1115  -1.7420  -2.8086   6.9720   0.00    0.0
2158 455717.000   22.306529116  114.184581941   116.5787   5  12   5.5568   3.6487  12.1137  -1.7409  -2.8068   6.9730   0.00    0.0
2158 455718.000   22.306415183  114.184889956    47.8279   5  11   6.3729   7.9167  20.1390  -4.9949 -10.9950   9.9415   0.00    0.0
2158 455719.000   22.306424118  114.184881390    52.2118   5  11   6.3724   7.9140  20.1388  -4.9930 -10.9917   9.9413   0.00    0.0
2158 455720.000   22.306431709  114.184875292    56.2919   5  11   6.3719   7.9114  20.1387  -4.9910 -10.9885   9.9410   0.00    0.0
2158 455721.000   22.306442727  114.184875554    58.6267   5  11   6.3714   7.9088  20.1385  -4.9891 -10.9852   9.9407   0.00    0.0
2158 455722.000   22.306446940  114.184876347    61.2762   5  11   6.3709   7.9061  20.1384  -4.9871 -10.9820   9.9404   0.00    0.0
2158 455723.000   22.306449190  114.184869206    64.1011   5  11   6.3704   7.9035  20.1382  -4.9852 -10.9787   9.9401   0.00    0.0
2158 455724.000   22.306457284  114.184813724    70.1790   5  10   6.4345   8.7452  20.4728  -4.6284 -11.5881   9.7697   0.00    0.0
2158 455725.000   22.306320174  114.184969214    23.7484   5  12   4.3570   6.8565  15.9417  -2.5687  -8.4941   6.4521   0.00    0.0
2158 455726.000   22.306335158  114.184936238    26.8614   5  12   4.3565   6.8546  15.9403  -2.5667  -8.4909   6.4513   0.00    0.0
2158 455727.000   22.306377504  114.184924823    20.4923   5  11   4.8527   7.3093  15.9401  -1.0670  -8.5177   6.4171   0.00    0.0
2158 455728.000   22.306378445  114.185015727    -6.4923   5  13   3.9971   4.1217  11.4709   1.7020  -3.3827   4.7391   0.00    0.0
2158 455729.000   22.306459725  114.184929168     9.3603   5  11   4.8519   7.3060  15.9372  -1.0559  -8.5109   6.4158   0.00    0.0
2158 455730.000   22.306491252  114.184871774    11.8612   5  11   4.8515   7.3043  15.9358  -1.0503  -8.5075   6.4152   0.00    0.0
2158 455731.000   22.306508928  114.184738375    32.5857   5  12   4.8331   3.6532  11.2866   1.2454  -1.0942   6.0371   0.00    0.0
2158 455732.000   22.306524553  114.184678812    30.2288   5  13   4.2186   3.5712  10.8389  -0.5127  -1.9011   5.3871   0.00    0.0
2158 455733.000   22.306576921  114.184670259    27.1971   5  12   4.8325   3.6537  11.2892   1.2488  -1.0817   6.0380   0.00    0.0
2158 455734.000   22.306550071  114.184722087     0.4454   5  12   4.3519   6.8390  15.9289  -2.5510  -8.4654   6.4444   0.00    0.0
2158 455735.000   22.306577863  114.184714385    -5.0389   5  12   4.3513   6.8371  15.9275  -2.5490  -8.4622   6.4435   0.00    0.0
2158 455736.000   22.306592387  114.184699052    -5.1420   5  12   4.3507   6.8352  15.9261  -2.5471  -8.4591   6.4427   0.00    0.0
2158 455737.000   22.306612123  114.184667376    -1.8659   5  12   4.3501   6.8332  15.9247  -2.5451  -8.4559   6.4418   0.00    0.0
2158 455738.000   22.306644904  114.184599702    17.7418   5  13   4.2163   3.5718  10.8444  -0.4969  -1.8846   5.3880   0.00    0.0
2158 455739.000   22.306642682  114.184576123    23.3265   5  14   4.2090   3.1677  10.4462  -0.8014   1.1273   5.4530   0.00    0.0
2158 455740.000   22.306637097  114.184622673    11.3933   5  14   4.2087   3.1678  10.4471  -0.7996   1.1320   5.4531   0.00    0.0
2158 455741.000   22.306641318  114.184667753     7.8444   5  14   4.6497   2.8427  10.7283   1.5039   2.6505   5.9077   0.00    0.0
2158 455742.000   22.306590472  114.184643396    -7.8971   5  13   6.0967   3.8945  14.0265   3.5721   5.5747   8.3985   0.00    0.0
2158 455743.000   22.306566777  114.184627391   -14.5653   5  13   6.0959   3.8948  14.0282   3.5721   5.5757   8.3986   0.00    0.0
2158 455744.000   22.306636918  114.184680581     5.9145   5  14   4.6499   2.8434  10.7350   1.5062   2.6554   5.9110   0.00    0.0
2158 455745.000   22.306641475  114.184688286     7.9738   5  14   4.6500   2.8436  10.7372   1.5070   2.6570   5.9121   0.00    0.0
2158 455746.000   22.306648857  114.184699134     9.5158   5  14   4.6501   2.8439  10.7394   1.5078   2.6586   5.9132   0.00    0.0
2158 455747.000   22.306663233  114.184705498    13.0271   5  14   4.6502   2.8441  10.7416   1.5085   2.6603   5.9143   0.00    0.0
2158 455748.000   22.306656411  114.184703965    12.0412   5  14   4.6503   2.8443  10.7438   1.5093   2.6619   5.9153   0.00    0.0
2158 455749.000   22.306652756  114.184703782    12.1713   5  14   4.6504   2.8445  10.7461   1.5101   2.6635   5.9164   0.00    0.0
2158 455750.000   22.306645438  114.184702432    11.2387   5  14   4.6504   2.8448  10.7483   1.5109   2.6652   5.9175   0.00    0.0
2158 455751.000   22.306651240  114.184694393    11.2865   5  14   4.6505   2.8450  10.7505   1.5116   2.6668   5.9186   0.00    0.0
2158 455752.000   22.306646331  114.184674804     8.1749   5  14   4.6506   2.8452  10.7527   1.5124   2.6684   5.9197   0.00    0.0
2158 455753.000   22.306589007  114.184617091    -7.4465   5  13   6.0877   3.8981  14.0452   3.5716   5.5854   8.3988   0.00    0.0
2158 455754.000   22.306632397  114.184643698     3.2484   5  14   4.6508   2.8457  10.7572   1.5139   2.6717   5.9218   0.00    0.0
2158 455755.000   22.306629594  114.184635524     1.6448   5  14   4.6508   2.8459  10.7594   1.5147   2.6733   5.9229   0.00    0.0
2158 455756.000   22.306629981  114.184631352     1.9051   5  14   4.6509   2.8461  10.7616   1.5155   2.6750   5.9240   0.00    0.0
2158 455757.000   22.306623970  114.184631811     1.4101   5  14   4.6510   2.8463  10.7638   1.5163   2.6766   5.9250   0.00    0.0
2158 455758.000   22.306619963  114.184633016     2.1227   5  14   4.6511   2.8466  10.7660   1.5170   2.6782   5.9261   0.00    0.0
2158 455759.000   22.306615966  114.184630253     2.3669   5  14   4.6511   2.8468  10.7682   1.5178   2.6799   5.9272   0.00    0.0
2158 455760.000   22.306610821  114.184619446     1.7293   5  14   4.6512   2.8470  10.7704   1.5186   2.6815   5.9282   0.00    0.0
2158 455761.000   22.306602385  114.184612741     1.5835   5  14   4.6513   2.8472  10.7726   1.5193   2.6831   5.9293   0.00    0.0
2158 455762.000   22.306604230  114.184615710     3.3278   5  14   4.6514   2.8475  10.7749   1.5201   2.6847   5.9304   0.00    0.0
2158 455763.000   22.306605052  114.184611354     4.5978   5  14   4.6514   2.8477  10.7771   1.5209   2.6864   5.9314   0.00    0.0
2158 455764.000   22.306605261  114.184607287     4.3679   5  14   4.6515   2.8479  10.7793   1.5216   2.6880   5.9325   0.00    0.0
2158 455765.000   22.306602827  114.184599467     2.9392   5  14   4.6516   2.8482  10.7815   1.5224   2.6896   5.9336   0.00    0.0
2158 455766.000   22.306600762  114.184596241     2.4924   5  14   4.6516   2.8484  10.7837   1.5232   2.6913   5.9346   0.00    0.0
2158 455767.000   22.306616619  114.184610468     7.6029   5  13   6.0760   3.9027  14.0682   3.5707   5.5988   8.3987   0.00    0.0
2158 455768.000   22.306588277  114.184596030     1.3953   5  14   4.6518   2.8488  10.7881   1.5247   2.6945   5.9367   0.00    0.0
2158 455769.000   22.306581081  114.184594637     0.8949   5  14   4.6519   2.8491  10.7903   1.5255   2.6961   5.9378   0.00    0.0
2158 455770.000   22.306621213  114.184623496    10.8176   5  13   6.0734   3.9037  14.0730   3.5705   5.6016   8.3986   0.00    0.0
2158 455771.000   22.306620403  114.184628014    10.3144   5  13   6.0726   3.9040  14.0746   3.5704   5.6025   8.3985   0.00    0.0
2158 455772.000   22.306628445  114.184647252    14.5072   5  13   6.0717   3.9043  14.0762   3.5703   5.6034   8.3985   0.00    0.0
2158 455773.000   22.306630466  114.184660258    16.4486   5  13   6.0709   3.9046  14.0778   3.5702   5.6044   8.3984   0.00    0.0
2158 455774.000   22.306633815  114.184674038    19.6194   5  13   6.0700   3.9049  14.0794   3.5702   5.6053   8.3984   0.00    0.0
2158 455775.000   22.306543351  114.184610386    -2.9173   5  14   4.6522   2.8504  10.8035   1.5300   2.7059   5.9441   0.00    0.0
2158 455776.000   22.306536190  114.184608980    -4.5795   5  14   4.6523   2.8507  10.8057   1.5308   2.7075   5.9452   0.00    0.0
2158 455777.000   22.306535834  114.184607104    -5.0516   5  14   4.6524   2.8509  10.8079   1.5316   2.7091   5.9462   0.00    0.0
2158 455778.000   22.306569015  114.184626866     1.8616   5  14   4.6524   2.8511  10.8101   1.5323   2.7108   5.9472   0.00    0.0
2158 455779.000   22.306596560  114.184636933     6.0643   5  14   4.6525   2.8514  10.8122   1.5331   2.7124   5.9483   0.00    0.0
2158 455780.000   22.306618447  114.184641597     8.4950   5  14   4.6525   2.8516  10.8144   1.5338   2.7140   5.9493   0.00    0.0
2158 455781.000   22.306638647  114.184653509    12.2856   5  14   4.6526   2.8518  10.8166   1.5346   2.7156   5.9504   0.00    0.0
2158 455782.000   22.306645075  114.184656918    12.8299   5  14   4.6526   2.8521  10.8188   1.5354   2.7172   5.9514   0.00    0.0
2158 455783.000   22.306654482  114.184660590    14.4880   5  14   4.6527   2.8523  10.8210   1.5361   2.7189   5.9524   0.00    0.0
2158 455784.000   22.306652952  114.184666246    15.0549   5  14   4.6528   2.8525  10.8232   1.5369   2.7205   5.9535   0.00    0.0
2158 455785.000   22.306659441  114.184668671    16.2367   5  14   4.6528   2.8527  10.8254   1.5376   2.7221   5.9545   0.00    0.0
2158 455786.000   22.306662955  114.184666986    17.0656   5  14   4.6529   2.8530  10.8276   1.5384   2.7237   5.9555   0.00    0.0
2158 455787.000   22.306590159  114.184610234    -1.7545   5  13   6.0587   3.9091  14.0998   3.5691   5.6173   8.3975   0.00    0.0
