% program   : RTKPOST demo5 b34k
% inp file  : D:\0POLYU¿Î³Ì\AAE6102\25.3.20_Lab\AAE6102_Laboratory-main\GNSS Data\UrbanNav - Medium\20210521.medium-urban.whampoa.ublox.f9p.obs
% inp file  : D:\0POLYU¿Î³Ì\AAE6102\25.3.20_Lab\AAE6102_Laboratory-main\GNSS Data\UrbanNav - Medium\hksc141g.21*
% obs start : 2021/05/21 06:29:02.0 GPST (week2158 455342.0s)
% obs end   : 2021/05/21 06:54:39.0 GPST (week2158 456879.0s)
% pos mode  : Single
% elev mask : 15.0 deg
% ionos opt : Broadcast
% tropo opt : Saastamoinen
% ephemeris : Broadcast
% navi sys  : GPS GLONASS Galileo
%
% (lat/lon/height=WGS84/ellipsoidal,Q=1:fix,2:float,3:sbas,4:dgps,5:single,6:ppp,ns=# of satellites)
%  GPST          latitude(deg) longitude(deg)  height(m)   Q  ns   sdn(m)   sde(m)   sdu(m)  sdne(m)  sdeu(m)  sdun(m) age(s)  ratio
2158 455342.000   22.301566002  114.190346201     4.6075   5  17   2.3205   2.6451   5.9309   0.6978   1.3248  -0.9440   0.00    0.0
2158 455343.000   22.301570604  114.190344190     5.8390   5  17   2.3204   2.6452   5.9308   0.6977   1.3256  -0.9436   0.00    0.0
2158 455344.000   22.301580247  114.190338941     7.8440   5  17   2.3203   2.6453   5.9307   0.6976   1.3264  -0.9432   0.00    0.0
2158 455345.000   22.301587858  114.190333737     8.9431   5  17   2.3202   2.6454   5.9306   0.6974   1.3272  -0.9428   0.00    0.0
2158 455346.000   22.301591876  114.190333427     9.6977   5  17   2.3201   2.6456   5.9305   0.6973   1.3280  -0.9424   0.00    0.0
2158 455347.000   22.301592367  114.190339886     9.7115   5  17   2.3200   2.6457   5.9304   0.6972   1.3288  -0.9420   0.00    0.0
2158 455348.000   22.301590781  114.190334761     9.2258   5  17   2.3199   2.6458   5.9302   0.6971   1.3296  -0.9416   0.00    0.0
2158 455349.000   22.301589535  114.190324456     8.9960   5  17   2.3198   2.6459   5.9301   0.6969   1.3304  -0.9412   0.00    0.0
2158 455350.000   22.301587242  114.190315063     8.5653   5  17   2.3197   2.6460   5.9300   0.6968   1.3312  -0.9408   0.00    0.0
2158 455351.000   22.301590399  114.190299612     8.5997   5  17   2.3196   2.6461   5.9299   0.6967   1.3320  -0.9404   0.00    0.0
2158 455352.000   22.301598869  114.190286544     8.6094   5  17   2.3195   2.6463   5.9298   0.6966   1.3328  -0.9400   0.00    0.0
2158 455353.000   22.301609698  114.190281322     8.2112   5  17   2.3194   2.6464   5.9297   0.6964   1.3336  -0.9396   0.00    0.0
2158 455354.000   22.301621314  114.190272430     7.8558   5  17   2.3193   2.6465   5.9296   0.6963   1.3344  -0.9392   0.00    0.0
2158 455355.000   22.301634470  114.190270683     8.6375   5  18   2.2952   2.4915   5.3978   0.4330  -0.6392  -1.3032   0.00    0.0
2158 455356.000   22.301650665  114.190263734     8.6127   5  18   2.2951   2.4915   5.3977   0.4328  -0.6380  -1.3028   0.00    0.0
2158 455357.000   22.301666064  114.190251720     7.5114   5  18   2.2950   2.4915   5.3976   0.4325  -0.6368  -1.3025   0.00    0.0
2158 455358.000   22.301695304  114.190237946     8.1670   5  18   2.2949   2.4916   5.3975   0.4323  -0.6357  -1.3022   0.00    0.0
2158 455359.000   22.301721780  114.190226077     6.5433   5  18   2.2948   2.4916   5.3974   0.4320  -0.6345  -1.3018   0.00    0.0
2158 455360.000   22.301762317  114.190203060     7.6887   5  18   2.2947   2.4916   5.3972   0.4318  -0.6333  -1.3015   0.00    0.0
2158 455361.000   22.301806969  114.190187200     8.3576   5  18   2.2946   2.4916   5.3971   0.4315  -0.6321  -1.3012   0.00    0.0
2158 455362.000   22.301854391  114.190167442     8.9638   5  18   2.2945   2.4917   5.3970   0.4313  -0.6310  -1.3008   0.00    0.0
2158 455363.000   22.301908332  114.190145302     9.3354   5  18   2.2944   2.4917   5.3969   0.4310  -0.6298  -1.3005   0.00    0.0
2158 455364.000   22.301963431  114.190120738     9.7705   5  18   2.2943   2.4917   5.3968   0.4308  -0.6286  -1.3002   0.00    0.0
2158 455365.000   22.302009506  114.190081912     6.1327   5  17   2.3182   2.6478   5.9285   0.6949   1.3431  -0.9349   0.00    0.0
2158 455366.000   22.302059538  114.190053910     6.1659   5  16   2.5145   2.8257   6.0731   1.2017   0.7112  -1.4688   0.00    0.0
2158 455367.000   22.302110380  114.190028759     6.3696   5  16   2.5144   2.8259   6.0730   1.2016   0.7127  -1.4685   0.00    0.0
2158 455368.000   22.302154294  114.190000081     6.9407   5  16   2.5142   2.8260   6.0729   1.2015   0.7143  -1.4681   0.00    0.0
2158 455369.000   22.302198980  114.189969345     8.0164   5  16   2.5141   2.8261   6.0728   1.2014   0.7158  -1.4678   0.00    0.0
2158 455370.000   22.302245831  114.189942117     8.8163   5  16   2.5139   2.8263   6.0726   1.2013   0.7173  -1.4674   0.00    0.0
2158 455371.000   22.302263501  114.189902082     6.0962   5  15   2.8293   3.7682   6.4310   2.1630  -2.1816  -2.2138   0.00    0.0
2158 455372.000   22.302274056  114.189860923     5.9005   5  15   2.8292   3.7682   6.4308   2.1629  -2.1810  -2.2136   0.00    0.0
2158 455373.000   22.302292482  114.189816802     5.9041   5  16   2.8026   3.5355   6.1590   2.0433  -2.6767  -2.3690   0.00    0.0
2158 455374.000   22.302304338  114.189779432     4.6580   5  15   3.0247   3.5926   6.2147   2.2139  -2.7738  -2.5607   0.00    0.0
2158 455375.000   22.302279301  114.189717179     6.0645   5  15   2.8288   3.7680   6.4305   2.1625  -2.1791  -2.2128   0.00    0.0
2158 455376.000   22.302263624  114.189684841     6.3217   5  15   2.8286   3.7680   6.4303   2.1624  -2.1785  -2.2126   0.00    0.0
2158 455377.000   22.302246320  114.189646515     7.6498   5  15   2.8285   3.7679   6.4302   2.1622  -2.1779  -2.2123   0.00    0.0
2158 455378.000   22.302227065  114.189622862     7.9470   5  15   2.8284   3.7679   6.4301   2.1621  -2.1773  -2.2121   0.00    0.0
2158 455379.000   22.302209380  114.189596433     8.0741   5  15   2.8282   3.7678   6.4300   2.1620  -2.1767  -2.2119   0.00    0.0
2158 455380.000   22.302183390  114.189556789     8.4592   5  15   2.8281   3.7678   6.4298   2.1619  -2.1760  -2.2116   0.00    0.0
2158 455381.000   22.302184215  114.189568820     5.9461   5  16   2.5124   2.8277   6.0712   1.2002   0.7340  -1.4635   0.00    0.0
2158 455382.000   22.302158876  114.189529441     8.7176   5  16   2.5122   2.8278   6.0711   1.2001   0.7355  -1.4631   0.00    0.0
2158 455383.000   22.302131515  114.189485222    10.4682   5  16   2.5121   2.8280   6.0709   1.2000   0.7370  -1.4628   0.00    0.0
2158 455384.000   22.302104885  114.189445530    10.6421   5  16   2.5120   2.8281   6.0708   1.1999   0.7385  -1.4624   0.00    0.0
2158 455385.000   22.302092311  114.189415316    11.5647   5  16   2.5118   2.8282   6.0707   1.1999   0.7400  -1.4621   0.00    0.0
2158 455386.000   22.302067348  114.189381478    10.2902   5  16   2.5117   2.8284   6.0705   1.1998   0.7415  -1.4617   0.00    0.0
2158 455387.000   22.302046776  114.189340180     9.6075   5  17   2.3159   2.6503   5.9263   0.6921   1.3604  -0.9262   0.00    0.0
2158 455388.000   22.302025382  114.189289146     6.0699   5  17   2.3158   2.6505   5.9263   0.6920   1.3612  -0.9258   0.00    0.0
2158 455389.000   22.302020923  114.189236064     5.4403   5  17   2.3157   2.6506   5.9262   0.6919   1.3620  -0.9254   0.00    0.0
2158 455390.000   22.302021175  114.189173800     5.5152   5  17   2.3156   2.6507   5.9261   0.6917   1.3628  -0.9250   0.00    0.0
2158 455391.000   22.302062839  114.189134894    10.2971   5  16   2.7766   2.7611   7.1593   1.2893   2.2279   2.3023   0.00    0.0
2158 455392.000   22.302087654  114.189060818     4.8708   5  15   2.7766   2.9392   7.5467   1.3008   2.7145   2.3180   0.00    0.0
2158 455393.000   22.302112317  114.188996215    -1.2970   5  15   2.7765   2.9394   7.5472   1.3008   2.7153   2.3184   0.00    0.0
2158 455394.000   22.302143584  114.188964849     3.4250   5  16   2.7762   2.7616   7.1607   1.2894   2.2303   2.3037   0.00    0.0
2158 455395.000   22.302178025  114.188924965     3.9873   5  15   2.9573   2.7656   7.1649   1.3452   2.2237   2.2526   0.00    0.0
2158 455396.000   22.302208006  114.188896998     5.2342   5  16   2.9140   2.6800   7.0969   1.2105   2.3715   2.3614   0.00    0.0
2158 455397.000   22.302198141  114.188852854    -0.1782   5  16   3.8801   2.6808   9.2631   0.8215   2.1094   4.7375   0.00    0.0
2158 455398.000   22.302202009  114.188826804     0.8999   5  16   3.8802   2.6809   9.2649   0.8224   2.1108   4.7385   0.00    0.0
2158 455399.000   22.302206129  114.188806944     0.8217   5  16   3.8804   2.6811   9.2667   0.8233   2.1122   4.7396   0.00    0.0
2158 455400.000   22.302211381  114.188790287     1.0936   5  16   3.8806   2.6812   9.2685   0.8242   2.1136   4.7407   0.00    0.0
2158 455401.000   22.302198969  114.188763548     0.3606   5  15   3.9158   2.7718   9.3416   1.0236   1.9143   4.6778   0.00    0.0
2158 455402.000   22.302197775  114.188750189    -0.2958   5  16   3.8810   2.6815   9.2722   0.8261   2.1165   4.7428   0.00    0.0
2158 455403.000   22.302188301  114.188744129    -0.9341   5  16   3.8812   2.6816   9.2740   0.8270   2.1179   4.7439   0.00    0.0
2158 455404.000   22.302172191  114.188740227    -1.7406   5  16   3.8814   2.6818   9.2758   0.8279   2.1193   4.7449   0.00    0.0
2158 455405.000   22.302169762  114.188739292    -1.4657   5  16   3.8816   2.6819   9.2776   0.8288   2.1207   4.7460   0.00    0.0
2158 455406.000   22.302177434  114.188740295     0.0433   5  16   3.8818   2.6821   9.2794   0.8297   2.1221   4.7470   0.00    0.0
2158 455407.000   22.302295900  114.188726447    20.1930   5  18   2.5402   2.5235   5.5455  -1.0260  -0.9372   1.0846   0.00    0.0
2158 455408.000   22.302294211  114.188732247    20.8945   5  18   2.5401   2.5235   5.5455  -1.0259  -0.9365   1.0850   0.00    0.0
2158 455409.000   22.302324279  114.188732319    28.7720   5  18   2.5400   2.5235   5.5456  -1.0259  -0.9358   1.0854   0.00    0.0
2158 455410.000   22.302318167  114.188738643    28.8158   5  18   2.5399   2.5235   5.5456  -1.0258  -0.9350   1.0858   0.00    0.0
2158 455411.000   22.302327986  114.188740117    32.0915   5  18   2.5398   2.5235   5.5457  -1.0258  -0.9343   1.0862   0.00    0.0
2158 455412.000   22.302203036  114.188749938     6.8273   5  17   3.1925   2.5266   6.6315  -1.1389  -1.1541   2.8662   0.00    0.0
2158 455413.000   22.302206882  114.188751691     8.3135   5  17   3.1925   2.5266   6.6322  -1.1388  -1.1535   2.8668   0.00    0.0
2158 455414.000   22.302212782  114.188754795    10.3778   5  17   3.1925   2.5266   6.6329  -1.1387  -1.1529   2.8674   0.00    0.0
2158 455415.000   22.302222254  114.188759736    13.6666   5  17   3.1925   2.5266   6.6336  -1.1386  -1.1523   2.8681   0.00    0.0
2158 455416.000   22.302225842  114.188760679    14.5009   5  17   3.1925   2.5266   6.6343  -1.1385  -1.1517   2.8687   0.00    0.0
2158 455417.000   22.302232896  114.188763462    16.6672   5  17   3.1925   2.5266   6.6349  -1.1384  -1.1511   2.8693   0.00    0.0
2158 455418.000   22.302242830  114.188765571    19.1890   5  17   3.1924   2.5266   6.6356  -1.1383  -1.1505   2.8699   0.00    0.0
2158 455419.000   22.302247784  114.188768829    20.4964   5  17   3.1924   2.5266   6.6363  -1.1383  -1.1499   2.8705   0.00    0.0
2158 455420.000   22.302253505  114.188769571    22.1875   5  17   3.1924   2.5266   6.6370  -1.1382  -1.1493   2.8711   0.00    0.0
2158 455421.000   22.302264327  114.188775245    25.6402   5  17   3.1924   2.5266   6.6377  -1.1381  -1.1487   2.8718   0.00    0.0
2158 455422.000   22.302268480  114.188777220    26.8862   5  17   3.1924   2.5266   6.6384  -1.1380  -1.1481   2.8724   0.00    0.0
2158 455423.000   22.302277236  114.188781150    29.7850   5  17   3.1923   2.5266   6.6390  -1.1379  -1.1475   2.8730   0.00    0.0
2158 455424.000   22.302282052  114.188783056    31.6172   5  17   3.1923   2.5266   6.6397  -1.1378  -1.1469   2.8736   0.00    0.0
2158 455425.000   22.302288106  114.188784528    33.1355   5  17   3.1923   2.5266   6.6404  -1.1377  -1.1463   2.8742   0.00    0.0
2158 455426.000   22.302291345  114.188783819    34.4707   5  17   3.1923   2.5266   6.6411  -1.1376  -1.1457   2.8748   0.00    0.0
2158 455427.000   22.302295266  114.188784765    36.3397   5  17   3.1923   2.5266   6.6418  -1.1376  -1.1451   2.8754   0.00    0.0
2158 455428.000   22.302296518  114.188785129    37.1731   5  17   3.1923   2.5266   6.6424  -1.1375  -1.1445   2.8761   0.00    0.0
2158 455429.000   22.302293271  114.188782347    36.5701   5  17   3.1922   2.5266   6.6431  -1.1374  -1.1439   2.8767   0.00    0.0
2158 455430.000   22.302494872  114.188765791    78.8732   5  18   2.5380   2.5234   5.5464  -1.0247  -0.9204   1.0940   0.00    0.0
2158 455431.000   22.302502028  114.188763201    80.7602   5  18   2.5379   2.5234   5.5464  -1.0246  -0.9196   1.0944   0.00    0.0
2158 455432.000   22.302499158  114.188760684    80.0014   5  18   2.5378   2.5234   5.5465  -1.0245  -0.9189   1.0948   0.00    0.0
2158 455433.000   22.302503525  114.188758253    80.8987   5  18   2.5377   2.5234   5.5465  -1.0245  -0.9181   1.0952   0.00    0.0
2158 455434.000   22.302508909  114.188755266    81.4944   5  18   2.5376   2.5234   5.5465  -1.0244  -0.9174   1.0956   0.00    0.0
2158 455435.000   22.302507053  114.188757253    81.6758   5  18   2.5375   2.5234   5.5466  -1.0244  -0.9167   1.0960   0.00    0.0
2158 455436.000   22.302511377  114.188755362    81.8548   5  18   2.5374   2.5234   5.5466  -1.0243  -0.9159   1.0964   0.00    0.0
2158 455437.000   22.302511845  114.188755400    82.0413   5  18   2.5373   2.5234   5.5466  -1.0243  -0.9152   1.0968   0.00    0.0
2158 455438.000   22.302274537  114.188773230    32.2589   5  17   3.1921   2.5265   6.6493  -1.1366  -1.1384   2.8822   0.00    0.0
2158 455439.000   22.302270976  114.188772141    31.0967   5  17   3.1920   2.5265   6.6499  -1.1365  -1.1378   2.8828   0.00    0.0
2158 455440.000   22.302269978  114.188769557    30.2807   5  17   3.1920   2.5265   6.6506  -1.1364  -1.1371   2.8834   0.00    0.0
2158 455441.000   22.302268503  114.188764933    29.3488   5  17   3.1920   2.5265   6.6513  -1.1363  -1.1365   2.8840   0.00    0.0
2158 455442.000   22.302270796  114.188767100    30.7447   5  17   3.1920   2.5265   6.6520  -1.1362  -1.1359   2.8846   0.00    0.0
2158 455443.000   22.302262568  114.188763950    30.6695   5  17   3.1920   2.5265   6.6527  -1.1361  -1.1353   2.8852   0.00    0.0
2158 455444.000   22.302244517  114.188758657    32.2647   5  17   3.1919   2.5265   6.6534  -1.1360  -1.1347   2.8858   0.00    0.0
2158 455445.000   22.302202502  114.188742583    32.2052   5  17   3.1919   2.5265   6.6540  -1.1359  -1.1340   2.8865   0.00    0.0
2158 455446.000   22.302152527  114.188711091    30.5824   5  17   3.1919   2.5265   6.6547  -1.1358  -1.1334   2.8871   0.00    0.0
2158 455447.000   22.302089067  114.188664862    27.4646   5  17   3.1919   2.5265   6.6554  -1.1358  -1.1328   2.8877   0.00    0.0
2158 455448.000   22.302019589  114.188622383    25.7019   5  17   3.1919   2.5265   6.6561  -1.1357  -1.1322   2.8883   0.00    0.0
2158 455449.000   22.301974802  114.188581169    30.2875   5  17   3.1918   2.5265   6.6567  -1.1356  -1.1315   2.8889   0.00    0.0
2158 455450.000   22.301926150  114.188528759    32.9459   5  17   3.1918   2.5265   6.6574  -1.1355  -1.1309   2.8895   0.00    0.0
2158 455451.000   22.301869547  114.188467319    31.5307   5  17   3.1918   2.5265   6.6581  -1.1354  -1.1303   2.8901   0.00    0.0
2158 455452.000   22.301816343  114.188407791    30.7800   5  17   3.1918   2.5265   6.6588  -1.1353  -1.1296   2.8907   0.00    0.0
2158 455453.000   22.301746079  114.188351383    26.0750   5  17   3.1918   2.5265   6.6595  -1.1352  -1.1290   2.8913   0.00    0.0
2158 455454.000   22.301908324  114.188269336    69.9195   5  18   2.5356   2.5234   5.5473  -1.0232  -0.9023   1.1036   0.00    0.0
2158 455455.000   22.301820186  114.188245837    60.6468   5  17   2.5373   2.7161   5.5482  -0.9751  -0.9533   1.0999   0.00    0.0
2158 455456.000   22.301793497  114.188127042    60.7583   5  16   2.6603   3.0601   5.6181  -1.4418  -1.4673   1.3847   0.00    0.0
2158 455457.000   22.301443281  114.188102646     8.8133   5  17   3.2981   2.8131   6.1595  -1.8878  -2.2647   2.7407   0.00    0.0
2158 455458.000   22.301479621  114.187984487     4.1424   5  16   3.6377   2.9658   6.1627  -2.2373  -2.2246   2.6873   0.00    0.0
2158 455459.000   22.301567255  114.187883416    27.2683   5  19   2.3949   2.3256   5.0780  -0.7891  -0.5247  -1.4280   0.00    0.0
2158 455460.000   22.301531432  114.187841406    24.8737   5  19   2.3948   2.3256   5.0779  -0.7891  -0.5237  -1.4276   0.00    0.0
2158 455461.000   22.301397390  114.187832693     8.8270   5  17   2.5872   2.6261   5.6531  -0.6456  -1.6111   0.9850   0.00    0.0
2158 455462.000   22.301409124  114.187767418     5.6758   5  16   2.8753   2.6179   5.5303  -1.3750  -0.8985   0.8962   0.00    0.0
2158 455463.000   22.301330764  114.187817131    12.2348   5  18   2.5618   2.4638   5.4420  -0.8627  -1.0956   1.2346   0.00    0.0
2158 455464.000   22.301292379  114.187832156    14.3936   5  18   2.5616   2.4638   5.4421  -0.8626  -1.0948   1.2350   0.00    0.0
2158 455465.000   22.301288634  114.187796925    16.8543   5  18   2.5615   2.4638   5.4422  -0.8625  -1.0940   1.2354   0.00    0.0
2158 455466.000   22.301367632  114.187787821    35.5217   5  19   2.2728   2.4632   5.0104  -0.8244  -1.0391  -0.9914   0.00    0.0
2158 455467.000   22.301344758  114.187803130    38.0624   5  18   2.3780   2.4674   5.5436  -0.8838  -0.8566  -1.6256   0.00    0.0
2158 455468.000   22.301337185  114.187804414    35.8045   5  18   2.3779   2.4674   5.5434  -0.8839  -0.8554  -1.6255   0.00    0.0
2158 455469.000   22.301359569  114.187767048    33.2679   5  19   2.3275   2.2916   5.5302  -0.5797  -0.6192  -1.6811   0.00    0.0
2158 455470.000   22.301405718  114.187735505    36.9259   5  18   2.7343   2.4898   5.5775  -1.3164  -1.0433  -1.3356   0.00    0.0
2158 455471.000   22.301418946  114.187729402    35.1399   5  18   2.7342   2.4897   5.5774  -1.3164  -1.0427  -1.3351   0.00    0.0
2158 455472.000   22.301420724  114.187728861    35.9334   5  18   2.7342   2.4897   5.5772  -1.3164  -1.0422  -1.3346   0.00    0.0
2158 455473.000   22.301413482  114.187730135    36.5982   5  18   2.7341   2.4897   5.5771  -1.3164  -1.0417  -1.3341   0.00    0.0
2158 455474.000   22.301478655  114.187713400    34.6246   5  17   2.9530   2.8691   5.2913  -1.8494  -1.6078   0.7362   0.00    0.0
2158 455475.000   22.301481878  114.187707369    35.0206   5  17   2.9528   2.8690   5.2912  -1.8491  -1.6073   0.7367   0.00    0.0
2158 455476.000   22.301441984  114.187696516    16.1531   5  15   3.8366   3.0954   6.1899  -2.4671  -2.3199   2.8091   0.00    0.0
2158 455477.000   22.301498897  114.187666676     8.0263   5  14   4.2884   3.2235   6.4612  -2.7948  -1.9269   2.0845   0.00    0.0
2158 455478.000   22.301452671  114.187659533    16.4045   5  15   3.8360   3.0949   6.1906  -2.4664  -2.3194   2.8101   0.00    0.0
2158 455479.000   22.301389074  114.187721135    18.6003   5  15   3.6330   3.1825   6.5059  -2.2333  -2.7060   2.6993   0.00    0.0
2158 455480.000   22.301394720  114.187757203    20.2651   5  15   3.6328   3.1823   6.5062  -2.2330  -2.7057   2.6997   0.00    0.0
2158 455481.000   22.301398721  114.187830432    14.5997   5  16   3.6325   2.9610   6.1702  -2.2301  -2.2165   2.6962   0.00    0.0
2158 455482.000   22.301409602  114.187889707     6.3179   5  15   3.6323   3.1819   6.5068  -2.2325  -2.7051   2.7006   0.00    0.0
2158 455483.000   22.301422315  114.187929724     7.1021   5  14   3.3153   2.9344   5.5849  -1.6191   0.3606  -0.2829   0.00    0.0
2158 455484.000   22.301445601  114.187978371     4.6306   5  15   3.3151   2.6563   5.5598  -1.6232  -0.7267  -0.2874   0.00    0.0
2158 455485.000   22.301559457  114.187972182    12.5762   5  15   2.8942   2.7715   5.7527  -1.2450  -1.4899   0.5185   0.00    0.0
2158 455486.000   22.301609326  114.188035888    11.4835   5  16   2.7266   2.5993   5.6133  -1.1732  -0.1720   0.6609   0.00    0.0
2158 455487.000   22.301657680  114.188079692    15.8946   5  16   3.6311   2.9598   6.1721  -2.2282  -2.2144   2.6985   0.00    0.0
2158 455488.000   22.301678889  114.188158961    13.4873   5  16   3.6309   2.9596   6.1725  -2.2278  -2.2140   2.6989   0.00    0.0
2158 455489.000   22.301669745  114.188225474    12.8113   5  14   3.8464   3.4330   6.1958  -2.5592  -2.2795   2.8085   0.00    0.0
2158 455490.000   22.301578138  114.188378447    13.3231   5  15   3.4325   3.0970   6.1950  -1.9947  -2.3179   2.8457   0.00    0.0
2158 455491.000   22.301702344  114.188371221    27.7348   5  16   2.7046   3.0457   5.2894  -1.6710  -1.8869   1.1329   0.00    0.0
2158 455492.000   22.301677901  114.188427922    25.7795   5  16   2.7044   3.0456   5.2893  -1.6708  -1.8865   1.1332   0.00    0.0
2158 455493.000   22.301647775  114.188482747    23.6320   5  17   2.6290   2.9634   5.2887  -1.5318  -1.8720   1.1123   0.00    0.0
2158 455494.000   22.301717451  114.188428591    22.1105   5  17   2.7004   2.7992   5.2682  -1.6191  -1.7293   1.1041   0.00    0.0
2158 455495.000   22.301898063  114.188187969    38.0890   5  18   2.7528   2.5288   5.2332  -1.4054  -1.2305  -0.5061   0.00    0.0
2158 455496.000   22.301765504  114.188384959    21.6838   5  16   3.0659   2.9634   5.2895  -2.0084  -1.5889   0.7276   0.00    0.0
2158 455497.000   22.301773323  114.188391741    23.5801   5  16   3.0656   2.9632   5.2894  -2.0081  -1.5884   0.7284   0.00    0.0
2158 455498.000   22.301768962  114.188379071    27.3587   5  15   3.0691   3.1686   5.5724  -1.9651  -2.1191   0.5162   0.00    0.0
2158 455499.000   22.301772300  114.188369023    27.4042   5  15   3.0688   3.1684   5.5723  -1.9648  -2.1188   0.5175   0.00    0.0
2158 455500.000   22.301791144  114.188322114    16.3737   5  13   3.1291   3.4003   6.1566  -2.0829  -1.1438  -0.7112   0.00    0.0
2158 455501.000   22.301788740  114.188327273    15.9294   5  13   3.1288   3.4002   6.1563  -2.0826  -1.1428  -0.7103   0.00    0.0
2158 455502.000   22.301657554  114.188444145    26.0814   5  14   2.7466   3.1561   6.0500  -1.5625  -1.6562   1.0959   0.00    0.0
2158 455503.000   22.301657133  114.188444681    26.6619   5  15   2.7318   3.0622   5.6336  -1.6301  -2.1035   0.7598   0.00    0.0
2158 455504.000   22.301654379  114.188444245    26.5027   5  15   2.7316   3.0621   5.6334  -1.6299  -2.1030   0.7603   0.00    0.0
2158 455505.000   22.301599810  114.188507087    25.3445   5  16   2.6555   2.9824   5.6329  -1.4874  -2.0931   0.7365   0.00    0.0
2158 455506.000   22.301591995  114.188486740    27.9226   5  17   2.6443   2.8151   5.3044  -1.5651  -1.5853   1.0001   0.00    0.0
2158 455507.000   22.301586470  114.188481204    29.5763   5  17   2.6442   2.8150   5.3043  -1.5650  -1.5847   1.0002   0.00    0.0
2158 455508.000   22.301595652  114.188485709    32.4945   5  16   2.6623   2.9100   5.7422  -1.4898  -0.9418   1.2978   0.00    0.0
2158 455509.000   22.301595042  114.188473052    34.3880   5  16   2.6621   2.9100   5.7421  -1.4896  -0.9404   1.2978   0.00    0.0
2158 455510.000   22.301605358  114.188518583    25.0812   5  15   2.6728   3.0712   6.0482  -1.4081  -1.6576   1.1081   0.00    0.0
2158 455511.000   22.301620179  114.188499113    24.8022   5  15   2.6726   3.0712   6.0480  -1.4080  -1.6567   1.1082   0.00    0.0
2158 455512.000   22.301626613  114.188489582    24.0126   5  15   2.6724   3.0711   6.0478  -1.4078  -1.6557   1.1083   0.00    0.0
2158 455513.000   22.301634268  114.188491985    23.9308   5  15   2.6723   3.0711   6.0476  -1.4077  -1.6548   1.1084   0.00    0.0
2158 455514.000   22.301639834  114.188491501    24.6025   5  15   2.6721   3.0711   6.0474  -1.4075  -1.6539   1.1085   0.00    0.0
2158 455515.000   22.301639842  114.188492235    25.3411   5  15   2.6720   3.0711   6.0472  -1.4074  -1.6529   1.1086   0.00    0.0
2158 455516.000   22.301629481  114.188412562    42.0927   5  16   2.6610   2.9100   5.7415  -1.4886  -0.9308   1.2978   0.00    0.0
2158 455517.000   22.301641416  114.188379255    40.8722   5  17   2.6466   2.8043   5.6700  -1.4147  -1.2512   1.3903   0.00    0.0
2158 455518.000   22.301642556  114.188384319    44.4195   5  17   2.6464   2.8042   5.6699  -1.4145  -1.2502   1.3903   0.00    0.0
2158 455519.000   22.301865859  114.188030737    73.6868   5  18   2.5263   2.5273   5.6132  -1.0214  -0.7671   1.1415   0.00    0.0
2158 455520.000   22.301650262  114.188407263    52.5563   5  17   2.6461   2.8042   5.6698  -1.4141  -1.2481   1.3904   0.00    0.0
2158 455521.000   22.301651678  114.188414048    56.7643   5  17   2.6459   2.8041   5.6697  -1.4139  -1.2471   1.3904   0.00    0.0
2158 455522.000   22.301820231  114.188154184    78.0706   5  18   2.5260   2.5274   5.6133  -1.0211  -0.7642   1.1427   0.00    0.0
2158 455523.000   22.301654623  114.188430533    57.4074   5  17   2.6456   2.8041   5.6696  -1.4134  -1.2450   1.3905   0.00    0.0
2158 455524.000   22.301650378  114.188464551    53.0620   5  17   2.6454   2.8041   5.6695  -1.4132  -1.2440   1.3905   0.00    0.0
2158 455525.000   22.301672043  114.188482709    47.9392   5  17   2.6452   2.8040   5.6695  -1.4130  -1.2430   1.3906   0.00    0.0
2158 455526.000   22.301720492  114.188474646    44.1335   5  17   2.6450   2.8040   5.6694  -1.4128  -1.2420   1.3906   0.00    0.0
2158 455527.000   22.301766229  114.188467820    43.0212   5  17   2.6449   2.8040   5.6694  -1.4126  -1.2409   1.3906   0.00    0.0
2158 455528.000   22.301804674  114.188496914    42.5498   5  17   2.6447   2.8039   5.6693  -1.4124  -1.2399   1.3907   0.00    0.0
2158 455529.000   22.301893440  114.188493498    42.0636   5  17   2.6445   2.8039   5.6692  -1.4121  -1.2389   1.3907   0.00    0.0
2158 455530.000   22.301955885  114.188507654    40.2666   5  17   2.6444   2.8039   5.6692  -1.4119  -1.2378   1.3907   0.00    0.0
2158 455531.000   22.302022739  114.188531199    40.6676   5  17   2.6442   2.8038   5.6691  -1.4117  -1.2368   1.3907   0.00    0.0
2158 455532.000   22.302062814  114.188501834    25.9234   5  15   4.2769   2.9354   9.9792  -1.0593   1.3455   5.3922   0.00    0.0
2158 455533.000   22.302095485  114.188501541    14.1547   5  14   4.3082   3.0970  10.4477  -0.7774   2.2067   5.5398   0.00    0.0
2158 455534.000   22.302319352  114.188603010    69.1347   5  15   3.6076   2.9273   7.5805  -1.7274  -1.5480   3.7095   0.00    0.0
2158 455535.000   22.302387508  114.188617568    71.1225   5  15   3.6074   2.9273   7.5810  -1.7270  -1.5467   3.7097   0.00    0.0
2158 455536.000   22.302665007  114.188385962   118.9977   5  15   3.3444   2.7229   7.4212  -1.0082  -0.7665   3.1491   0.00    0.0
2158 455537.000   22.302287610  114.188588186    -1.8652   5  13   4.3125   3.2398  10.8822  -0.8964   1.4261   5.6004   0.00    0.0
2158 455538.000   22.302404300  114.188555760    16.7698   5  14   3.9384   2.9725  10.0366   1.2096   2.7330   4.8965   0.00    0.0
2158 455539.000   22.302424951  114.188583646    14.4329   5  14   3.9385   2.9727  10.0385   1.2101   2.7343   4.8975   0.00    0.0
2158 455540.000   22.302432456  114.188605164    12.1217   5  14   3.9385   2.9729  10.0404   1.2106   2.7356   4.8985   0.00    0.0
2158 455541.000   22.302442716  114.188610085     9.3167   5  14   3.9386   2.9731  10.0424   1.2111   2.7369   4.8995   0.00    0.0
2158 455542.000   22.302438250  114.188600543     4.6046   5  14   3.9387   2.9734  10.0443   1.2117   2.7382   4.9005   0.00    0.0
2158 455543.000   22.302430726  114.188594760     2.0750   5  14   3.9388   2.9736  10.0462   1.2122   2.7395   4.9015   0.00    0.0
2158 455544.000   22.302433260  114.188604184     3.5358   5  14   3.9389   2.9738  10.0481   1.2127   2.7408   4.9025   0.00    0.0
2158 455545.000   22.302440270  114.188610363     5.0954   5  14   3.9390   2.9740  10.0500   1.2132   2.7421   4.9035   0.00    0.0
2158 455546.000   22.302433628  114.188604111     2.9494   5  14   3.9391   2.9742  10.0519   1.2138   2.7434   4.9045   0.00    0.0
2158 455547.000   22.302436503  114.188605293     2.7917   5  14   3.9391   2.9744  10.0538   1.2143   2.7447   4.9054   0.00    0.0
2158 455548.000   22.302435777  114.188606948     2.3434   5  14   3.9392   2.9747  10.0557   1.2148   2.7461   4.9064   0.00    0.0
2158 455549.000   22.302431460  114.188607550     2.6011   5  14   3.9393   2.9749  10.0577   1.2153   2.7474   4.9074   0.00    0.0
2158 455550.000   22.302434621  114.188606762     2.1745   5  14   3.9394   2.9751  10.0596   1.2158   2.7487   4.9084   0.00    0.0
2158 455551.000   22.302433472  114.188608946     2.7644   5  14   3.9395   2.9753  10.0615   1.2164   2.7500   4.9094   0.00    0.0
2158 455552.000   22.302437501  114.188611605     4.3825   5  14   3.9395   2.9755  10.0634   1.2169   2.7513   4.9104   0.00    0.0
2158 455553.000   22.302431088  114.188616074     4.4996   5  14   3.9396   2.9757  10.0653   1.2174   2.7526   4.9114   0.00    0.0
2158 455554.000   22.302436199  114.188620044     6.3594   5  14   3.9397   2.9759  10.0672   1.2179   2.7539   4.9124   0.00    0.0
2158 455555.000   22.302439198  114.188620000     5.2025   5  14   3.9398   2.9762  10.0691   1.2184   2.7552   4.9134   0.00    0.0
2158 455556.000   22.302406189  114.188512160   -19.2092   5   8   6.6039  11.1716  28.9882   7.1581  17.1770  12.0690   0.00    0.0
2158 455557.000   22.302412748  114.188568887    -7.2733   5  10   6.5051   9.2166  24.4901   6.6418  14.0402  11.3208   0.00    0.0
2158 455558.000   22.302414174  114.188569933   -14.9733   5  12   4.0060   3.3992  10.8387   0.6096   3.7528   4.6179   0.00    0.0
2158 455559.000   22.302430697  114.188606093    -3.9316   5  12   4.0061   3.3995  10.8403   0.6108   3.7537   4.6190   0.00    0.0
2158 455560.000   22.302573100  114.189021526   113.9064   5  11   5.3146   4.4899  13.6430   3.3791   6.1794   7.0791   0.00    0.0
2158 455561.000   22.302586707  114.189050590   114.8705   5  11   5.3142   4.4904  13.6447   3.3790   6.1804   7.0795   0.00    0.0
2158 455562.000   22.302570516  114.189028265   105.8276   5  10   5.4622   5.0004  13.6613   3.7681   6.2937   7.1365   0.00    0.0
2158 455563.000   22.302311552  114.188752459    55.5771   5  10   4.3906   3.5974  13.0464  -0.4183   4.1974   3.5024   0.00    0.0
2158 455565.000   22.302532749  114.188767738    42.9806   5  12   4.9950   4.4910  13.6301   3.3496   6.1913   7.1780   0.00    0.0
2158 455566.000   22.302462900  114.188522601   -24.3851   5   9   6.5696  11.1186  28.8500   7.1045  17.0864  11.9914   0.00    0.0
2158 455567.000   22.302494018  114.188523131   -20.9498   5   9   6.5662  11.1133  28.8362   7.0992  17.0773  11.9836   0.00    0.0
2158 455568.000   22.302557302  114.188530012    -9.3579   5   8   6.6301  11.1101  29.3901   7.1081  17.1045  12.2000   0.00    0.0
2158 455569.000   22.302600417  114.188517754    -8.1570   5   9   6.5593  11.1028  28.8086   7.0884  17.0592  11.9680   0.00    0.0
2158 455570.000   22.302640508  114.188643444    20.8470   5  15   2.6592   2.9691   6.1714  -0.5661  -1.8149  -0.9647   0.00    0.0
2158 455571.000   22.302728029  114.188620142    21.1993   5  16   2.5883   2.7186   5.8067  -1.0238  -0.8932   0.5869   0.00    0.0
2158 455572.000   22.302771500  114.188539965    -2.0130   5  15   2.6335   3.0376   6.5502  -0.5638   1.1615   1.2783   0.00    0.0
2158 455573.000   22.302811070  114.188473670    -1.4942   5  15   2.6849   3.0009   6.6686   0.6735  -1.2818   0.9518   0.00    0.0
2158 455574.000   22.302869512  114.188437814    -2.2122   5  15   2.6847   3.0010   6.6687   0.6735  -1.2809   0.9523   0.00    0.0
2158 455575.000   22.302932202  114.188392150    -2.2901   5  14   2.7233   3.4927   6.6695   1.1274  -1.2053   0.9775   0.00    0.0
2158 455576.000   22.302979869  114.188307871     1.5911   5  13   2.9763   4.9152   7.3942   2.3291  -3.5342  -1.6966   0.00    0.0
2158 455577.000   22.303032590  114.188269093     4.1543   5  13   2.9760   4.9150   7.3943   2.3288  -3.5337  -1.6962   0.00    0.0
2158 455578.000   22.303096641  114.188201333     7.0227   5  13   2.9757   4.9148   7.3944   2.3284  -3.5332  -1.6958   0.00    0.0
2158 455579.000   22.303233650  114.188314358    33.2831   5  15   2.8178   4.0165   6.8896   1.6803  -3.6186  -1.9481   0.00    0.0
2158 455580.000   22.303219928  114.188141185     7.9913   5  15   2.8316   4.0495   6.8547   1.7229  -3.5783  -1.9114   0.00    0.0
2158 455581.000   22.303240530  114.188038181    -2.4441   5  13   4.0068   4.1440  11.0724   1.7329  -3.4182   4.5589   0.00    0.0
2158 455582.000   22.303319676  114.187949528     4.0629   5  14   2.8763   4.1413   7.3562   1.8460  -3.2372  -1.5163   0.00    0.0
2158 455583.000   22.303354130  114.187861504    -3.4309   5  13   4.0067   4.1437  11.0777   1.7325  -3.4177   4.5615   0.00    0.0
2158 455584.000   22.303457806  114.187775265     9.1600   5  14   2.8759   4.1409   7.3564   1.8458  -3.2362  -1.5157   0.00    0.0
2158 455585.000   22.303499445  114.187708198    -1.2530   5  13   4.0066   4.1433  11.0831   1.7321  -3.4172   4.5640   0.00    0.0
2158 455586.000   22.303576353  114.187632229     1.0871   5  13   4.0066   4.1432  11.0857   1.7319  -3.4169   4.5652   0.00    0.0
2158 455587.000   22.303544699  114.187154305    57.9149   5  13   5.0299   4.1421  11.6545   3.2666   4.4523   6.4342   0.00    0.0
2158 455588.000   22.303062700  114.186918545     6.1295   5   8  18.4954   6.6899  31.1666  10.0621  12.8244  23.3834   0.00    0.0
2158 455590.000   22.302874741  114.186530409   -83.8259   5   9  10.6022   6.5173  19.1320   7.1993   9.7562  13.1899   0.00    0.0
2158 455591.000   22.303781348  114.187015735    36.1244   5  11   5.2084   3.3051  11.0387   2.0402   2.7949   6.0421   0.00    0.0
2158 455592.000   22.303780150  114.186930572    11.4531   5  12   5.2854   4.7923  13.0756   3.8205   5.8390   7.1469   0.00    0.0
2158 455593.000   22.303834552  114.186759351    54.9477   5  14   3.9424   2.9846  10.1414   1.2384   2.8053   4.9499   0.00    0.0
2158 455594.000   22.303795833  114.186554957    25.6452   5  12   6.2653   4.2770  14.6252   3.7974   6.2248   8.6280   0.00    0.0
2158 455595.000   22.303999521  114.186584858    63.2603   5  13   4.6455   2.9850  10.6037   1.2424   2.8096   5.6656   0.00    0.0
2158 455596.000   22.304134243  114.186895441     5.1269   5  11   4.7712   4.3791  11.6673   2.0424  -2.7550   5.3397   0.00    0.0
2158 455597.000   22.304164796  114.186821629     2.4912   5  11   4.7712   4.3789  11.6703   2.0424  -2.7544   5.3411   0.00    0.0
2158 455598.000   22.304152011  114.186768596    -2.3510   5  12   4.0170   4.3687  11.3650   1.8455  -2.8940   4.6564   0.00    0.0
2158 455599.000   22.304207642  114.186728990     2.6284   5  11   4.7713   4.3786  11.6763   2.0423  -2.7531   5.3440   0.00    0.0
2158 455600.000   22.304253624  114.186720951     7.1392   5  11   4.7713   4.3785  11.6792   2.0423  -2.7524   5.3454   0.00    0.0
2158 455601.000   22.304292531  114.186685098     6.4063   5  11   4.7713   4.3783  11.6822   2.0423  -2.7518   5.3468   0.00    0.0
2158 455602.000   22.304307062  114.186668355    11.5946   5  11   4.7714   4.3782  11.6852   2.0423  -2.7511   5.3483   0.00    0.0
2158 455603.000   22.304340528  114.186645087    12.0143   5  11   4.7714   4.3780  11.6882   2.0422  -2.7505   5.3497   0.00    0.0
2158 455604.000   22.304360720  114.186634720     9.0747   5  11   4.7714   4.3779  11.6912   2.0422  -2.7499   5.3511   0.00    0.0
2158 455605.000   22.304378370  114.186606285     8.6773   5  11   4.7715   4.3777  11.6941   2.0422  -2.7492   5.3526   0.00    0.0
2158 455606.000   22.304394750  114.186581332    11.5710   5  11   4.7715   4.3776  11.6971   2.0422  -2.7486   5.3540   0.00    0.0
2158 455607.000   22.304344466  114.186163963    75.0944   5  12   4.7487   3.2446  10.7298   1.6736   2.4814   5.5547   0.00    0.0
2158 455608.000   22.304417159  114.186528922    11.5884   5  11   4.7716   4.3773  11.7031   2.0421  -2.7473   5.3568   0.00    0.0
2158 455609.000   22.304424217  114.186503491    10.8729   5  11   4.7716   4.3771  11.7061   2.0421  -2.7466   5.3583   0.00    0.0
2158 455610.000   22.304426344  114.186481336    10.3177   5  11   4.7716   4.3770  11.7091   2.0420  -2.7460   5.3597   0.00    0.0
2158 455611.000   22.304404520  114.186471286    10.2558   5  12   4.7597   4.1869  11.5960   2.1448  -3.1040   5.4126   0.00    0.0
2158 455612.000   22.304232166  114.186407255   -13.1328   5  13   4.0053   4.1392  11.1553   1.7267  -3.4105   4.5979   0.00    0.0
2158 455613.000   22.304386238  114.186427671     8.5092   5  12   4.7598   4.1866  11.6020   2.1448  -3.1029   5.4155   0.00    0.0
2158 455614.000   22.304387786  114.186419038     7.2158   5  12   4.7598   4.1865  11.6050   2.1448  -3.1023   5.4170   0.00    0.0
2158 455615.000   22.304384346  114.186415297     5.7733   5  12   4.7598   4.1864  11.6080   2.1449  -3.1017   5.4185   0.00    0.0
2158 455616.000   22.304210774  114.186123792    40.9542   5  13   4.5640   3.5759  11.2918   1.2881  -1.9318   5.7471   0.00    0.0
2158 455617.000   22.304212251  114.186101235    44.3625   5  13   4.5643   3.5758  11.2945   1.2889  -1.9301   5.7484   0.00    0.0
2158 455618.000   22.304206536  114.186108754    42.5456   5  13   4.5645   3.5757  11.2972   1.2896  -1.9284   5.7498   0.00    0.0
2158 455619.000   22.304209310  114.186107270    42.6931   5  13   4.5648   3.5757  11.2999   1.2903  -1.9267   5.7511   0.00    0.0
2158 455620.000   22.304211103  114.186102421    43.5847   5  13   4.5650   3.5756  11.3027   1.2911  -1.9250   5.7525   0.00    0.0
2158 455621.000   22.304211056  114.186095210    44.7761   5  13   4.5652   3.5755  11.3054   1.2918  -1.9233   5.7539   0.00    0.0
2158 455622.000   22.304220449  114.186090701    46.4421   5  13   4.5655   3.5754  11.3081   1.2925  -1.9216   5.7552   0.00    0.0
2158 455623.000   22.304229363  114.186096001    46.5749   5  13   4.5657   3.5753  11.3108   1.2932  -1.9199   5.7566   0.00    0.0
2158 455624.000   22.304388650  114.186366647    11.6382   5  12   4.7599   4.1855  11.6349   2.1450  -3.0967   5.4315   0.00    0.0
2158 455625.000   22.304397928  114.186370022    10.8302   5  12   4.7599   4.1854  11.6379   2.1450  -3.0961   5.4329   0.00    0.0
2158 455626.000   22.304406672  114.186371919    10.6488   5  12   4.7600   4.1852  11.6409   2.1451  -3.0956   5.4344   0.00    0.0
2158 455627.000   22.304436913  114.186382823    17.3714   5  13   3.9420   4.1078   8.8245   1.5701  -3.9575   3.0464   0.00    0.0
2158 455628.000   22.304440164  114.186375798    16.5599   5  13   3.9419   4.1077   8.8259   1.5700  -3.9574   3.0475   0.00    0.0
2158 455629.000   22.304289817  114.186346914     5.0379   5  14   3.4785   4.0869   8.7759   1.3043  -4.0065   2.7442   0.00    0.0
2158 455630.000   22.304280012  114.186346983     0.2868   5  14   3.4784   4.0867   8.7772   1.3040  -4.0065   2.7452   0.00    0.0
2158 455631.000   22.304439493  114.186361849     6.0354   5  13   3.9415   4.1073   8.8300   1.5697  -3.9573   3.0505   0.00    0.0
2158 455632.000   22.304317080  114.186309024     3.1076   5  14   3.4781   4.0864   8.7800   1.3035  -4.0065   2.7472   0.00    0.0
2158 455633.000   22.304483739  114.186312138     3.6052   5  12   4.7600   4.1845  11.6619   2.1452  -3.0916   5.4444   0.00    0.0
2158 455634.000   22.304530887  114.186286295     6.4857   5  12   4.7600   4.1844  11.6649   2.1452  -3.0910   5.4459   0.00    0.0
2158 455635.000   22.304557847  114.186233853     6.0714   5  12   4.7600   4.1843  11.6679   2.1452  -3.0905   5.4473   0.00    0.0
2158 455636.000   22.304398210  114.186136250   -21.6247   5  13   4.0040   4.1355  11.2198   1.7217  -3.4047   4.6279   0.00    0.0
2158 455637.000   22.304501935  114.186097350   -12.1283   5  13   4.0039   4.1353  11.2225   1.7215  -3.4045   4.6291   0.00    0.0
2158 455638.000   22.304628693  114.186066568    -0.3917   5  11   6.9873   5.8736  14.3843   5.0684   5.0087   8.5257   0.00    0.0
2158 455639.000   22.304685401  114.186047030     1.1156   5  11   6.9854   5.8727  14.3868   5.0668   5.0081   8.5253   0.00    0.0
2158 455640.000   22.304727751  114.186013847     2.5467   5  11   6.9835   5.8719  14.3893   5.0652   5.0076   8.5249   0.00    0.0
2158 455641.000   22.304761318  114.185972154     3.3690   5  11   6.9816   5.8710  14.3917   5.0635   5.0070   8.5246   0.00    0.0
2158 455642.000   22.304859516  114.185989630    19.8244   5  13   4.6383   3.3352  11.0607   1.3792   0.1454   5.8158   0.00    0.0
2158 455643.000   22.304806008  114.185915987     1.2042   5  12   6.1764   4.1943  14.3913   3.5038   4.8412   8.4483   0.00    0.0
2158 455644.000   22.304888312  114.185946780    12.9434   5  13   4.6386   3.3351  11.0659   1.3806   0.1906   5.8183   0.00    0.0
2158 455645.000   22.304900190  114.185957115    10.3951   5  13   4.6388   3.3351  11.0684   1.3813   0.2094   5.8196   0.00    0.0
2158 455646.000   22.304928489  114.185980111    16.2997   5  13   4.6389   3.3350  11.0710   1.3820   0.2267   5.8209   0.00    0.0
2158 455647.000   22.304959556  114.185997926    19.1204   5  13   4.6391   3.3350  11.0736   1.3827   0.2428   5.8221   0.00    0.0
2158 455648.000   22.304981123  114.186024843    22.7081   5  13   4.6393   3.3349  11.0761   1.3834   0.2578   5.8234   0.00    0.0
2158 455649.000   22.305009316  114.186055074    29.0288   5  13   4.6394   3.3349  11.0787   1.3841   0.2720   5.8247   0.00    0.0
2158 455650.000   22.305006897  114.186101625    29.2937   5  13   4.6396   3.3348  11.0812   1.3848   0.2855   5.8259   0.00    0.0
2158 455651.000   22.305035271  114.186125551    29.7623   5  13   4.6397   3.3348  11.0838   1.3855   0.2984   5.8272   0.00    0.0
2158 455652.000   22.305084937  114.186168596    29.0030   5  13   4.6399   3.3347  11.0864   1.3862   0.3108   5.8285   0.00    0.0
2158 455653.000   22.305144231  114.186220263    37.8334   5  13   4.6400   3.3347  11.0889   1.3869   0.3226   5.8297   0.00    0.0
2158 455654.000   22.305188674  114.186267919    38.5184   5  13   4.6402   3.3346  11.0915   1.3876   0.3341   5.8310   0.00    0.0
2158 455655.000   22.305299911  114.186347473    54.5016   5  13   4.6403   3.3346  11.0941   1.3883   0.3451   5.8322   0.00    0.0
2158 455656.000   22.305358045  114.186380925    60.4030   5  13   4.6404   3.3345  11.0966   1.3889   0.3558   5.8335   0.00    0.0
2158 455657.000   22.305352989  114.186374383    54.4639   5  13   4.6406   3.3345  11.0992   1.3896   0.3664   5.8347   0.00    0.0
2158 455658.000   22.305352182  114.186387443    51.3136   5  13   4.6407   3.3344  11.1018   1.3903   0.3766   5.8360   0.00    0.0
2158 455659.000   22.305424271  114.186511756    41.9691   5  13   4.5458   3.3888  11.1421   0.6997   1.9492   5.9125   0.00    0.0
2158 455660.000   22.305480870  114.186475950    45.4513   5  13   4.5461   3.3888  11.1446   0.7014   1.9514   5.9137   0.00    0.0
2158 455661.000   22.305489826  114.186481075    43.0061   5  14   4.5415   3.1061  11.0370   0.8827   1.3038   5.9426   0.00    0.0
2158 455662.000   22.305490487  114.186468718    39.4708   5  13   4.5745   3.5724  11.4168   1.3213  -1.8515   5.8085   0.00    0.0
2158 455663.000   22.305510090  114.186460462    38.8260   5  13   4.5747   3.5723  11.4195   1.3221  -1.8497   5.8098   0.00    0.0
2158 455664.000   22.305541091  114.186445604    48.5033   5  13   4.5749   3.5722  11.4222   1.3228  -1.8479   5.8112   0.00    0.0
2158 455665.000   22.305413339  114.186239240    63.3415   5  12   4.7597   4.1811  11.7582   2.1456  -3.0736   5.4897   0.00    0.0
2158 455666.000   22.305419804  114.186200886    62.5392   5  12   4.7597   4.1810  11.7612   2.1456  -3.0730   5.4911   0.00    0.0
2158 455667.000   22.305435968  114.186164628    66.4729   5  12   4.7597   4.1809  11.7642   2.1456  -3.0725   5.4925   0.00    0.0
2158 455668.000   22.305436178  114.186104319    68.3071   5  12   4.7596   4.1808  11.7672   2.1456  -3.0719   5.4939   0.00    0.0
2158 455669.000   22.305455483  114.186084232    67.9173   5  12   4.7596   4.1807  11.7702   2.1456  -3.0713   5.4953   0.00    0.0
2158 455670.000   22.305809401  114.186239615   138.9032   5  10   8.0305  14.9640  16.0310   9.0088  -8.3883   6.6604   0.00    0.0
2158 455671.000   22.305775062  114.186096062   134.8740   5  10   8.0292  14.9617  16.0296   9.0079  -8.3809   6.6621   0.00    0.0
2158 455672.000   22.305790102  114.186017231   133.3271   5  10   8.0278  14.9593  16.0282   9.0069  -8.3735   6.6638   0.00    0.0
2158 455673.000   22.305701825  114.185620019   161.7232   5  12   4.8494   3.6397  11.2116   1.1424  -1.4038   6.0105   0.00    0.0
2158 455674.000   22.305779484  114.185676701   159.5063   5  12   4.8492   3.6399  11.2129   1.1442  -1.3991   6.0110   0.00    0.0
2158 455675.000   22.305789198  114.185695727   161.0665   5  12   4.8489   3.6401  11.2142   1.1461  -1.3945   6.0115   0.00    0.0
2158 455676.000   22.305807108  114.185724552   158.0341   5  12   4.8486   3.6403  11.2155   1.1479  -1.3898   6.0120   0.00    0.0
2158 455677.000   22.305929873  114.185666338   143.4313   5  10   5.4404   3.7791  11.4589   0.8031   0.3134   6.1452   0.00    0.0
2158 455678.000   22.305789671  114.185738960   140.7005   5   9   6.6516   3.9939  11.4710  -2.0719  -0.7265   6.2983   0.00    0.0
2158 455679.000   22.305841099  114.185765440   140.4613   5   9   6.6511   3.9940  11.4725  -2.0700  -0.7181   6.2994   0.00    0.0
2158 455680.000   22.305682494  114.185188571    36.3773   5   9   7.6220   7.8278  17.4606   6.1044   9.5092  10.3977   0.00    0.0
2158 455681.000   22.305716582  114.185147261    26.2490   5  10   7.2663   5.8119  14.5393   5.0219   6.3031   9.2678   0.00    0.0
2158 455682.000   22.305772128  114.185196992    29.2906   5  10   7.2650   5.8131  14.5408   5.0224   6.3054   9.2677   0.00    0.0
2158 455683.000   22.306337015  114.186499779    -9.7888   5   9  31.9323  68.8881  23.9418  46.4723 -35.5769 -22.4836   0.00    0.0
2158 455684.000   22.306337102  114.186371921    -1.6299   5   9  31.9040  68.8246  23.9081  46.4297 -35.5174 -22.4413   0.00    0.0
2158 455685.000   22.306121735  114.185767098    13.9625   5  10   8.0098  14.9290  16.0102   8.9943  -8.2774   6.6859   0.00    0.0
2158 455686.000   22.306137573  114.185734312    16.9756   5  10   8.0084  14.9266  16.0089   8.9933  -8.2699   6.6875   0.00    0.0
2158 455687.000   22.306121817  114.185625576    12.6984   5  10   8.0070  14.9243  16.0075   8.9923  -8.2625   6.6892   0.00    0.0
2158 455688.000   22.306126475  114.185571841    17.8551   5  10   8.0056  14.9219  16.0061   8.9913  -8.2551   6.6909   0.00    0.0
2158 455689.000   22.306136293  114.185491067    31.8565   5   9   8.2013  15.4072  16.6211   9.3648  -7.1260   7.2667   0.00    0.0
2158 455690.000   22.306312105  114.185765482    43.8003   5  10   4.8685   7.3727  16.5217  -1.2524  -8.6631   6.3972   0.00    0.0
2158 455691.000   22.306247473  114.185515214    51.9747   5  10   4.8681   7.3709  16.5199  -1.2475  -8.6595   6.3964   0.00    0.0
2158 455692.000   22.306143914  114.185241296    56.6852   5  10   4.8678   7.3691  16.5181  -1.2427  -8.6559   6.3956   0.00    0.0
2158 455693.000   22.306230611  114.185085452    92.2798   5   9   7.4541   9.9573  26.9614  -6.2729 -14.7516  12.6965   0.00    0.0
2158 455694.000   22.306166081  114.185137135    65.6781   5  10   4.8670   7.3656  16.5145  -1.2329  -8.6488   6.3940   0.00    0.0
2158 455695.000   22.306234906  114.185011920    94.9676   5   9   7.4522   9.9501  26.9583  -6.2669 -14.7423  12.6938   0.00    0.0
2158 455696.000   22.306254630  114.184937219   107.2966   5   9   7.4512   9.9465  26.9568  -6.2638 -14.7376  12.6925   0.00    0.0
2158 455697.000   22.306232069  114.184889200   112.2179   5   9   7.4502   9.9430  26.9552  -6.2608 -14.7329  12.6911   0.00    0.0
2158 455698.000   22.306292346  114.184971784   112.6815   5   8  10.8661  15.8909  27.6923   7.6762 -11.7540  14.5357   0.00    0.0
2158 455699.000   22.306394233  114.185015733   115.4703   5   8  10.8626  15.8881  27.6906   7.6752 -11.7487  14.5334   0.00    0.0
2158 455700.000   22.306288876  114.185263667    44.3958   5  10   6.2477   5.4814  15.8498   3.3895   4.6534   8.8952   0.00    0.0
2158 455701.000   22.306245866  114.184984392    51.0085   5   9   8.1795  15.3737  16.6052   9.3458  -7.0305   7.2775   0.00    0.0
2158 455702.000   22.306280545  114.185054299    46.5184   5   9   8.1777  15.3709  16.6039   9.3442  -7.0225   7.2784   0.00    0.0
2158 455703.000   22.306318102  114.185049707    47.4179   5  10   4.8638   7.3502  16.4985  -1.1884  -8.6171   6.3866   0.00    0.0
2158 455704.000   22.306317573  114.184947450    42.3455   5  11   4.8614   7.3481  15.9738  -1.1877  -8.5960   6.4312   0.00    0.0
2158 455705.000   22.306310399  114.184845089    46.4504   5  10   7.9816  14.8817  15.9835   8.9740  -8.1283   6.7193   0.00    0.0
2158 455706.000   22.306335637  114.184880857    48.7503   5  11   4.8606   7.3446  15.9708  -1.1776  -8.5891   6.4300   0.00    0.0
2158 455707.000   22.306352634  114.184889267    45.3383   5  12   4.3673   6.8917  15.9677  -2.6038  -8.5517   6.4674   0.00    0.0
2158 455708.000   22.306337350  114.184879293    41.1151   5  12   4.3667   6.8898  15.9662  -2.6019  -8.5485   6.4666   0.00    0.0
2158 455709.000   22.306325319  114.184871002    38.3873   5  12   4.3661   6.8878  15.9648  -2.5999  -8.5453   6.4657   0.00    0.0
2158 455710.000   22.306368398  114.184851493    47.0570   5  11   6.3770   7.9378  20.1404  -5.0105 -11.0209   9.9438   0.00    0.0
2158 455711.000   22.306475207  114.184572653   109.1099   5  12   5.5572   3.6486  12.1003  -1.7475  -2.8176   6.9666   0.00    0.0
2158 455712.000   22.306488136  114.184575007   111.0047   5  12   5.5572   3.6486  12.1025  -1.7464  -2.8158   6.9677   0.00    0.0
2158 455713.000   22.306487934  114.184574843   111.7314   5  12   5.5571   3.6486  12.1047  -1.7453  -2.8140   6.9687   0.00    0.0
2158 455714.000   22.306394246  114.184609324    94.1365   5  13   4.2254   3.5692  10.8220  -0.5571  -1.9494   5.3840   0.00    0.0
2158 455715.000   22.306399774  114.184617538    92.7156   5  13   4.2250   3.5694  10.8230  -0.5547  -1.9468   5.3842   0.00    0.0
2158 455716.000   22.306525007  114.184590721   114.8474   5  12   5.5569   3.6487  12.1115  -1.7420  -2.8086   6.9720   0.00    0.0
2158 455717.000   22.306529116  114.184581941   116.5787   5  12   5.5568   3.6487  12.1137  -1.7409  -2.8068   6.9730   0.00    0.0
2158 455718.000   22.306415183  114.184889956    47.8279   5  11   6.3729   7.9167  20.1390  -4.9949 -10.9950   9.9415   0.00    0.0
2158 455719.000   22.306424118  114.184881390    52.2118   5  11   6.3724   7.9140  20.1388  -4.9930 -10.9917   9.9413   0.00    0.0
2158 455720.000   22.306431709  114.184875292    56.2919   5  11   6.3719   7.9114  20.1387  -4.9910 -10.9885   9.9410   0.00    0.0
2158 455721.000   22.306442727  114.184875554    58.6267   5  11   6.3714   7.9088  20.1385  -4.9891 -10.9852   9.9407   0.00    0.0
2158 455722.000   22.306446940  114.184876347    61.2762   5  11   6.3709   7.9061  20.1384  -4.9871 -10.9820   9.9404   0.00    0.0
2158 455723.000   22.306449190  114.184869206    64.1011   5  11   6.3704   7.9035  20.1382  -4.9852 -10.9787   9.9401   0.00    0.0
2158 455724.000   22.306457284  114.184813724    70.1790   5  10   6.4345   8.7452  20.4728  -4.6284 -11.5881   9.7697   0.00    0.0
2158 455725.000   22.306320174  114.184969214    23.7484   5  12   4.3570   6.8565  15.9417  -2.5687  -8.4941   6.4521   0.00    0.0
2158 455726.000   22.306335158  114.184936238    26.8614   5  12   4.3565   6.8546  15.9403  -2.5667  -8.4909   6.4513   0.00    0.0
2158 455727.000   22.306445835  114.184916517    45.4604   5  12   3.7040   7.3007  12.1325  -0.1658  -8.2999   2.9606   0.00    0.0
2158 455728.000   22.306450785  114.185039558    20.8234   5  14   3.2972   4.0630   8.5009   1.1539  -4.0961   2.2487   0.00    0.0
2158 455729.000   22.306542115  114.184919303    39.4647   5  12   3.7035   7.2976  12.1306  -0.1447  -8.2963   2.9601   0.00    0.0
2158 455730.000   22.306577079  114.184861576    43.2211   5  12   3.7032   7.2961  12.1297  -0.1328  -8.2945   2.9599   0.00    0.0
2158 455731.000   22.306594095  114.184770190    56.9188   5  13   3.6921   3.4886   7.9190  -1.3530  -3.1491   3.3711   0.00    0.0
2158 455732.000   22.306618966  114.184714846    61.6659   5  14   3.4219   3.4620   7.9059  -1.5572  -3.1799   3.2751   0.00    0.0
2158 455733.000   22.306700997  114.184716703    62.6616   5  13   3.6915   3.4885   7.9199  -1.3522  -3.1480   3.3716   0.00    0.0
2158 455734.000   22.306698089  114.184662007    66.1133   5  13   3.4295   6.7637  11.7754  -1.9485  -7.7980   3.5765   0.00    0.0
2158 455735.000   22.306739959  114.184648728    66.8780   5  13   3.4292   6.7621  11.7746  -1.9477  -7.7963   3.5762   0.00    0.0
2158 455736.000   22.306756195  114.184632841    67.5415   5  13   3.4289   6.7605  11.7738  -1.9468  -7.7945   3.5760   0.00    0.0
2158 455737.000   22.306775938  114.184601301    70.8291   5  13   3.4285   6.7589  11.7730  -1.9460  -7.7927   3.5757   0.00    0.0
2158 455738.000   22.306791621  114.184656057    66.6626   5  14   3.4202   3.4614   7.9084  -1.5557  -3.1767   3.2764   0.00    0.0
2158 455739.000   22.306789186  114.184632359    72.2109   5  15   3.4116   3.0428   7.3491  -1.6773  -2.2950   3.3814   0.00    0.0
2158 455740.000   22.306795397  114.184683501    64.2259   5  15   3.4113   3.0427   7.3495  -1.6769  -2.2942   3.3815   0.00    0.0
2158 455741.000   22.306830145  114.184742366    63.5601   5  15   3.5386   2.6175   7.1122  -1.0409  -1.3723   3.2673   0.00    0.0
2158 455742.000   22.306866364  114.184803698    67.1091   5  14   3.6060   2.8465   7.1581  -0.5535  -0.9920   3.3521   0.00    0.0
2158 455743.000   22.306877462  114.184807971    69.9215   5  14   3.6058   2.8465   7.1589  -0.5538  -0.9914   3.3525   0.00    0.0
2158 455744.000   22.306858489  114.184768242    71.3302   5  15   3.5383   2.6175   7.1146  -1.0405  -1.3706   3.2690   0.00    0.0
2158 455745.000   22.306867289  114.184777663    74.6548   5  15   3.5382   2.6175   7.1154  -1.0403  -1.3700   3.2696   0.00    0.0
2158 455746.000   22.306886362  114.184793178    79.6629   5  15   3.5380   2.6175   7.1162  -1.0402  -1.3694   3.2702   0.00    0.0
2158 455747.000   22.306903057  114.184800500    83.8730   5  15   3.5379   2.6175   7.1170  -1.0400  -1.3688   3.2708   0.00    0.0
2158 455748.000   22.306902733  114.184801582    84.8207   5  15   3.5378   2.6175   7.1178  -1.0398  -1.3682   3.2714   0.00    0.0
2158 455749.000   22.306898484  114.184801205    84.7895   5  15   3.5377   2.6175   7.1185  -1.0397  -1.3676   3.2720   0.00    0.0
2158 455750.000   22.306892066  114.184800253    84.1368   5  15   3.5376   2.6175   7.1193  -1.0395  -1.3670   3.2726   0.00    0.0
2158 455751.000   22.306651240  114.184694393    11.2865   5  14   4.6505   2.8450  10.7505   1.5116   2.6668   5.9186   0.00    0.0
2158 455752.000   22.306646331  114.184674804     8.1749   5  14   4.6506   2.8452  10.7527   1.5124   2.6684   5.9197   0.00    0.0
2158 455753.000   22.306589007  114.184617091    -7.4465   5  13   6.0877   3.8981  14.0452   3.5716   5.5854   8.3988   0.00    0.0
2158 455754.000   22.306632397  114.184643698     3.2484   5  14   4.6508   2.8457  10.7572   1.5139   2.6717   5.9218   0.00    0.0
2158 455755.000   22.306629594  114.184635524     1.6448   5  14   4.6508   2.8459  10.7594   1.5147   2.6733   5.9229   0.00    0.0
2158 455756.000   22.306629981  114.184631352     1.9051   5  14   4.6509   2.8461  10.7616   1.5155   2.6750   5.9240   0.00    0.0
2158 455757.000   22.307015226  114.184708743   101.6383   5  15   2.7523   2.7624   6.3818  -0.5228   1.1033   1.6150   0.00    0.0
2158 455758.000   22.307011155  114.184709989   102.3596   5  15   2.7521   2.7625   6.3819  -0.5226   1.1043   1.6153   0.00    0.0
2158 455759.000   22.307004125  114.184706683   101.8518   5  15   2.7520   2.7626   6.3820  -0.5223   1.1054   1.6155   0.00    0.0
2158 455760.000   22.306993724  114.184694893    99.8920   5  15   2.7518   2.7627   6.3821  -0.5221   1.1065   1.6157   0.00    0.0
2158 455761.000   22.306982981  114.184687786    99.1792   5  15   2.7516   2.7628   6.3821  -0.5219   1.1076   1.6159   0.00    0.0
2158 455762.000   22.306980920  114.184690037    99.9463   5  15   2.7514   2.7629   6.3822  -0.5217   1.1086   1.6161   0.00    0.0
2158 455763.000   22.306978064  114.184685007   100.2971   5  15   2.7513   2.7630   6.3823  -0.5214   1.1097   1.6164   0.00    0.0
2158 455764.000   22.306974000  114.184680147    98.9949   5  15   2.7511   2.7631   6.3824  -0.5212   1.1108   1.6166   0.00    0.0
2158 455765.000   22.306602827  114.184599467     2.9392   5  14   4.6516   2.8482  10.7815   1.5224   2.6896   5.9336   0.00    0.0
2158 455766.000   22.306600762  114.184596241     2.4924   5  14   4.6516   2.8484  10.7837   1.5232   2.6913   5.9346   0.00    0.0
2158 455767.000   22.306616619  114.184610468     7.6029   5  13   6.0760   3.9027  14.0682   3.5707   5.5988   8.3987   0.00    0.0
2158 455768.000   22.306588277  114.184596030     1.3953   5  14   4.6518   2.8488  10.7881   1.5247   2.6945   5.9367   0.00    0.0
2158 455769.000   22.306581081  114.184594637     0.8949   5  14   4.6519   2.8491  10.7903   1.5255   2.6961   5.9378   0.00    0.0
2158 455770.000   22.306621213  114.184623496    10.8176   5  13   6.0734   3.9037  14.0730   3.5705   5.6016   8.3986   0.00    0.0
2158 455771.000   22.306620403  114.184628014    10.3144   5  13   6.0726   3.9040  14.0746   3.5704   5.6025   8.3985   0.00    0.0
2158 455772.000   22.306628445  114.184647252    14.5072   5  13   6.0717   3.9043  14.0762   3.5703   5.6034   8.3985   0.00    0.0
2158 455773.000   22.306630466  114.184660258    16.4486   5  13   6.0709   3.9046  14.0778   3.5702   5.6044   8.3984   0.00    0.0
2158 455774.000   22.306633815  114.184674038    19.6194   5  13   6.0700   3.9049  14.0794   3.5702   5.6053   8.3984   0.00    0.0
2158 455775.000   22.306543351  114.184610386    -2.9173   5  14   4.6522   2.8504  10.8035   1.5300   2.7059   5.9441   0.00    0.0
2158 455776.000   22.306536190  114.184608980    -4.5795   5  14   4.6523   2.8507  10.8057   1.5308   2.7075   5.9452   0.00    0.0
2158 455777.000   22.306535834  114.184607104    -5.0516   5  14   4.6524   2.8509  10.8079   1.5316   2.7091   5.9462   0.00    0.0
2158 455778.000   22.306569015  114.184626866     1.8616   5  14   4.6524   2.8511  10.8101   1.5323   2.7108   5.9472   0.00    0.0
2158 455779.000   22.306596560  114.184636933     6.0643   5  14   4.6525   2.8514  10.8122   1.5331   2.7124   5.9483   0.00    0.0
2158 455780.000   22.306618447  114.184641597     8.4950   5  14   4.6525   2.8516  10.8144   1.5338   2.7140   5.9493   0.00    0.0
2158 455781.000   22.306638647  114.184653509    12.2856   5  14   4.6526   2.8518  10.8166   1.5346   2.7156   5.9504   0.00    0.0
2158 455782.000   22.306645075  114.184656918    12.8299   5  14   4.6526   2.8521  10.8188   1.5354   2.7172   5.9514   0.00    0.0
2158 455783.000   22.306654482  114.184660590    14.4880   5  14   4.6527   2.8523  10.8210   1.5361   2.7189   5.9524   0.00    0.0
2158 455784.000   22.306652952  114.184666246    15.0549   5  14   4.6528   2.8525  10.8232   1.5369   2.7205   5.9535   0.00    0.0
2158 455785.000   22.306659441  114.184668671    16.2367   5  14   4.6528   2.8527  10.8254   1.5376   2.7221   5.9545   0.00    0.0
2158 455786.000   22.306662955  114.184666986    17.0656   5  14   4.6529   2.8530  10.8276   1.5384   2.7237   5.9555   0.00    0.0
2158 455787.000   22.306590159  114.184610234    -1.7545   5  13   6.0587   3.9091  14.0998   3.5691   5.6173   8.3975   0.00    0.0
2158 455788.000   22.306585412  114.184604031    -3.0839   5  13   6.0578   3.9094  14.1013   3.5690   5.6182   8.3974   0.00    0.0
