% program   : RTKPOST demo5 b34k
% inp file  : C:\Users\XU\Desktop\6102_Lab\AAE6102_Laboratory-main\GNSS Data\Dynamic\20210610.klt1.ublox.f9p.obs
% inp file  : C:\Users\XU\Desktop\6102_Lab\AAE6102_Laboratory-main\GNSS Data\Dynamic\hksc1610.nav
% obs start : 2021/06/10 03:35:54.0 GPST (week2161 358554.0s)
% obs end   : 2021/06/10 03:39:18.0 GPST (week2161 358758.0s)
% pos mode  : Single
% elev mask : 15.0 deg
% ionos opt : Broadcast
% tropo opt : Saastamoinen
% ephemeris : Broadcast
% navi sys  : GPS GLONASS Galileo
%
% (lat/lon/height=WGS84/ellipsoidal,Q=1:fix,2:float,3:sbas,4:dgps,5:single,6:ppp,ns=# of satellites)
%  GPST          latitude(deg) longitude(deg)  height(m)   Q  ns   sdn(m)   sde(m)   sdu(m)  sdne(m)  sdeu(m)  sdun(m) age(s)  ratio
2161 358554.000   22.330498151  114.180755186    35.8119   5  14   2.2074   2.5635   8.0153  -1.0104   2.9982  -0.4694   0.00    0.0
2161 358555.000   22.330495547  114.180750660    36.4210   5  13   2.2101   2.7827   8.0158  -1.0675   2.9766  -0.4573   0.00    0.0
2161 358556.000   22.330497237  114.180742515    38.5215   5  14   2.2074   2.5640   8.0145  -1.0112   2.9987  -0.4735   0.00    0.0
2161 358557.000   22.330499261  114.180745965    37.0591   5  13   2.2102   2.7831   8.0150  -1.0681   2.9772  -0.4616   0.00    0.0
2161 358558.000   22.330487413  114.180782337    42.4884   5  14   2.1547   2.5727   7.8028  -0.7865   2.6310   0.8284   0.00    0.0
2161 358559.000   22.330503438  114.180751577    35.0010   5  13   2.2102   2.7835   8.0142  -1.0687   2.9779  -0.4658   0.00    0.0
2161 358560.000   22.330500542  114.180771892    34.9967   5  15   2.1561   2.2721   6.4815  -1.2609   1.8417  -1.5703   0.00    0.0
2161 358561.000   22.330499135  114.180787955    38.0915   5  14   2.2077   2.5650   8.0126  -1.0131   2.9999  -0.4834   0.00    0.0
2161 358562.000   22.330499034  114.180781818    35.0846   5  14   2.2077   2.5652   8.0122  -1.0135   3.0001  -0.4854   0.00    0.0
2161 358563.000   22.330488704  114.180767041    31.8825   5  14   2.2078   2.5654   8.0118  -1.0138   3.0003  -0.4873   0.00    0.0
2161 358564.000   22.330489820  114.180782345    34.6553   5  14   2.2078   2.5656   8.0114  -1.0142   3.0006  -0.4893   0.00    0.0
2161 358565.000   22.330489029  114.180780624    30.8635   5  14   2.2078   2.5658   8.0110  -1.0146   3.0008  -0.4912   0.00    0.0
2161 358566.000   22.330465287  114.180772299    29.9387   5  14   2.2079   2.5660   8.0106  -1.0150   3.0010  -0.4931   0.00    0.0
2161 358567.000   22.330447626  114.180770989    28.5006   5  15   2.1475   2.3158   7.8093  -0.6808   2.6526   0.8184   0.00    0.0
2161 358568.000   22.330438592  114.180758690    27.9321   5  15   2.1567   2.2733   6.4829  -1.2629   1.8453  -1.5720   0.00    0.0
2161 358569.000   22.330424932  114.180754561    26.6698   5  15   2.1568   2.2734   6.4830  -1.2632   1.8458  -1.5722   0.00    0.0
2161 358570.000   22.330407270  114.180769520    29.2002   5  14   2.2920   2.5357   8.1310  -1.1364   3.0628  -1.0734   0.00    0.0
2161 358571.000   22.330393374  114.180778545    37.4515   5  16   2.1797   2.1964   7.7154  -0.2905   2.1501  -1.0370   0.00    0.0
2161 358572.000   22.330369360  114.180777684    42.1978   5  15   2.4764   2.2023  12.3689   0.3202   1.7561  -3.5271   0.00    0.0
2161 358573.000   22.330361412  114.180777755    25.5865   5  15   2.4453   2.4671  10.2484   1.2318  -3.0806  -3.0294   0.00    0.0
2161 358574.000   22.330357010  114.180776754    18.8964   5  15   2.4024   2.0637   9.7868   0.7543  -1.6566  -2.7908   0.00    0.0
2161 358575.000   22.330348993  114.180784337    23.1078   5  15   2.4024   2.0637   9.7874   0.7540  -1.6558  -2.7913   0.00    0.0
2161 358576.000   22.330340752  114.180793879    25.0671   5  15   2.4025   2.0637   9.7879   0.7537  -1.6550  -2.7917   0.00    0.0
2161 358577.000   22.330325732  114.180802731    32.5435   5  16   2.3734   2.0348   9.3767   0.8342  -1.9247  -2.5981   0.00    0.0
2161 358578.000   22.330308030  114.180814758    29.9379   5  18   2.0762   1.9143   8.0445  -0.2092  -0.6349  -1.1749   0.00    0.0
2161 358579.000   22.330297324  114.180832078    33.0180   5  18   2.0762   1.9143   8.0443  -0.2097  -0.6330  -1.1750   0.00    0.0
2161 358580.000   22.330297315  114.180852680    33.6756   5  17   2.0885   2.1812   9.7899  -0.5303   2.3312  -1.6268   0.00    0.0
2161 358581.000   22.330274252  114.180888685    39.4418   5  16   2.1858   2.1815  10.0151  -0.5166   2.3214  -2.0028   0.00    0.0
2161 358582.000   22.330263922  114.180925984    42.0923   5  15   2.2642   2.2506  10.2571  -0.7707   2.5725  -2.3070   0.00    0.0
2161 358583.000   22.330273384  114.180966762    40.9499   5  16   2.1858   2.1818  10.0143  -0.5175   2.3228  -2.0036   0.00    0.0
2161 358584.000   22.330282946  114.181013461    43.2028   5  16   2.1858   2.1820  10.0139  -0.5179   2.3235  -2.0040   0.00    0.0
2161 358585.000   22.330294784  114.181065578    44.8960   5  16   2.1858   2.1822  10.0134  -0.5184   2.3242  -2.0044   0.00    0.0
2161 358586.000   22.330297816  114.181120055    43.9694   5  16   2.1858   2.1824  10.0130  -0.5189   2.3249  -2.0048   0.00    0.0
2161 358587.000   22.330302893  114.181171240    38.0790   5  16   2.1858   2.1825  10.0126  -0.5193   2.3256  -2.0052   0.00    0.0
2161 358588.000   22.330299940  114.181228613    37.3693   5  16   2.1858   2.1827  10.0122  -0.5198   2.3263  -2.0056   0.00    0.0
2161 358589.000   22.330279033  114.181290087    47.1191   5  16   2.1858   2.1829  10.0117  -0.5202   2.3270  -2.0060   0.00    0.0
2161 358590.000   22.330293710  114.181352766    28.1036   5  15   2.4776   2.2046  12.3819   0.2957   1.7829  -3.5392   0.00    0.0
2161 358591.000   22.330290724  114.181422873    24.2816   5  16   2.2927   2.2022  11.7088  -0.1101   1.8993  -2.9572   0.00    0.0
2161 358592.000   22.330284289  114.181487467    24.2532   5  16   2.2927   2.2024  11.7088  -0.1134   1.9006  -2.9576   0.00    0.0
2161 358593.000   22.330283694  114.181549325    25.5718   5  16   2.3730   2.0349   9.3841   0.8310  -1.9153  -2.6032   0.00    0.0
2161 358594.000   22.330276692  114.181609629    27.5737   5  16   2.3730   2.0349   9.3846   0.8308  -1.9147  -2.6035   0.00    0.0
2161 358595.000   22.330236218  114.181655753    44.6772   5  17   2.2285   2.0158   9.0494   0.6805  -1.7239  -2.1799   0.00    0.0
2161 358596.000   22.330279613  114.181725888    35.6826   5  16   2.3729   2.0349   9.3854   0.8304  -1.9135  -2.6042   0.00    0.0
2161 358597.000   22.330263155  114.181764661    36.1533   5  16   2.3729   2.0349   9.3859   0.8302  -1.9129  -2.6045   0.00    0.0
2161 358598.000   22.330257903  114.181794457    35.9425   5  15   2.4274   2.0945   9.4149   0.6595  -1.8146  -2.6759   0.00    0.0
2161 358599.000   22.330261653  114.181805674    34.4802   5  16   2.3728   2.0349   9.3867   0.8298  -1.9117  -2.6051   0.00    0.0
2161 358600.000   22.330271241  114.181811915    33.9200   5  16   2.3728   2.0349   9.3871   0.8296  -1.9110  -2.6054   0.00    0.0
2161 358601.000   22.330274653  114.181811525    29.9260   5  16   2.3728   2.0349   9.3876   0.8294  -1.9104  -2.6057   0.00    0.0
2161 358602.000   22.330285981  114.181798564    23.3961   5  14   2.5483   2.1108   9.5601   0.4802  -1.6888  -2.9064   0.00    0.0
2161 358603.000   22.330281606  114.181797188    20.7734   5  14   2.5483   2.1109   9.5603   0.4798  -1.6881  -2.9065   0.00    0.0
2161 358604.000   22.330292673  114.181795071    17.2481   5  14   2.5482   2.1109   9.5605   0.4793  -1.6874  -2.9066   0.00    0.0
2161 358605.000   22.330293063  114.181796891    14.8177   5  14   2.5481   2.1109   9.5607   0.4789  -1.6868  -2.9066   0.00    0.0
2161 358606.000   22.330299099  114.181799999    15.3430   5  14   2.5481   2.1109   9.5609   0.4785  -1.6861  -2.9067   0.00    0.0
2161 358607.000   22.330296253  114.181792139    10.2906   5  14   2.5480   2.1109   9.5610   0.4780  -1.6854  -2.9068   0.00    0.0
2161 358608.000   22.330295624  114.181791941     9.3470   5  14   2.5480   2.1110   9.5612   0.4776  -1.6848  -2.9068   0.00    0.0
2161 358609.000   22.330251823  114.181790452    10.4968   5  13   3.0744   2.1224   9.5681   0.7781  -1.6606  -2.7990   0.00    0.0
2161 358610.000   22.330252958  114.181805396    16.5440   5  13   3.0741   2.1224   9.5683   0.7776  -1.6598  -2.7982   0.00    0.0
2161 358611.000   22.330255689  114.181821703    15.7247   5  14   3.0069   2.0535   9.5143   0.9727  -1.8160  -2.6788   0.00    0.0
2161 358612.000   22.330296459  114.181858304    18.4187   5  15   2.4650   2.0420   9.5077   0.7558  -1.8368  -2.7922   0.00    0.0
2161 358613.000   22.330306567  114.181894017    21.9702   5  15   2.4649   2.0420   9.5079   0.7555  -1.8362  -2.7923   0.00    0.0
2161 358614.000   22.330244344  114.181927493    39.4588   5  17   2.1650   1.9211   8.1807   0.1793  -0.7210  -1.5275   0.00    0.0
2161 358615.000   22.330232403  114.181955263    33.7858   5  17   2.1650   1.9211   8.1805   0.1787  -0.7194  -1.5277   0.00    0.0
2161 358616.000   22.330240068  114.181988277    31.5777   5  17   2.1650   1.9212   8.1804   0.1782  -0.7177  -1.5279   0.00    0.0
2161 358617.000   22.330262424  114.182009708    28.2667   5  17   2.1650   1.9213   8.1802   0.1777  -0.7161  -1.5281   0.00    0.0
2161 358618.000   22.330279891  114.182013311    35.2338   5  18   2.0820   1.8876   6.3113  -0.4260   1.1645   0.8673   0.00    0.0
2161 358619.000   22.330307954  114.182011599    41.3568   5  16   2.3723   2.0351   9.3947   0.8257  -1.8992  -2.6112   0.00    0.0
2161 358620.000   22.330351480  114.182016001    43.6601   5  17   2.1649   1.9215   8.1797   0.1761  -0.7110  -1.5288   0.00    0.0
2161 358621.000   22.330382340  114.182012730    44.6623   5  17   2.1649   1.9215   8.1796   0.1755  -0.7093  -1.5290   0.00    0.0
2161 358622.000   22.330433175  114.182016233    43.5957   5  17   2.1648   1.9216   8.1794   0.1750  -0.7076  -1.5292   0.00    0.0
2161 358623.000   22.330472775  114.182026380    41.3863   5  18   2.0741   1.9170   8.0340  -0.2292  -0.5413  -1.1780   0.00    0.0
2161 358624.000   22.330525032  114.182023421    43.6070   5  18   2.0741   1.9170   8.0337  -0.2296  -0.5390  -1.1781   0.00    0.0
2161 358625.000   22.330577332  114.182017867    38.6454   5  18   2.0741   1.9171   8.0334  -0.2300  -0.5367  -1.1782   0.00    0.0
2161 358626.000   22.330623695  114.182014586    35.4840   5  18   2.0740   1.9172   8.0331  -0.2304  -0.5343  -1.1782   0.00    0.0
2161 358627.000   22.330671025  114.182030415    37.4375   5  18   2.0740   1.9172   8.0328  -0.2309  -0.5320  -1.1783   0.00    0.0
2161 358628.000   22.330716319  114.182048024    44.6738   5  18   2.0739   1.9173   8.0326  -0.2313  -0.5297  -1.1784   0.00    0.0
2161 358629.000   22.330770892  114.182060118    50.9169   5  18   2.0739   1.9173   8.0323  -0.2317  -0.5274  -1.1785   0.00    0.0
2161 358630.000   22.330832604  114.182022394    37.3053   5  18   2.0738   1.9174   8.0320  -0.2321  -0.5250  -1.1786   0.00    0.0
2161 358631.000   22.330884481  114.182018696    39.8086   5  18   2.0738   1.9175   8.0317  -0.2325  -0.5226  -1.1787   0.00    0.0
2161 358632.000   22.330942736  114.182011232    36.1031   5  18   2.0737   1.9175   8.0314  -0.2330  -0.5202  -1.1788   0.00    0.0
2161 358633.000   22.331000302  114.182002911    44.3489   5  17   2.2257   2.0160   9.0533   0.6698  -1.6938  -2.1836   0.00    0.0
2161 358634.000   22.331045311  114.181970585    39.9642   5  16   2.2999   2.0258   9.1314   0.5773  -1.6217  -2.3365   0.00    0.0
2161 358635.000   22.331105899  114.181969157    47.2976   5  17   2.1227   1.9392   8.0500  -0.4308  -0.3194  -1.2823   0.00    0.0
2161 358636.000   22.331165620  114.181981478    52.1074   5  18   2.0736   1.9178   8.0302  -0.2346  -0.5106  -1.1792   0.00    0.0
2161 358637.000   22.331249129  114.181986619    48.9485   5  19   2.0150   1.8881   6.2785  -0.4689   1.1944   1.0285   0.00    0.0
2161 358638.000   22.331298096  114.181966268    47.2577   5  18   2.0735   1.9179   8.0296  -0.2355  -0.5057  -1.1794   0.00    0.0
2161 358639.000   22.331353337  114.181956156    44.3510   5  17   2.1225   1.9395   8.0485  -0.4317  -0.3054  -1.2819   0.00    0.0
2161 358640.000   22.331419335  114.181949734    40.8029   5  18   2.0592   1.9132   6.2835  -0.5921   1.2299   0.9713   0.00    0.0
2161 358641.000   22.331480344  114.181932545    36.7726   5  19   2.0149   1.8885   6.2776  -0.4693   1.1969   1.0275   0.00    0.0
2161 358642.000   22.331531003  114.181897311    48.0195   5  17   2.2251   2.0161   9.0537   0.6672  -1.6863  -2.1845   0.00    0.0
2161 358643.000   22.331591578  114.181880208    49.4322   5  17   2.2250   2.0161   9.0537   0.6669  -1.6855  -2.1846   0.00    0.0
2161 358644.000   22.331646443  114.181868507    52.3258   5  17   2.2249   2.0161   9.0538   0.6666  -1.6847  -2.1847   0.00    0.0
2161 358645.000   22.331710542  114.181855427    45.2453   5  17   2.2248   2.0161   9.0538   0.6664  -1.6838  -2.1848   0.00    0.0
2161 358646.000   22.331760293  114.181821065    41.1671   5  17   2.2248   2.0161   9.0538   0.6661  -1.6830  -2.1849   0.00    0.0
2161 358647.000   22.331829219  114.181819759    40.0954   5  18   2.0731   1.9185   8.0269  -0.2392  -0.4830  -1.1803   0.00    0.0
2161 358648.000   22.331904793  114.181808640    43.2046   5  18   2.0730   1.9185   8.0266  -0.2396  -0.4804  -1.1804   0.00    0.0
2161 358649.000   22.331968227  114.181785762    44.8324   5  18   2.0730   1.9186   8.0262  -0.2400  -0.4778  -1.1805   0.00    0.0
2161 358650.000   22.332023616  114.181762053    44.0476   5  18   2.0729   1.9187   8.0259  -0.2404  -0.4751  -1.1806   0.00    0.0
2161 358651.000   22.332067027  114.181735728    48.7137   5  18   2.0729   1.9187   8.0256  -0.2408  -0.4725  -1.1806   0.00    0.0
2161 358652.000   22.332142050  114.181742944    50.2813   5  18   2.0728   1.9188   8.0253  -0.2412  -0.4699  -1.1807   0.00    0.0
2161 358653.000   22.332186578  114.181720329    54.7911   5  18   2.0728   1.9189   8.0250  -0.2416  -0.4672  -1.1808   0.00    0.0
2161 358654.000   22.332222270  114.181696524    65.5052   5  17   2.2242   2.0162   9.0539   0.6637  -1.6763  -2.1856   0.00    0.0
2161 358655.000   22.332282251  114.181704691    48.8467   5  19   2.0143   1.8899   6.2746  -0.4707   1.2055   1.0239   0.00    0.0
2161 358656.000   22.332314794  114.181703145    47.4671   5  18   2.0810   1.8913   6.3046  -0.4296   1.1879   0.8518   0.00    0.0
2161 358657.000   22.332322071  114.181670265    54.6064   5  16   2.1821   1.9703   8.4794  -0.3088   0.7392  -1.7306   0.00    0.0
2161 358658.000   22.332372988  114.181656446    40.0368   5  16   2.1120   2.0891   8.4352   0.4578   1.3926  -0.7628   0.00    0.0
2161 358659.000   22.332372385  114.181643356    44.2060   5  16   2.2064   2.0276   8.3784   0.5471   0.8784  -1.2517   0.00    0.0
2161 358660.000   22.332377893  114.181621518    39.7144   5  17   2.1639   1.9240   8.1719   0.1530  -0.6392  -1.5373   0.00    0.0
2161 358661.000   22.332399552  114.181594758    32.5192   5  17   2.1639   1.9240   8.1717   0.1524  -0.6373  -1.5375   0.00    0.0
2161 358662.000   22.332411324  114.181574834    35.5445   5  17   2.1639   1.9241   8.1714   0.1518  -0.6354  -1.5377   0.00    0.0
2161 358663.000   22.332420337  114.181558041    28.6167   5  18   2.0809   1.8920   6.3033  -0.4303   1.1921   0.8490   0.00    0.0
2161 358664.000   22.332424684  114.181524344    29.8855   5  17   2.1638   1.9242   8.1710   0.1505  -0.6315  -1.5381   0.00    0.0
2161 358665.000   22.332417832  114.181482604    26.4749   5  17   2.1638   1.9243   8.1707   0.1499  -0.6296  -1.5383   0.00    0.0
2161 358666.000   22.332406057  114.181447468    25.9131   5  16   2.2203   1.9624   8.1843  -0.4113  -0.7592  -1.4596   0.00    0.0
2161 358667.000   22.332406383  114.181420999    27.0998   5  17   2.1637   1.9244   8.1703   0.1486  -0.6257  -1.5386   0.00    0.0
2161 358668.000   22.332409597  114.181387267    25.4296   5  17   2.1637   1.9245   8.1700   0.1479  -0.6237  -1.5388   0.00    0.0
2161 358669.000   22.332399740  114.181350180    22.9659   5  17   2.1637   1.9246   8.1698   0.1473  -0.6217  -1.5390   0.00    0.0
2161 358670.000   22.332396574  114.181320941    23.2679   5  17   2.1637   1.9246   8.1695   0.1466  -0.6198  -1.5392   0.00    0.0
2161 358671.000   22.332417757  114.181294108    32.5638   5  17   2.1636   1.9247   8.1693   0.1460  -0.6178  -1.5394   0.00    0.0
2161 358672.000   22.332413954  114.181277039    26.3752   5  17   2.1636   1.9248   8.1690   0.1453  -0.6158  -1.5396   0.00    0.0
2161 358673.000   22.332416779  114.181268128    25.8293   5  17   2.1636   1.9248   8.1688   0.1446  -0.6138  -1.5398   0.00    0.0
2161 358674.000   22.332431092  114.181255581    26.3968   5  17   2.1636   1.9249   8.1685   0.1440  -0.6119  -1.5400   0.00    0.0
2161 358675.000   22.332430219  114.181242381    25.3449   5  17   2.1635   1.9249   8.1683   0.1433  -0.6099  -1.5402   0.00    0.0
2161 358676.000   22.332429238  114.181224209    26.0190   5  17   2.1635   1.9250   8.1680   0.1427  -0.6079  -1.5403   0.00    0.0
2161 358677.000   22.332432984  114.181209292    21.1758   5  17   2.1635   1.9251   8.1678   0.1420  -0.6059  -1.5405   0.00    0.0
2161 358678.000   22.332448949  114.181195670    19.9392   5  18   2.0717   1.9205   8.0164  -0.2516  -0.3948  -1.1826   0.00    0.0
2161 358679.000   22.332455891  114.181171976    19.4526   5  18   2.0716   1.9206   8.0160  -0.2520  -0.3916  -1.1827   0.00    0.0
2161 358680.000   22.332448619  114.181147942    19.0369   5  18   2.0716   1.9206   8.0157  -0.2524  -0.3884  -1.1828   0.00    0.0
2161 358681.000   22.332450576  114.181111258    22.7542   5  18   2.0715   1.9207   8.0153  -0.2528  -0.3851  -1.1828   0.00    0.0
2161 358682.000   22.332455669  114.181077247    19.5879   5  18   2.0715   1.9208   8.0150  -0.2531  -0.3819  -1.1829   0.00    0.0
2161 358683.000   22.332443569  114.181035998    23.8575   5  17   2.1633   1.9255   8.1662   0.1379  -0.5936  -1.5416   0.00    0.0
2161 358684.000   22.332440952  114.181003943    27.6858   5  17   2.1633   1.9255   8.1659   0.1372  -0.5916  -1.5418   0.00    0.0
2161 358685.000   22.332453074  114.180982061    27.0436   5  18   2.0713   1.9210   8.0138  -0.2543  -0.3719  -1.1831   0.00    0.0
2161 358686.000   22.332452579  114.180974946    26.1890   5  18   2.0713   1.9210   8.0135  -0.2547  -0.3685  -1.1832   0.00    0.0
2161 358687.000   22.332450890  114.180958406    27.5495   5  18   2.0712   1.9211   8.0131  -0.2551  -0.3651  -1.1832   0.00    0.0
2161 358688.000   22.332446950  114.180938226    30.9083   5  18   2.0712   1.9212   8.0127  -0.2555  -0.3617  -1.1833   0.00    0.0
2161 358689.000   22.332443117  114.180929936    28.2182   5  18   2.0712   1.9213   8.0123  -0.2558  -0.3583  -1.1834   0.00    0.0
2161 358690.000   22.332427142  114.180918794    25.9058   5  18   2.0711   1.9213   8.0120  -0.2562  -0.3548  -1.1834   0.00    0.0
2161 358691.000   22.332406038  114.180916483    25.7061   5  18   2.0711   1.9214   8.0116  -0.2566  -0.3513  -1.1835   0.00    0.0
2161 358692.000   22.332390666  114.180904746    24.0274   5  18   2.0710   1.9215   8.0112  -0.2570  -0.3477  -1.1835   0.00    0.0
2161 358693.000   22.332361249  114.180902462    22.7335   5  18   2.0710   1.9215   8.0108  -0.2574  -0.3441  -1.1836   0.00    0.0
2161 358694.000   22.332329786  114.180908487    20.9099   5  18   2.0709   1.9216   8.0104  -0.2578  -0.3405  -1.1837   0.00    0.0
2161 358695.000   22.332277286  114.180906398    27.4271   5  17   2.1630   1.9263   8.1629   0.1292  -0.5686  -1.5438   0.00    0.0
2161 358696.000   22.332251888  114.180898705    24.9339   5  17   2.1630   1.9264   8.1626   0.1285  -0.5664  -1.5440   0.00    0.0
2161 358697.000   22.332209890  114.180904835    25.0855   5  17   2.1630   1.9264   8.1623   0.1277  -0.5643  -1.5441   0.00    0.0
2161 358698.000   22.332179064  114.180891407    22.2040   5  17   2.1630   1.9265   8.1621   0.1270  -0.5621  -1.5443   0.00    0.0
2161 358699.000   22.332149061  114.180885718    21.7805   5  17   2.1629   1.9266   8.1618   0.1262  -0.5600  -1.5445   0.00    0.0
2161 358700.000   22.332108673  114.180875916    26.3469   5  17   2.1629   1.9266   8.1615   0.1255  -0.5578  -1.5446   0.00    0.0
2161 358701.000   22.332070615  114.180894348    32.4630   5  17   2.1629   1.9267   8.1612   0.1247  -0.5556  -1.5448   0.00    0.0
2161 358702.000   22.332046479  114.180891560    32.1125   5  17   2.1628   1.9268   8.1609   0.1239  -0.5535  -1.5450   0.00    0.0
2161 358703.000   22.332031078  114.180884437    29.0306   5  17   2.1628   1.9268   8.1606   0.1232  -0.5513  -1.5451   0.00    0.0
2161 358704.000   22.332006590  114.180874774    28.0369   5  17   2.1628   1.9269   8.1603   0.1224  -0.5491  -1.5453   0.00    0.0
2161 358705.000   22.331987849  114.180871466    31.4229   5  17   2.1628   1.9270   8.1600   0.1216  -0.5469  -1.5455   0.00    0.0
2161 358706.000   22.331976122  114.180862412    29.6883   5  17   2.1627   1.9270   8.1597   0.1208  -0.5446  -1.5457   0.00    0.0
2161 358707.000   22.331960405  114.180859811    29.9898   5  17   2.1627   1.9271   8.1594   0.1200  -0.5424  -1.5458   0.00    0.0
2161 358708.000   22.331944787  114.180859161    30.2655   5  17   2.1627   1.9272   8.1591   0.1192  -0.5402  -1.5460   0.00    0.0
2161 358709.000   22.331935882  114.180854414    27.9384   5  18   2.0702   1.9226   8.0045  -0.2634  -0.2808  -1.1845   0.00    0.0
2161 358710.000   22.331924005  114.180857219    25.0385   5  18   2.0702   1.9227   8.0041  -0.2638  -0.2764  -1.1845   0.00    0.0
2161 358711.000   22.331911228  114.180860740    26.7288   5  19   2.0122   1.8955   6.2615  -0.4761   1.2390   1.0103   0.00    0.0
2161 358712.000   22.331896980  114.180856358    26.5761   5  19   2.0122   1.8956   6.2613  -0.4762   1.2395   1.0100   0.00    0.0
2161 358713.000   22.331885274  114.180854625    28.9116   5  18   2.0701   1.9229   8.0029  -0.2649  -0.2626  -1.1847   0.00    0.0
2161 358714.000   22.331864783  114.180874238    27.2562   5  18   2.0700   1.9230   8.0024  -0.2652  -0.2579  -1.1848   0.00    0.0
2161 358715.000   22.331844949  114.180877344    22.5836   5  18   2.0700   1.9230   8.0020  -0.2656  -0.2531  -1.1848   0.00    0.0
2161 358716.000   22.331822523  114.180882296    23.9546   5  18   2.0699   1.9231   8.0016  -0.2660  -0.2482  -1.1849   0.00    0.0
2161 358717.000   22.331797661  114.180883490    22.1910   5  18   2.0699   1.9232   8.0012  -0.2664  -0.2431  -1.1849   0.00    0.0
2161 358718.000   22.331780601  114.180887091    24.4057   5  18   2.0698   1.9233   8.0008  -0.2667  -0.2380  -1.1850   0.00    0.0
2161 358719.000   22.331756049  114.180866101    12.1643   5  17   2.0848   2.2067   9.6823  -0.5844   2.4178  -1.6631   0.00    0.0
2161 358720.000   22.331717719  114.180868612     9.5699   5  17   2.0848   2.2069   9.6813  -0.5847   2.4184  -1.6633   0.00    0.0
2161 358721.000   22.331695234  114.180858849     6.3765   5  17   2.0847   2.2071   9.6804  -0.5851   2.4190  -1.6635   0.00    0.0
2161 358722.000   22.331673642  114.180840737    10.8566   5  17   2.0847   2.2073   9.6794  -0.5855   2.4195  -1.6638   0.00    0.0
2161 358723.000   22.331634062  114.180847301    11.5179   5  17   2.0847   2.2075   9.6784  -0.5858   2.4201  -1.6640   0.00    0.0
2161 358724.000   22.331604122  114.180865042    23.6640   5  18   2.0696   1.9237   7.9982  -0.2689  -0.2045  -1.1853   0.00    0.0
2161 358725.000   22.331576570  114.180858506    25.9415   5  18   2.0695   1.9237   7.9978  -0.2693  -0.1984  -1.1854   0.00    0.0
2161 358726.000   22.331532462  114.180841008    21.6210   5  17   2.1622   1.9284   8.1533   0.1037  -0.4983  -1.5491   0.00    0.0
2161 358727.000   22.331486914  114.180840565    24.7184   5  17   2.1622   1.9285   8.1530   0.1027  -0.4958  -1.5492   0.00    0.0
2161 358728.000   22.331437108  114.180852438    26.2252   5  18   2.0694   1.9240   7.9965  -0.2704  -0.1787  -1.1855   0.00    0.0
2161 358729.000   22.331388903  114.180857959    30.3723   5  18   2.0693   1.9240   7.9961  -0.2707  -0.1717  -1.1855   0.00    0.0
2161 358730.000   22.331337387  114.180856144    28.4941   5  18   2.0693   1.9241   7.9956  -0.2711  -0.1644  -1.1856   0.00    0.0
2161 358731.000   22.331295282  114.180844019    25.7432   5  18   2.0692   1.9242   7.9952  -0.2715  -0.1567  -1.1856   0.00    0.0
2161 358732.000   22.331245195  114.180842584    16.5269   5  18   2.0692   1.9242   7.9947  -0.2718  -0.1486  -1.1857   0.00    0.0
2161 358733.000   22.331195540  114.180841175    11.9575   5  18   2.0691   1.9243   7.9943  -0.2722  -0.1401  -1.1857   0.00    0.0
2161 358734.000   22.331129123  114.180836421    16.7564   5  16   2.1862   2.2096   9.9178  -0.5832   2.4208  -2.0580   0.00    0.0
2161 358735.000   22.331088237  114.180817565    14.6440   5  16   2.1862   2.2098   9.9169  -0.5836   2.4214  -2.0583   0.00    0.0
2161 358736.000   22.331032822  114.180829182    17.2266   5  16   2.1862   2.2100   9.9161  -0.5840   2.4220  -2.0586   0.00    0.0
2161 358737.000   22.330978104  114.180815221    19.0408   5  17   2.1619   1.9292   8.1495   0.0929  -0.4708  -1.5508   0.00    0.0
2161 358738.000   22.330927920  114.180806251    22.3831   5  17   2.1619   1.9293   8.1492   0.0918  -0.4682  -1.5509   0.00    0.0
2161 358739.000   22.330889309  114.180805940    21.7154   5  17   2.1619   1.9293   8.1488   0.0908  -0.4657  -1.5511   0.00    0.0
2161 358740.000   22.330834152  114.180789024    22.1592   5  16   2.1862   2.2107   9.9127  -0.5857   2.4243  -2.0597   0.00    0.0
2161 358741.000   22.330781744  114.180790094    24.3927   5  16   2.1862   2.2109   9.9118  -0.5861   2.4249  -2.0600   0.00    0.0
2161 358742.000   22.330733988  114.180794430    25.8513   5  16   2.1862   2.2111   9.9109  -0.5865   2.4254  -2.0603   0.00    0.0
2161 358743.000   22.330692819  114.180789920    26.9114   5  16   2.1862   2.2113   9.9101  -0.5869   2.4260  -2.0606   0.00    0.0
2161 358744.000   22.330662665  114.180799252    27.0990   5  16   2.1862   2.2115   9.9092  -0.5873   2.4266  -2.0609   0.00    0.0
2161 358745.000   22.330635486  114.180781557    20.9193   5  16   2.1862   2.2117   9.9083  -0.5877   2.4272  -2.0612   0.00    0.0
2161 358746.000   22.330620612  114.180771528    18.2737   5  16   2.1862   2.2118   9.9075  -0.5881   2.4277  -2.0615   0.00    0.0
2161 358747.000   22.330604684  114.180794898    28.0427   5  17   2.1617   1.9299   8.1459   0.0818  -0.4444  -1.5524   0.00    0.0
2161 358748.000   22.330582794  114.180770143    21.6444   5  16   2.1862   2.2122   9.9057  -0.5889   2.4289  -2.0621   0.00    0.0
2161 358749.000   22.330555899  114.180772334    25.4538   5  15   2.2284   2.3635  10.7980  -0.8404   3.0787  -2.4718   0.00    0.0
2161 358750.000   22.330552681  114.180777189    23.8039   5  16   2.1862   2.2126   9.9039  -0.5897   2.4300  -2.0627   0.00    0.0
2161 358751.000   22.330530960  114.180770997    30.5371   5  16   2.1862   2.2128   9.9030  -0.5901   2.4306  -2.0630   0.00    0.0
2161 358752.000   22.330520744  114.180752623    30.6908   5  15   2.2612   2.2811  10.0850  -0.8174   2.6397  -2.3153   0.00    0.0
2161 358753.000   22.330532502  114.180768054    23.6866   5  15   2.2612   2.2813  10.0837  -0.8177   2.6400  -2.3154   0.00    0.0
2161 358754.000   22.330540372  114.180776639    15.4843   5  16   2.1862   2.2133   9.9004  -0.5913   2.4323  -2.0639   0.00    0.0
2161 358755.000   22.330543084  114.180780433    13.8413   5  16   2.1862   2.2135   9.8995  -0.5917   2.4328  -2.0642   0.00    0.0
2161 358756.000   22.330548556  114.180779732    12.2851   5  16   2.1863   2.2137   9.8985  -0.5921   2.4334  -2.0645   0.00    0.0
2161 358757.000   22.330541484  114.180782080    11.5920   5  16   2.1863   2.2139   9.8976  -0.5925   2.4339  -2.0648   0.00    0.0
2161 358758.000   22.330541261  114.180782912    11.4750   5  16   2.1863   2.2141   9.8967  -0.5930   2.4345  -2.0651   0.00    0.0
