% program   : RTKPOST demo5 b34k
% inp file  : C:\Users\XU\Desktop\6102_Lab\AAE6102_Laboratory-main\GNSS Data\UrbanNav - Medium\20210521.medium-urban.whampoa.ublox.f9p.obs
% inp file  : C:\Users\XU\Desktop\6102_Lab\AAE6102_Laboratory-main\GNSS Data\UrbanNav - Medium\hksc141g.21o
% inp file  : C:\Users\XU\Desktop\6102_Lab\AAE6102_Laboratory-main\GNSS Data\UrbanNav - Medium\hksc141g.21*
% obs start : 2021/05/21 06:29:02.0 GPST (week2158 455342.0s)
% obs end   : 2021/05/21 06:54:39.0 GPST (week2158 456879.0s)
% pos mode  : DGPS
% freqs     : L1+L2/E5b
% solution  : Forward
% elev mask : 15.0 deg
% dynamics  : on
% tidecorr  : off
% ionos opt : Broadcast
% tropo opt : Saastamoinen
% ephemeris : Broadcast
% navi sys  : GPS GLONASS Galileo
% antenna1  :                       ( 0.0000  0.0000  0.0000)
% antenna2  :                       ( 0.0000  0.0000  0.0000)
% ref pos   : 22.322172082  114.141187963    20.2386
%
% (lat/lon/height=WGS84/ellipsoidal,Q=1:fix,2:float,3:sbas,4:dgps,5:single,6:ppp,ns=# of satellites)
%  GPST          latitude(deg) longitude(deg)  height(m)   Q  ns   sdn(m)   sde(m)   sdu(m)  sdne(m)  sdeu(m)  sdun(m) age(s)  ratio
2158 455342.000   22.301558107  114.190299701     3.5274   4  17   0.9842   1.1447   2.5792   0.2545   0.7230   0.4884   0.00    0.0
2158 455343.000   22.301560277  114.190298805     4.0482   4  17   0.9798   1.1374   2.5108   0.2501   0.7004   0.4737   0.00    0.0
2158 455344.000   22.301565078  114.190296682     5.1310   4  17   0.9800   1.1380   2.5245   0.2508   0.7054   0.4770   0.00    0.0
2158 455345.000   22.301569773  114.190294290     6.0513   4  17   0.9671   1.1227   2.5012   0.2479   0.7013   0.4742   0.00    0.0
2158 455346.000   22.301571886  114.190293808     6.3842   4  17   0.9615   1.1136   2.4303   0.2435   0.6821   0.4612   0.00    0.0
2158 455347.000   22.301572303  114.190297542     6.5215   4  17   0.9611   1.1122   2.3590   0.2412   0.6620   0.4477   0.00    0.0
2158 455348.000   22.301570195  114.190295736     6.0753   4  17   0.9609   1.1115   2.3078   0.2398   0.6474   0.4380   0.00    0.0
2158 455349.000   22.301569443  114.190286975     5.8735   4  17   0.9608   1.1112   2.2827   0.2390   0.6404   0.4334   0.00    0.0
2158 455350.000   22.301568840  114.190275243     5.7271   4  17   0.9608   1.1111   2.2760   0.2388   0.6387   0.4324   0.00    0.0
2158 455351.000   22.301571048  114.190263198     5.6252   4  17   0.9608   1.1112   2.2756   0.2388   0.6389   0.4325   0.00    0.0
2158 455352.000   22.301581162  114.190251686     5.7999   4  17   0.9608   1.1112   2.2756   0.2388   0.6391   0.4328   0.00    0.0
2158 455353.000   22.301590443  114.190247426     5.3321   4  17   0.9608   1.1112   2.2751   0.2388   0.6392   0.4329   0.00    0.0
2158 455354.000   22.301604585  114.190238243     5.2944   4  17   0.9608   1.1113   2.2749   0.2388   0.6393   0.4331   0.00    0.0
2158 455355.000   22.301617878  114.190231333     5.3231   4  18   0.9534   1.0879   2.1993   0.1733   0.5265   0.3443   0.00    0.0
2158 455356.000   22.301633778  114.190223292     5.5092   4  18   0.9532   1.0873   2.1873   0.1713   0.5183   0.3386   0.00    0.0
2158 455357.000   22.301650582  114.190209990     4.7173   4  18   0.9532   1.0872   2.1870   0.1711   0.5189   0.3392   0.00    0.0
2158 455358.000   22.301678857  114.190195759     4.8505   4  18   0.9532   1.0872   2.1866   0.1709   0.5188   0.3393   0.00    0.0
2158 455359.000   22.301709163  114.190179683     4.3240   4  18   0.9532   1.0872   2.1860   0.1709   0.5189   0.3395   0.00    0.0
2158 455360.000   22.301748036  114.190158545     4.6741   4  18   0.9532   1.0873   2.1858   0.1708   0.5192   0.3398   0.00    0.0
2158 455361.000   22.301792762  114.190142725     5.2739   4  18   0.9532   1.0873   2.1859   0.1708   0.5194   0.3401   0.00    0.0
2158 455362.000   22.301839623  114.190122804     5.5464   4  18   0.9532   1.0873   2.1859   0.1708   0.5196   0.3404   0.00    0.0
2158 455363.000   22.301891801  114.190098967     5.8404   4  18   0.9532   1.0873   2.1860   0.1707   0.5198   0.3406   0.00    0.0
2158 455364.000   22.301945718  114.190071318     6.0464   4  18   0.9532   1.0873   2.1860   0.1707   0.5200   0.3409   0.00    0.0
2158 455365.000   22.301995832  114.190041096     5.1331   4  17   0.9606   1.1107   2.2603   0.2366   0.6330   0.4297   0.00    0.0
2158 455366.000   22.302048652  114.190018189     4.3791   4  16   0.9903   1.1501   2.2905   0.3574   0.5764   0.3535   0.00    0.0
2158 455367.000   22.302101094  114.189997167     3.9601   4  16   0.9909   1.1509   2.2942   0.3593   0.5720   0.3481   0.00    0.0
2158 455368.000   22.302144595  114.189969765     4.1302   4  16   0.9910   1.1513   2.2948   0.3600   0.5731   0.3493   0.00    0.0
2158 455369.000   22.302181418  114.189934919     5.3916   4  16   1.0602   1.3136   2.3466   0.5994   0.1577  -0.2439   0.00    0.0
2158 455370.000   22.302223704  114.189903884     6.3241   4  16   1.0626   1.3196   2.3578   0.6067  -0.0495  -0.2742   0.00    0.0
2158 455371.000   22.302247623  114.189861278     5.6113   4  15   1.1007   1.5033   2.4196   0.7582  -0.6229  -0.4776   0.00    0.0
2158 455372.000   22.302262582  114.189816970     5.2006   4  15   1.1347   1.4821   2.3796   0.7698  -0.8007  -0.6003   0.00    0.0
2158 455373.000   22.302278098  114.189771009     4.3838   4  16   1.1294   1.4494   2.3262   0.7463  -0.8923  -0.6495   0.00    0.0
2158 455374.000   22.302280422  114.189728065     4.1696   4  15   1.1726   1.4595   2.3263   0.7821  -0.9135  -0.6943   0.00    0.0
2158 455375.000   22.302278126  114.189689403     4.0224   4  15   1.2224   1.5492   2.3928   0.8970  -0.9090  -0.7334   0.00    0.0
2158 455376.000   22.302262148  114.189658185     4.2665   4  15   1.2247   1.5531   2.4047   0.9016  -0.9112  -0.7373   0.00    0.0
2158 455377.000   22.302242646  114.189621697     4.9603   4  15   1.2360   1.5995   2.4559   0.9364  -0.8001  -0.6787   0.00    0.0
2158 455378.000   22.302224555  114.189594111     5.0065   4  15   1.1068   1.5172   2.4397   0.7728  -0.6633  -0.5050   0.00    0.0
2158 455379.000   22.302205492  114.189561758     4.8731   4  15   1.1039   1.5141   2.4363   0.7677  -0.6527  -0.4931   0.00    0.0
2158 455380.000   22.302176828  114.189522155     5.4255   4  15   1.1034   1.5139   2.4369   0.7670  -0.6526  -0.4936   0.00    0.0
2158 455381.000   22.302165369  114.189514202     3.8541   4  16   1.0644   1.3415   2.3925   0.6095   0.2072  -0.2958   0.00    0.0
2158 455382.000   22.302147636  114.189484277     4.1925   4  16   1.0633   1.3377   2.3861   0.6053   0.2662  -0.2780   0.00    0.0
2158 455383.000   22.302124295  114.189446234     5.4858   4  16   1.0631   1.3368   2.3860   0.6044   0.2623  -0.2790   0.00    0.0
2158 455384.000   22.302101156  114.189411142     6.2974   4  16   1.0630   1.3365   2.3859   0.6041   0.2656  -0.2775   0.00    0.0
2158 455385.000   22.302063115  114.189334798     9.9831   4  16   1.0329   1.2224   2.3577   0.4786   0.5171   0.1213   0.00    0.0
2158 455386.000   22.302045910  114.189310781    10.0483   4  16   1.0323   1.2204   2.3532   0.4760   0.5271   0.1413   0.00    0.0
2158 455387.000   22.302035993  114.189284333     6.9045   4  17   0.9918   1.1540   2.3079   0.3631   0.5783   0.3509   0.00    0.0
2158 455388.000   22.302020998  114.189238644     3.4283   4  17   0.9617   1.1139   2.2837   0.2431   0.6469   0.4406   0.00    0.0
2158 455389.000   22.302016426  114.189188209     2.1179   4  17   0.9612   1.1131   2.2807   0.2405   0.6495   0.4433   0.00    0.0
2158 455390.000   22.302021452  114.189134610     2.3147   4  17   0.9610   1.1128   2.2804   0.2395   0.6493   0.4433   0.00    0.0
2158 455391.000   22.302053240  114.189095581     4.3460   4  16   1.0120   1.1226   2.3999   0.3228   0.7298   0.6590   0.00    0.0
2158 455392.000   22.302074753  114.189035119     3.4442   4  15   1.0792   1.1580   2.6189   0.4259   0.9001   0.8880   0.00    0.0
2158 455393.000   22.302103910  114.188979102    -0.7893   4  15   1.1408   1.1654   2.7842   0.4133   0.9653   0.8181   0.00    0.0
2158 455394.000   22.302134514  114.188930111    -0.9575   4  16   1.1416   1.1485   2.7731   0.4172   0.9234   0.8213   0.00    0.0
2158 455395.000   22.302164605  114.188884811     0.7561   4  15   1.1604   1.1447   2.6535   0.4466   0.8820   0.9347   0.00    0.0
2158 455396.000   22.302179558  114.188849189     1.6407   4  16   1.2931   1.1322   2.8155   0.3624   0.8517   1.2203   0.00    0.0
2158 455397.000   22.302182507  114.188814425    -0.4019   4  16   1.4001   1.1393   3.2038   0.1550   0.7342   1.5826   0.00    0.0
2158 455398.000   22.302190689  114.188791352    -0.2451   4  16   1.4206   1.1395   3.3047   0.1574   0.7387   1.6440   0.00    0.0
2158 455399.000   22.302198172  114.188772774     0.6684   4  16   1.4210   1.1399   3.3148   0.1612   0.7441   1.6475   0.00    0.0
2158 455400.000   22.302205389  114.188757126     1.7903   4  16   1.4211   1.1399   3.3166   0.1617   0.7449   1.6483   0.00    0.0
2158 455401.000   22.302202488  114.188735297     2.1528   4  15   1.4248   1.1566   3.3385   0.2126   0.7023   1.6412   0.00    0.0
2158 455402.000   22.302198903  114.188721245     2.3963   4  16   1.4237   1.1484   3.3382   0.1896   0.7250   1.6489   0.00    0.0
2158 455403.000   22.302191675  114.188712676     2.3973   4  16   1.4240   1.1484   3.3386   0.1919   0.7277   1.6498   0.00    0.0
2158 455404.000   22.302178894  114.188712332     2.7527   4  16   1.4239   1.1484   3.3391   0.1919   0.7279   1.6499   0.00    0.0
2158 455405.000   22.302175281  114.188708634     3.8972   4  16   1.4240   1.1484   3.3398   0.1925   0.7285   1.6503   0.00    0.0
2158 455406.000   22.302179970  114.188701847     6.0739   4  16   1.4240   1.1485   3.3406   0.1930   0.7291   1.6507   0.00    0.0
2158 455407.000   22.302167957  114.188692237     1.7681   4  17   1.3432   1.1230   3.0263  -0.2761   0.4379   1.4339   0.00    0.0
2158 455408.000   22.302167240  114.188691793     1.0855   4  17   1.3346   1.1224   2.9694  -0.2859   0.4130   1.4028   0.00    0.0
2158 455409.000   22.302171418  114.188693837     2.2017   4  17   1.3344   1.1224   2.9666  -0.2853   0.4154   1.4020   0.00    0.0
2158 455410.000   22.302176971  114.188696046     3.8707   4  17   1.3342   1.1224   2.9658  -0.2854   0.4151   1.4014   0.00    0.0
2158 455411.000   22.302180530  114.188696304     5.9556   4  17   1.3322   1.1142   2.9540  -0.3002   0.4511   1.4054   0.00    0.0
2158 455412.000   22.302181966  114.188695011     7.5224   4  17   1.3320   1.1291   2.9725  -0.3010   0.5212   1.4038   0.00    0.0
2158 455413.000   22.302184143  114.188695928     8.6319   4  17   1.3320   1.1295   2.9769  -0.3000   0.5261   1.4050   0.00    0.0
2158 455414.000   22.302185767  114.188694675     9.8685   4  17   1.3320   1.1145   2.9553  -0.2989   0.4583   1.4058   0.00    0.0
2158 455415.000   22.302192238  114.188702496    10.2950   4  17   1.3333   1.1222   2.9597  -0.2851   0.4185   1.3991   0.00    0.0
2158 455416.000   22.302194757  114.188705086    10.5387   4  17   1.3332   1.1223   2.9615  -0.2849   0.4173   1.3993   0.00    0.0
2158 455417.000   22.302197010  114.188707023    11.1182   4  17   1.3332   1.1223   2.9618  -0.2845   0.4179   1.3995   0.00    0.0
2158 455418.000   22.302200254  114.188709112    12.1621   4  17   1.3331   1.1223   2.9618  -0.2843   0.4183   1.3995   0.00    0.0
2158 455419.000   22.302203078  114.188712098    13.0451   4  17   1.3330   1.1223   2.9620  -0.2842   0.4188   1.3996   0.00    0.0
2158 455420.000   22.302206364  114.188714092    13.8724   4  17   1.3330   1.1223   2.9623  -0.2840   0.4193   1.3997   0.00    0.0
2158 455421.000   22.302210844  114.188717061    15.2927   4  17   1.3329   1.1223   2.9625  -0.2838   0.4197   1.3998   0.00    0.0
2158 455422.000   22.302213372  114.188719464    16.1344   4  17   1.3329   1.1223   2.9628  -0.2837   0.4201   1.3999   0.00    0.0
2158 455423.000   22.302216947  114.188721200    17.3132   4  17   1.3328   1.1223   2.9630  -0.2835   0.4206   1.4000   0.00    0.0
2158 455424.000   22.302218419  114.188722222    18.3332   4  17   1.3328   1.1223   2.9632  -0.2834   0.4210   1.4001   0.00    0.0
2158 455425.000   22.302220558  114.188724278    18.9739   4  17   1.3327   1.1223   2.9635  -0.2832   0.4214   1.4002   0.00    0.0
2158 455426.000   22.302221672  114.188725108    19.2848   4  17   1.3327   1.1223   2.9637  -0.2831   0.4219   1.4003   0.00    0.0
2158 455427.000   22.302193376  114.188709959    10.1730   4  16   1.4083   1.1474   3.2585   0.1691   0.7079   1.6056   0.00    0.0
2158 455428.000   22.302179936  114.188703833     4.9009   4  16   1.4219   1.1491   3.3369   0.2023   0.7391   1.6490   0.00    0.0
2158 455429.000   22.302177170  114.188703735     2.9656   4  16   1.4227   1.1491   3.3453   0.2025   0.7394   1.6525   0.00    0.0
2158 455430.000   22.302178043  114.188704028     3.3624   4  16   1.4227   1.1492   3.3460   0.2033   0.7401   1.6529   0.00    0.0
2158 455431.000   22.302180303  114.188703669     4.4445   4  16   1.4231   1.1492   3.3494   0.2042   0.7411   1.6545   0.00    0.0
2158 455432.000   22.302181584  114.188702545     5.7174   4  16   1.4234   1.1492   3.3526   0.2050   0.7420   1.6560   0.00    0.0
2158 455433.000   22.302183244  114.188702841     6.5315   4  16   1.4236   1.1493   3.3542   0.2056   0.7427   1.6568   0.00    0.0
2158 455434.000   22.302183848  114.188702551     6.9789   4  16   1.4236   1.1493   3.3548   0.2061   0.7432   1.6571   0.00    0.0
2158 455435.000   22.302183353  114.188702352     7.5598   4  16   1.4236   1.1493   3.3553   0.2065   0.7437   1.6573   0.00    0.0
2158 455436.000   22.302182601  114.188702916     7.4782   4  16   1.4236   1.1494   3.3560   0.2070   0.7443   1.6576   0.00    0.0
2158 455437.000   22.302181907  114.188701290     7.4494   4  16   1.4236   1.1494   3.3566   0.2075   0.7448   1.6579   0.00    0.0
2158 455438.000   22.302182531  114.188701050     7.4136   4  16   1.4236   1.1494   3.3572   0.2080   0.7453   1.6582   0.00    0.0
2158 455439.000   22.302181628  114.188698943     7.3978   4  16   1.4236   1.1495   3.3578   0.2084   0.7458   1.6584   0.00    0.0
2158 455440.000   22.302181772  114.188697770     7.1837   4  16   1.4236   1.1495   3.3583   0.2089   0.7463   1.6587   0.00    0.0
2158 455441.000   22.302181944  114.188698220     6.7246   4  16   1.4235   1.1495   3.3588   0.2093   0.7468   1.6589   0.00    0.0
2158 455442.000   22.302181104  114.188699423     6.6200   4  16   1.4235   1.1496   3.3593   0.2098   0.7473   1.6591   0.00    0.0
2158 455443.000   22.302170974  114.188698696     6.1361   4  16   1.4235   1.1496   3.3598   0.2102   0.7478   1.6594   0.00    0.0
2158 455444.000   22.302147066  114.188694624     5.6482   4  16   1.4235   1.1496   3.3603   0.2107   0.7483   1.6596   0.00    0.0
2158 455445.000   22.302108408  114.188681184     5.9987   4  16   1.4235   1.1497   3.3608   0.2111   0.7489   1.6598   0.00    0.0
2158 455446.000   22.302059332  114.188654448     5.5561   4  16   1.4235   1.1497   3.3614   0.2116   0.7494   1.6601   0.00    0.0
2158 455447.000   22.302021247  114.188632244    11.6660   4  17   1.3411   1.1230   3.0378  -0.2694   0.4555   1.4386   0.00    0.0
2158 455448.000   22.301964591  114.188594259    14.8774   4  17   1.2853   1.1126   2.7834  -0.4005  -0.0799   1.2564   0.00    0.0
2158 455449.000   22.301910895  114.188551898    17.0879   4  17   1.2801   1.1009   2.7303  -0.3963  -0.2474   1.2410   0.00    0.0
2158 455450.000   22.301848451  114.188497290    16.1678   4  17   1.3251   1.1216   2.9265  -0.2886   0.4090   1.3794   0.00    0.0
2158 455451.000   22.301797371  114.188441240    15.7246   4  17   1.3312   1.1222   2.9687  -0.2790   0.4340   1.4024   0.00    0.0
2158 455452.000   22.301747314  114.188388474    15.6880   4  17   1.3309   1.1223   2.9682  -0.2794   0.4324   1.4019   0.00    0.0
2158 455453.000   22.301700458  114.188356951    15.1691   4  17   1.3308   1.1223   2.9670  -0.2791   0.4333   1.4014   0.00    0.0
2158 455454.000   22.301647443  114.188297499    14.7809   4  17   1.1990   1.1871   2.6957  -0.2991  -0.2365   1.0856   0.00    0.0
2158 455455.000   22.301584372  114.188232632    11.4738   4  16   1.2150   1.2806   2.7100   0.0694   0.4398   1.1010   0.00    0.0
2158 455456.000   22.301538777  114.188158435     9.8608   4  15   1.3851   1.3478   3.1114  -0.1864   0.3904   1.4919   0.00    0.0
2158 455457.000   22.301480525  114.188063381     9.5854   4  17   1.3242   1.3098   2.8480  -0.6861  -0.9750   1.3109   0.00    0.0
2158 455458.000   22.301460621  114.187969216     5.0496   4  16   1.3458   1.3384   2.8035  -0.7414  -0.9617   1.2609   0.00    0.0
2158 455459.000   22.301449044  114.187872006     8.6887   4  18   1.0841   1.1198   2.3395  -0.4227  -0.1898   0.6667   0.00    0.0
2158 455460.000   22.301430615  114.187823151    10.3113   4  18   1.0788   1.1168   2.2838  -0.4166  -0.0833   0.6263   0.00    0.0
2158 455461.000   22.301393476  114.187804464     6.0633   4  17   1.0672   1.1455   2.2964  -0.2954   0.1702   0.6682   0.00    0.0
2158 455462.000   22.301383907  114.187745813     2.9900   4  16   1.1539   1.2182   2.3314  -0.5436   0.2881   0.6795   0.00    0.0
2158 455463.000   22.301378008  114.187735828     0.3580   4  17   1.1230   1.1790   2.3144  -0.4662   0.1753   0.7004   0.00    0.0
2158 455464.000   22.301360612  114.187740959     1.1257   4  17   1.2269   1.2131   2.5721  -0.5774  -0.3089   0.7507   0.00    0.0
2158 455465.000   22.301361608  114.187714177     3.3592   4  17   1.2284   1.2058   2.6063  -0.5729  -0.3995   0.7826   0.00    0.0
2158 455466.000   22.301364006  114.187704745     5.4616   4  17   1.2290   1.2057   2.6053  -0.5732  -0.4030   0.7844   0.00    0.0
2158 455467.000   22.301369697  114.187707895     4.2881   4  16   1.2775   1.2253   2.8030  -0.6282   0.2206   0.5104   0.00    0.0
2158 455468.000   22.301367547  114.187704936     2.1073   4  16   1.2787   1.2261   2.8525  -0.6301   0.2684   0.4832   0.00    0.0
2158 455469.000   22.301361645  114.187719886    -1.0068   4  16   1.2753   1.2160   2.8197  -0.6180  -0.0505   0.5330   0.00    0.0
2158 455470.000   22.301351614  114.187744710    -1.6128   4  13   1.7528   1.4164   2.9867  -1.0979  -0.8351   1.1207   0.00    0.0
2158 455471.000   22.301278730  114.187792098    -5.5822   4  13   2.1331   1.5518   3.0749  -1.4049  -1.0472   1.4102   0.00    0.0
2158 455472.000   22.301151377  114.187871209    -7.8419   4  14   1.9810   1.4663   3.1251  -1.2490  -1.1066   1.5166   0.00    0.0
2158 455473.000   22.301074916  114.187895481    -4.3571   4  14   2.1181   1.4739   3.0989  -1.3026  -1.1437   1.5597   0.00    0.0
2158 455474.000   22.301142517  114.187843439    -2.8601   4  14   2.2961   1.5206   3.1169  -1.4160  -1.2707   1.7973   0.00    0.0
2158 455475.000   22.301239858  114.187774843     4.7616   4  15   1.6643   1.2575   2.8848  -0.9016  -0.7921   1.3174   0.00    0.0
2158 455476.000   22.301304343  114.187725456     6.7116   4  14   1.6977   1.2874   2.8489  -0.9542  -0.7506   1.2740   0.00    0.0
2158 455477.000   22.301343205  114.187706849     3.7284   4  13   1.8660   1.3266   2.9110  -1.0766  -0.6140   1.0787   0.00    0.0
2158 455478.000   22.301346601  114.187679832     5.9446   4  14   1.7020   1.3035   2.8759  -0.9651  -0.6990   1.2553   0.00    0.0
2158 455479.000   22.301342338  114.187700848     5.8776   4  13   1.6617   1.3257   2.7699  -0.9644  -0.8186   1.4059   0.00    0.0
2158 455480.000   22.301304508  114.187772407     5.5668   4  14   1.5096   1.2777   2.7240  -0.8449  -0.7700   1.3169   0.00    0.0
2158 455481.000   22.301292412  114.187843225     0.8538   4  15   1.5732   1.3466   2.7748  -0.9570  -0.9084   1.4135   0.00    0.0
2158 455482.000   22.301355547  114.187867190     0.4627   4  14   1.3774   1.2961   2.5730  -0.7724  -0.6568   1.0906   0.00    0.0
2158 455483.000   22.301423502  114.187876447     0.6907   4  14   1.2817   1.4246   2.5077  -0.5889   0.7880   0.7331   0.00    0.0
2158 455484.000   22.301437427  114.187924647     1.1017   4  15   1.2121   1.1833   2.3457  -0.5410   0.4578   0.6585   0.00    0.0
2158 455485.000   22.301520534  114.187945778     5.7780   4  15   1.1032   1.1494   2.3180  -0.3761   0.4696   0.5661   0.00    0.0
2158 455486.000   22.301596077  114.187993058    10.6921   4  16   1.2019   1.1468   2.4191  -0.4593   0.3592   0.8134   0.00    0.0
2158 455487.000   22.301640884  114.188040320    16.1499   4  16   1.4376   1.2491   2.6796  -0.7736  -0.7486   1.2906   0.00    0.0
2158 455488.000   22.301653309  114.188106860    16.3246   4  16   1.4613   1.2575   2.7441  -0.7981  -0.8085   1.3508   0.00    0.0
2158 455489.000   22.301633035  114.188168745    13.5741   4  14   1.4046   1.3592   2.7069  -0.7836  -0.5219   1.2529   0.00    0.0
2158 455490.000   22.301616237  114.188270561    14.4878   4  15   1.3717   1.3056   2.6820  -0.7064  -0.6050   1.2797   0.00    0.0
2158 455491.000   22.301687665  114.188301810    20.8916   4  16   1.2347   1.3038   2.4464  -0.6828  -0.5641   0.9948   0.00    0.0
2158 455492.000   22.301749629  114.188284708    19.0836   4  15   1.2710   1.3605   2.4228  -0.7677  -0.4592   0.9273   0.00    0.0
2158 455493.000   22.301790963  114.188267343    16.6908   4  14   1.3723   1.3984   2.4493  -0.8541  -0.4510   0.9772   0.00    0.0
2158 455494.000   22.301770756  114.188317086    14.6223   4  16   1.2774   1.2917   2.4290  -0.7782  -0.5166   0.9199   0.00    0.0
2158 455495.000   22.301765849  114.188330999    13.5025   4  15   1.2748   1.3030   2.4435  -0.7734  -0.5722   0.9111   0.00    0.0
2158 455496.000   22.301765755  114.188331462    12.9760   4  15   1.2747   1.3029   2.4465  -0.7734  -0.5756   0.9126   0.00    0.0
2158 455497.000   22.301771179  114.188333341    14.0850   4  15   1.2745   1.3027   2.4469  -0.7731  -0.5755   0.9128   0.00    0.0
2158 455498.000   22.301774384  114.188333534    15.6136   4  14   1.2746   1.3178   2.4694  -0.7706  -0.6301   0.9095   0.00    0.0
2158 455499.000   22.301778777  114.188331540    16.1694   4  14   1.2747   1.3183   2.4736  -0.7708  -0.6341   0.9108   0.00    0.0
2158 455500.000   22.301776994  114.188332891    14.6578   4  13   1.2836   1.3348   2.5774  -0.7499  -0.5001   0.9692   0.00    0.0
2158 455501.000   22.301776649  114.188337567    13.8847   4  13   1.2845   1.3351   2.5990  -0.7489  -0.4911   0.9779   0.00    0.0
2158 455502.000   22.301777140  114.188342131    13.5690   4  13   1.2845   1.3352   2.6005  -0.7490  -0.4923   0.9784   0.00    0.0
2158 455503.000   22.301777024  114.188347243    14.4575   4  14   1.2753   1.3185   2.4941  -0.7701  -0.6303   0.9191   0.00    0.0
2158 455504.000   22.301778182  114.188347254    14.8243   4  14   1.2745   1.3184   2.4766  -0.7705  -0.6345   0.9123   0.00    0.0
2158 455505.000   22.301779475  114.188348730    14.8337   4  14   1.2745   1.3182   2.4765  -0.7704  -0.6336   0.9125   0.00    0.0
2158 455506.000   22.301777865  114.188342230    15.0612   4  15   1.2743   1.3031   2.4535  -0.7728  -0.5790   0.9159   0.00    0.0
2158 455507.000   22.301778189  114.188351011    14.0959   4  14   1.2742   1.3176   2.4709  -0.7700  -0.6291   0.9111   0.00    0.0
2158 455508.000   22.301777519  114.188365999    14.0896   4  13   1.2831   1.3347   2.5786  -0.7494  -0.4984   0.9703   0.00    0.0
2158 455509.000   22.301779473  114.188366423    14.4236   4  13   1.2841   1.3350   2.6002  -0.7483  -0.4885   0.9791   0.00    0.0
2158 455510.000   22.301780966  114.188362894    14.7609   4  13   1.2841   1.3352   2.6014  -0.7483  -0.4900   0.9795   0.00    0.0
2158 455511.000   22.301785403  114.188355784    14.9511   4  13   1.2840   1.3352   2.6019  -0.7482  -0.4893   0.9798   0.00    0.0
2158 455512.000   22.301786782  114.188354516    14.8429   4  13   1.2840   1.3352   2.6031  -0.7482  -0.4893   0.9803   0.00    0.0
2158 455513.000   22.301786758  114.188357784    15.2754   4  13   1.2840   1.3352   2.6038  -0.7481  -0.4893   0.9807   0.00    0.0
2158 455514.000   22.301788727  114.188362015    16.2083   4  13   1.2839   1.3352   2.6040  -0.7480  -0.4890   0.9808   0.00    0.0
2158 455515.000   22.301791086  114.188363368    17.3036   4  13   1.2839   1.3352   2.6041  -0.7480  -0.4887   0.9810   0.00    0.0
2158 455516.000   22.301789856  114.188363574    18.0669   4  13   1.2838   1.3352   2.6043  -0.7479  -0.4884   0.9811   0.00    0.0
2158 455517.000   22.301793241  114.188362489    18.5355   4  14   1.2816   1.3238   2.5848  -0.7390  -0.5422   0.9935   0.00    0.0
2158 455518.000   22.301792899  114.188367779    19.7545   4  14   1.2815   1.3235   2.5812  -0.7389  -0.5452   0.9937   0.00    0.0
2158 455519.000   22.301791531  114.188376290    21.9122   4  14   1.2814   1.3234   2.5812  -0.7387  -0.5446   0.9936   0.00    0.0
2158 455520.000   22.301759001  114.188419892    27.5007   4  15   1.2424   1.2860   2.5669  -0.6690  -0.6174   1.0357   0.00    0.0
2158 455521.000   22.301757479  114.188431368    31.4870   4  15   1.2419   1.2851   2.5644  -0.6676  -0.6214   1.0376   0.00    0.0
2158 455522.000   22.301763978  114.188431831    33.6333   4  15   1.2415   1.2849   2.5643  -0.6670  -0.6206   1.0374   0.00    0.0
2158 455523.000   22.301766472  114.188430324    34.0759   4  15   1.2414   1.2848   2.5644  -0.6668  -0.6205   1.0376   0.00    0.0
2158 455524.000   22.301759062  114.188432595    33.5663   4  15   1.2412   1.2692   2.5423  -0.6692  -0.5638   1.0403   0.00    0.0
2158 455525.000   22.301773469  114.188437813    32.3992   4  15   1.2410   1.2687   2.5383  -0.6686  -0.5591   1.0391   0.00    0.0
2158 455526.000   22.301786527  114.188474924    31.4684   4  16   1.2018   1.2186   2.5379  -0.5813  -0.5726   1.0455   0.00    0.0
2158 455527.000   22.301801559  114.188477238    25.3350   4  16   1.1226   1.2172   2.3814  -0.5723  -0.5585   0.8482   0.00    0.0
2158 455528.000   22.301836412  114.188501158    22.8239   4  16   1.1194   1.2168   2.3560  -0.5703  -0.5521   0.8313   0.00    0.0
2158 455529.000   22.301899979  114.188484362    19.3990   4  15   1.2150   1.2359   2.6295  -0.5342  -0.3817   1.1062   0.00    0.0
2158 455530.000   22.301949723  114.188478772    15.5022   4  15   1.2234   1.2363   2.6930  -0.5328  -0.3709   1.1430   0.00    0.0
2158 455531.000   22.302001825  114.188483366    12.0310   4  15   1.2236   1.2454   2.7185  -0.5364  -0.2944   1.1393   0.00    0.0
2158 455532.000   22.302067930  114.188508694    14.0235   4  13   1.3883   1.2457   3.0833  -0.5413  -0.3081   1.4996   0.00    0.0
2158 455533.000   22.302127515  114.188541202    16.9353   4  13   1.4101   1.2459   3.1873  -0.5441  -0.3237   1.5647   0.00    0.0
2158 455534.000   22.302185931  114.188553729    17.5364   4  13   1.4108   1.2459   3.2002  -0.5442  -0.3246   1.5690   0.00    0.0
2158 455535.000   22.302241078  114.188558663    18.1799   4  14   1.4110   1.2323   3.1781  -0.5433  -0.1837   1.5693   0.00    0.0
2158 455536.000   22.302265083  114.188575248     7.8201   4  13   1.4484   1.2374   3.4995  -0.1855   0.7335   1.7156   0.00    0.0
2158 455537.000   22.302301854  114.188586443     2.6080   4  13   1.4610   1.2394   3.5944  -0.1188   0.7823   1.7610   0.00    0.0
2158 455538.000   22.302344414  114.188596689     1.3291   4  13   1.4627   1.2392   3.6071  -0.1175   0.7815   1.7673   0.00    0.0
2158 455539.000   22.302383929  114.188605460     2.4407   4  14   1.4627   1.2393   3.6078  -0.1155   0.7824   1.7676   0.00    0.0
2158 455540.000   22.302419380  114.188598850     6.7048   4  14   1.4292   1.1994   3.5409   0.2908   0.9137   1.7053   0.00    0.0
2158 455541.000   22.302439572  114.188604184     8.2932   4  14   1.4261   1.1991   3.5287   0.2962   0.9196   1.6972   0.00    0.0
2158 455542.000   22.302440457  114.188594480     5.8698   4  14   1.4263   1.1988   3.5294   0.2960   0.9187   1.6978   0.00    0.0
2158 455543.000   22.302437079  114.188591090     3.9583   4  14   1.4262   1.1988   3.5302   0.2966   0.9194   1.6981   0.00    0.0
2158 455544.000   22.302434680  114.188591227     3.5169   4  14   1.4262   1.1988   3.5301   0.2967   0.9196   1.6981   0.00    0.0
2158 455545.000   22.302437943  114.188593087     4.0920   4  14   1.4261   1.1988   3.5301   0.2968   0.9198   1.6981   0.00    0.0
2158 455546.000   22.302436466  114.188591060     3.5588   4  14   1.4261   1.1989   3.5306   0.2970   0.9202   1.6983   0.00    0.0
2158 455547.000   22.302437419  114.188591245     3.2760   4  14   1.4260   1.1989   3.5312   0.2974   0.9207   1.6985   0.00    0.0
2158 455548.000   22.302436445  114.188592073     2.9871   4  14   1.4260   1.1990   3.5318   0.2976   0.9212   1.6988   0.00    0.0
2158 455549.000   22.302435994  114.188591798     3.1653   4  14   1.4260   1.1990   3.5323   0.2979   0.9217   1.6990   0.00    0.0
2158 455550.000   22.302439686  114.188592495     3.6936   4  14   1.4260   1.1990   3.5328   0.2982   0.9221   1.6992   0.00    0.0
2158 455551.000   22.302442573  114.188594388     4.6503   4  14   1.4259   1.1991   3.5333   0.2985   0.9226   1.6994   0.00    0.0
2158 455552.000   22.302445216  114.188596389     5.9505   4  14   1.4259   1.1991   3.5338   0.2988   0.9231   1.6996   0.00    0.0
2158 455553.000   22.302444263  114.188599615     6.8100   4  14   1.4259   1.1992   3.5344   0.2991   0.9235   1.6998   0.00    0.0
2158 455554.000   22.302446287  114.188601654     7.8655   4  14   1.4259   1.1992   3.5349   0.2994   0.9240   1.7000   0.00    0.0
2158 455555.000   22.302447508  114.188601707     7.4455   4  14   1.4258   1.1993   3.5354   0.2996   0.9245   1.7002   0.00    0.0
2158 455556.000   22.302454670  114.188595163     6.7601   4   8   1.5764   1.5413   4.1358   0.6130   1.6056   1.8593   0.00    0.0
2158 455557.000   22.302447299  114.188598238     5.6311   4  10   1.5614   1.5468   4.3325   0.7489   1.7002   1.9781   0.00    0.0
2158 455558.000   22.302428586  114.188581271    -2.8195   4  12   1.4503   1.2845   3.8045   0.2423   1.1834   1.7229   0.00    0.0
2158 455559.000   22.302426825  114.188592212    -2.3598   4  12   1.4373   1.2751   3.6934   0.1710   1.1265   1.6724   0.00    0.0
2158 455560.000   22.302434598  114.188604468    -0.4623   4  10   1.5776   1.4904   4.1912   0.5948   1.6753   1.8822   0.00    0.0
2158 455561.000   22.302444853  114.188613232    -0.3391   4  10   1.5987   1.5179   4.3680   0.6507   1.7774   1.9599   0.00    0.0
2158 455562.000   22.302442676  114.188593665     0.4088   4   8   1.6041   1.5796   4.4005   0.6807   1.7539   1.9667   0.00    0.0
2158 455563.000   22.302442441  114.188588335     2.4830   4   8   1.5321   1.3644   4.0072  -0.2312   1.2592   1.5825   0.00    0.0
2158 455564.004   22.302448744  114.188626143    11.3068   4  13   1.4348   1.2378   3.6458   0.2633   1.0192   1.7120   0.00    0.0
2158 455565.000   22.302481254  114.188647089    17.7129   4  12   1.5224   1.3736   3.8962   0.6148   1.3846   1.9173   0.00    0.0
2158 455566.000   22.302510127  114.188611053     9.8999   4   8   1.5951   1.5655   4.2896   0.6616   1.6977   1.9321   0.00    0.0
2158 455567.000   22.302535915  114.188588555     4.1983   4   8   1.6009   1.5812   4.3949   0.6790   1.7516   1.9606   0.00    0.0
2158 455568.000   22.302576075  114.188572845     2.8216   4   7   1.6093   1.5890   4.4924   0.6659   1.7152   1.9975   0.00    0.0
2158 455569.000   22.302622615  114.188558784     2.1836   4   8   1.6056   1.5824   4.4247   0.6818   1.7561   1.9756   0.00    0.0
2158 455570.000   22.302642728  114.188558888     0.1446   4  14   1.1381   1.2378   2.8493  -0.1892   0.5378   0.9454   0.00    0.0
2158 455571.000   22.302708822  114.188531782    -1.3894   4  15   1.2086   1.1896   2.8952  -0.1978   0.7104   1.1701   0.00    0.0
2158 455572.000   22.302770048  114.188507571    -1.7186   4  15   1.2227   1.2291   2.9577   0.1045   0.6579   1.1822   0.00    0.0
2158 455573.000   22.302820917  114.188462862    -3.3786   4  15   1.2235   1.2051   2.9145   0.1699   0.4662   1.1744   0.00    0.0
2158 455574.000   22.302876778  114.188422644    -3.5083   4  15   1.2228   1.2047   2.8942   0.1681   0.4527   1.1681   0.00    0.0
2158 455575.000   22.302932998  114.188378687    -4.4204   4  14   1.2474   1.2985   2.9447   0.3862   0.6928   1.2249   0.00    0.0
2158 455576.000   22.302986532  114.188322213    -3.0118   4  13   1.2749   1.5390   3.0972   0.5789  -0.1664   1.1601   0.00    0.0
2158 455577.000   22.303035805  114.188263530    -1.2275   4  13   1.2753   1.5510   3.1344   0.5823  -0.3133   1.1600   0.00    0.0
2158 455578.000   22.303086992  114.188195237     0.0413   4  13   1.2760   1.5290   3.1115   0.5822  -0.4450   1.1610   0.00    0.0
2158 455579.000   22.303154979  114.188162424    -0.1247   4  14   1.2446   1.4245   3.0659   0.4274  -0.6961   1.0970   0.00    0.0
2158 455580.000   22.303205272  114.188102088     0.6498   4  15   1.2149   1.4028   2.8739   0.3415  -0.8639   0.9566   0.00    0.0
2158 455581.000   22.303256548  114.188035743    -0.7818   4  13   1.4120   1.4219   3.4688   0.4564  -0.6544   1.5176   0.00    0.0
2158 455582.000   22.303318660  114.187934939    -0.5658   4  14   1.2609   1.6290   3.3193   0.5397  -1.1645   1.0718   0.00    0.0
2158 455583.000   22.303372499  114.187842677     2.1968   4  13   1.4250   1.6440   3.7962   0.5317  -1.2230   1.5260   0.00    0.0
2158 455584.000   22.303440010  114.187747701     7.2902   4  14   1.2615   1.6633   3.3914   0.5393  -1.1814   1.0753   0.00    0.0
2158 455585.000   22.303520558  114.187676477     8.2619   4  13   1.4272   1.6637   3.8366   0.5415  -1.1727   1.5385   0.00    0.0
2158 455586.000   22.303589563  114.187600983     8.2397   4  13   1.4524   1.6645   4.0044   0.5264  -1.1989   1.6378   0.00    0.0
2158 455587.000   22.303626342  114.187530501     7.5217   4  12   1.5689   1.8370   4.1927   0.8557  -0.7607   1.8396   0.00    0.0
2158 455588.000   22.303663160  114.187510422     9.0443   4   7   1.9364   2.0295   4.8044   0.9450  -1.2529   2.1341   0.00    0.0
2158 455589.004   22.303684317  114.187544958     3.8499   4   2   2.3258   2.7811   6.3498   0.9136  -2.4322   2.5173   0.00    0.0
2158 455590.000   22.303612944  114.187114593     1.1940   4   8   2.3365   4.1019   6.5580   1.4516  -2.4292   3.1421   0.00    0.0
2158 455591.000   22.303634421  114.186717675     1.2589   4   8   2.6741   2.9196   6.1369   2.0446   2.4654   3.5797   0.00    0.0
2158 455592.000   22.303757691  114.186413568    39.7840   4  11   2.1733   2.9500   5.3356   1.7886   2.1071   2.8916   0.00    0.0
2158 455593.000   22.303908830  114.186397303    73.1491   4  12   2.1963   2.2877   5.5858   1.3223   1.9875   3.1021   0.00    0.0
2158 455594.000   22.304099237  114.186519008   112.3271   4  11   2.0382   1.5710   4.8150   0.7125   1.2032   2.6835   0.00    0.0
2158 455595.000   22.304214754  114.186556599   115.2637   4  12   1.8389   1.7253   4.5874  -0.3139  -1.3283   2.2804   0.00    0.0
2158 455596.000   22.304235302  114.186637683    85.9487   4  10   1.8503   2.4468   5.6506  -0.8556  -2.7838   2.4801   0.00    0.0
2158 455597.000   22.304217828  114.186634782    56.1202   4  10   1.8901   2.6110   6.1741  -1.0353  -3.1625   2.6649   0.00    0.0
2158 455598.000   22.304160271  114.186700175    12.0838   4  12   1.7022   2.0171   5.1298  -0.4604  -2.0813   2.2219   0.00    0.0
2158 455599.000   22.304111871  114.186678281   -11.7244   4  10   1.8077   1.7143   4.4170   0.7010  -1.1272   2.0401   0.00    0.0
2158 455600.000   22.304119738  114.186675874   -21.2923   4  10   1.8767   1.9447   4.8251   0.2456  -1.7687   2.2627   0.00    0.0
2158 455601.000   22.304162719  114.186652807   -20.9026   4  10   1.8996   1.9742   5.0185  -0.2153  -1.9027   2.3507   0.00    0.0
2158 455602.000   22.304206744  114.186610181    -7.9395   4  10   1.8218   1.7127   4.4380   0.7038  -1.1246   2.0647   0.00    0.0
2158 455603.000   22.304233580  114.186577307    -0.8219   4  10   1.8078   1.7020   4.3040   0.7341  -1.0270   2.0050   0.00    0.0
2158 455604.000   22.304263090  114.186564495     2.7661   4  10   1.8056   1.7016   4.2868   0.7323  -1.0334   1.9966   0.00    0.0
2158 455605.000   22.304343867  114.186555440    11.5164   4  11   1.6472   1.6916   4.1824   0.6359  -1.1114   1.8128   0.00    0.0
2158 455606.000   22.304354831  114.186519381    14.7087   4  11   1.7096   1.6954   4.2028   0.6782  -1.0801   1.8737   0.00    0.0
2158 455607.000   22.304357592  114.186484559    15.4062   4  11   1.7145   1.6952   4.2098   0.6798  -1.0750   1.8845   0.00    0.0
2158 455608.000   22.304363693  114.186458435    13.9940   4  11   1.7139   1.6950   4.2095   0.6796  -1.0755   1.8835   0.00    0.0
2158 455609.000   22.304367285  114.186434047    11.8585   4  11   1.7138   1.6949   4.2086   0.6799  -1.0746   1.8831   0.00    0.0
2158 455610.000   22.304369646  114.186416138     9.8179   4  11   1.7138   1.6947   4.2087   0.6801  -1.0737   1.8834   0.00    0.0
2158 455611.000   22.304375299  114.186384000    13.8058   4  12   1.6477   1.8868   4.4222   0.5258  -1.6399   1.8733   0.00    0.0
2158 455612.000   22.304372882  114.186359399    15.7619   4  12   1.6468   1.9076   4.4928   0.4927  -1.7161   1.8884   0.00    0.0
2158 455613.000   22.304365266  114.186381157    13.3023   4  12   1.6382   1.6689   4.1753   0.6382  -1.2512   1.8252   0.00    0.0
2158 455614.000   22.304370166  114.186372782     9.3199   4  12   1.6352   1.6729   4.1232   0.6450  -1.1554   1.7957   0.00    0.0
2158 455615.000   22.304368622  114.186382387     8.3559   4  12   1.6334   1.6577   4.1022   0.6538  -1.1945   1.7995   0.00    0.0
2158 455616.000   22.304365021  114.186380817     7.6957   4  12   1.6336   1.6569   4.1006   0.6527  -1.1964   1.8001   0.00    0.0
2158 455617.000   22.304368583  114.186370506     9.3125   4  12   1.6333   1.6565   4.0993   0.6535  -1.1943   1.7997   0.00    0.0
2158 455618.000   22.304371624  114.186370349    10.6367   4  12   1.6330   1.6563   4.0976   0.6536  -1.1938   1.7988   0.00    0.0
2158 455619.000   22.304373896  114.186369187    11.7262   4  12   1.6328   1.6562   4.0970   0.6537  -1.1934   1.7984   0.00    0.0
2158 455620.000   22.304376327  114.186363339    12.8131   4  12   1.6327   1.6560   4.0974   0.6539  -1.1928   1.7985   0.00    0.0
2158 455621.000   22.304375009  114.186359467    13.4688   4  12   1.6327   1.6559   4.0981   0.6539  -1.1924   1.7989   0.00    0.0
2158 455622.000   22.304381343  114.186359499    13.5722   4  12   1.6326   1.6557   4.0989   0.6540  -1.1921   1.7992   0.00    0.0
2158 455623.000   22.304389355  114.186367947    12.4030   4  12   1.6326   1.6556   4.0996   0.6541  -1.1916   1.7994   0.00    0.0
2158 455624.000   22.304387580  114.186368167    11.1848   4  12   1.6325   1.6554   4.1002   0.6541  -1.1912   1.7997   0.00    0.0
2158 455625.000   22.304392468  114.186364682    10.2548   4  12   1.6324   1.6553   4.1009   0.6542  -1.1908   1.8000   0.00    0.0
2158 455626.000   22.304403847  114.186369174     9.2064   4  12   1.6324   1.6551   4.1016   0.6543  -1.1904   1.8003   0.00    0.0
2158 455627.000   22.304412505  114.186371303     9.8902   4  13   1.5313   1.6383   3.6942   0.5436  -1.3546   1.4946   0.00    0.0
2158 455628.000   22.304418988  114.186373177     9.3776   4  13   1.5214   1.6379   3.6136   0.5479  -1.3467   1.4494   0.00    0.0
2158 455629.000   22.304420812  114.186373266     7.7783   4  13   1.5212   1.6366   3.6077   0.5489  -1.3415   1.4484   0.00    0.0
2158 455630.000   22.304421203  114.186368354     5.2744   4  13   1.5209   1.6363   3.6075   0.5486  -1.3417   1.4479   0.00    0.0
2158 455631.000   22.304429224  114.186349529     3.0437   4  13   1.5206   1.6360   3.6041   0.5492  -1.3400   1.4465   0.00    0.0
2158 455632.000   22.304458749  114.186331407     4.8751   4  13   1.5204   1.6356   3.6014   0.5498  -1.3382   1.4457   0.00    0.0
2158 455633.000   22.304486784  114.186301110     4.5672   4  12   1.6129   1.6527   3.9693   0.6566  -1.1788   1.7290   0.00    0.0
2158 455634.000   22.304525234  114.186268068     5.9293   4  12   1.6301   1.6526   4.0823   0.6580  -1.1754   1.7932   0.00    0.0
2158 455635.000   22.304564011  114.186226950     7.7677   4  12   1.6310   1.6534   4.0986   0.6557  -1.1835   1.7990   0.00    0.0
2158 455636.000   22.304604976  114.186181627     8.9820   4  12   1.8123   1.7522   4.0997   0.9426  -1.1978   1.7859   0.00    0.0
2158 455637.000   22.304632574  114.186132415     9.9429   4  12   1.8219   1.7591   4.1033   0.9578  -1.1998   1.7861   0.00    0.0
2158 455638.000   22.304688978  114.186117270    14.1050   4  11   2.1006   2.0395   4.3117   1.4126  -0.3013   2.1366   0.00    0.0
2158 455639.000   22.304683851  114.186043899    14.1539   4  11   1.8355   1.8613   4.3669   1.0691  -0.4476   2.1122   0.00    0.0
2158 455640.000   22.304770034  114.186051962    16.7275   4  11   1.8230   1.8522   4.3755   1.0485  -0.4976   2.1069   0.00    0.0
2158 455641.000   22.304824647  114.186034362    18.7394   4  11   1.8228   1.8530   4.3758   1.0489  -0.4945   2.1077   0.00    0.0
2158 455642.000   22.304865641  114.185998461    23.6411   4  13   1.7699   1.5039   4.0181   0.7049  -0.6031   1.9709   0.00    0.0
2158 455643.000   22.304869003  114.185952795    23.9732   4  12   1.9653   1.6676   4.2442   1.0623   0.8968   2.2635   0.00    0.0
2158 455644.000   22.304884575  114.185935246    21.4989   4  13   1.7784   1.4970   3.9984   0.7141  -0.5258   1.9797   0.00    0.0
2158 455645.000   22.304893948  114.185946033    14.3835   4  13   1.6005   1.3334   3.8539   0.3330  -0.0881   1.9306   0.00    0.0
2158 455646.000   22.304928095  114.185971902    12.4726   4  13   1.7215   1.3527   3.8457   0.5211   0.3484   1.9840   0.00    0.0
2158 455647.000   22.304963749  114.186000893    12.5281   4  13   1.7262   1.3522   3.8489   0.5238   0.3567   1.9899   0.00    0.0
2158 455648.000   22.304986663  114.186039522    14.0824   4  13   1.7257   1.3520   3.8487   0.5235   0.3556   1.9889   0.00    0.0
2158 455649.000   22.304987382  114.186116694    10.6104   4  12   1.7665   1.5746   4.0704  -0.1742  -0.9721   2.1109   0.00    0.0
2158 455650.000   22.304985027  114.186156922     8.2918   4  12   1.7776   1.5880   4.1379  -0.2668  -1.0476   2.1457   0.00    0.0
2158 455651.000   22.305091239  114.186223279    13.0471   4  11   1.8699   1.6789   4.1856   0.2045  -0.9677   2.1531   0.00    0.0
2158 455652.000   22.305146235  114.186272948    15.1780   4  11   1.8741   1.6831   4.1960   0.2254  -0.9594   2.1571   0.00    0.0
2158 455653.000   22.305187499  114.186311999    19.7811   4  12   1.8750   1.6836   4.1993   0.2256  -0.9603   2.1589   0.00    0.0
2158 455654.000   22.305172871  114.186318703    16.9476   4  12   1.7935   1.6474   4.2008  -0.3728  -0.9760   2.1479   0.00    0.0
2158 455655.000   22.305190180  114.186383466    13.6781   4  12   1.8358   1.6576   4.4797  -0.7566  -1.2550   2.3668   0.00    0.0
2158 455656.000   22.305247168  114.186447699    12.2558   4  12   1.8040   1.6473   4.2708  -0.4169  -1.0127   2.1893   0.00    0.0
2158 455657.000   22.305264296  114.186464961     7.5329   4  12   1.9794   1.6733   4.5226  -0.6329  -1.2032   2.4531   0.00    0.0
2158 455658.000   22.305251267  114.186470789     1.5623   4  12   1.8111   1.6475   4.2781  -0.4073  -1.0054   2.1983   0.00    0.0
2158 455659.000   22.305276351  114.186482081     0.6038   4  12   1.7639   1.5230   4.0997   0.2290  -0.3280   2.0604   0.00    0.0
2158 455660.000   22.305371116  114.186433365     6.3931   4  13   1.7539   1.4854   4.0348   0.1695   0.3467   2.0577   0.00    0.0
2158 455661.000   22.305441075  114.186353597     4.2377   4  12   1.7505   1.4186   4.0209   0.4212   0.6977   1.9511   0.00    0.0
2158 455662.000   22.305464741  114.186297127     6.1822   4  11   1.7803   1.6265   4.2270   0.5783  -0.8715   1.9327   0.00    0.0
2158 455663.000   22.305456175  114.186231612    16.6610   4  11   1.8658   2.0041   4.6748   0.9105  -1.6849   1.6700   0.00    0.0
2158 455664.000   22.305491547  114.186194273    24.8606   4  11   1.8449   2.0484   4.7541   0.9396  -1.8259   1.7193   0.00    0.0
2158 455665.000   22.305518702  114.186164919    26.9922   4  11   1.8482   2.0491   4.7601   0.9388  -1.8246   1.7361   0.00    0.0
2158 455666.000   22.305553156  114.186135581    26.9598   4  11   1.8491   2.0501   4.7596   0.9424  -1.8222   1.7358   0.00    0.0
2158 455667.000   22.305589406  114.186102976    24.8122   4  11   1.8491   2.0504   4.7649   0.9425  -1.8240   1.7373   0.00    0.0
2158 455668.000   22.305616282  114.186038224    25.3887   4  11   1.8496   2.0504   4.7713   0.9423  -1.8247   1.7405   0.00    0.0
2158 455669.000   22.305624569  114.185997112    24.6433   4  10   1.8524   2.0659   4.8020   0.9292  -1.7887   1.7284   0.00    0.0
2158 455670.000   22.305634415  114.185861489    44.0385   4   9   2.1328   3.2141   5.4938   1.6837  -2.4475   1.9902   0.00    0.0
2158 455671.000   22.305663483  114.185797513    61.9208   4   9   2.1871   3.4268   5.7700   1.7900  -2.6809   2.0480   0.00    0.0
2158 455672.000   22.305705883  114.185777829    71.3519   4   9   2.1883   3.4331   5.8308   1.7864  -2.7114   2.0634   0.00    0.0
2158 455673.000   22.305770405  114.185858794    76.6453   4  10   1.8723   2.7360   5.7900   0.9182  -2.9722   1.8578   0.00    0.0
2158 455674.000   22.305835546  114.185879950    78.1459   4  10   1.8570   2.7189   5.7828   0.8774  -2.9915   1.8359   0.00    0.0
2158 455675.000   22.305866562  114.185897921    77.4189   4  10   1.8566   2.7152   5.7893   0.8729  -2.9915   1.8394   0.00    0.0
2158 455676.000   22.305897153  114.185910319    70.9083   4  10   1.8553   2.7119   5.7968   0.8660  -2.9941   1.8420   0.00    0.0
2158 455677.000   22.306068033  114.186203657    26.4428   4   9   2.1857   3.5383   6.7038   1.8373  -4.0755  -0.6981   0.00    0.0
2158 455678.000   22.306199592  114.186453604   -22.4320   4   8   2.5361   3.8572   7.1827   2.2000  -4.5514  -1.8239   0.00    0.0
2158 455679.000   22.306306646  114.186612799   -59.8412   4   8   2.6240   3.9832   7.6517   2.3331  -4.8273  -2.2213   0.00    0.0
2158 455680.000   22.306255838  114.186571861   -71.1806   4   7   2.6062   4.6344   7.4633   2.7347  -4.7230  -1.5086   0.00    0.0
2158 455681.000   22.306210787  114.186447210   -49.0169   4   9   2.5670   4.5213   6.3601   2.6440  -4.0655   0.8476   0.00    0.0
2158 455682.000   22.306224853  114.186386196   -29.2202   4   9   2.5663   4.4552   6.0936   2.6349  -3.8866   0.9286   0.00    0.0
2158 455683.000   22.306269717  114.186360949   -14.8830   4   9   2.5682   4.4520   6.0622   2.6439  -3.8626   0.9097   0.00    0.0
2158 455684.000   22.306323723  114.186323725    -6.1383   4   9   2.5700   4.4557   5.9806   2.6465  -3.8486   0.9627   0.00    0.0
2158 455685.000   22.306277708  114.186080799    17.0989   4  10   2.2026   3.5291   5.5234   1.8477  -2.9454   1.9655   0.00    0.0
2158 455686.000   22.306302004  114.185978386    37.1003   4  10   2.3642   3.4982   6.0928   1.6361  -3.0804   2.5322   0.00    0.0
2158 455687.000   22.306328398  114.185927870    48.3343   4   9   2.3950   3.5192   6.4057   1.5916  -3.1714   2.6654   0.00    0.0
2158 455688.000   22.306329588  114.185885160    52.2899   4   9   2.3966   3.5214   6.4886   1.5755  -3.2044   2.6944   0.00    0.0
2158 455689.000   22.306335610  114.185820573    57.4318   4   9   2.3969   3.5197   6.4952   1.5729  -3.2051   2.6982   0.00    0.0
2158 455690.000   22.306345500  114.185737853    61.9723   4  10   2.0541   2.8733   6.4716  -0.1754  -3.3635   2.5752   0.00    0.0
2158 455691.000   22.306299743  114.185560470    66.1988   4  10   2.0377   2.8538   6.4703  -0.3427  -3.3766   2.5636   0.00    0.0
2158 455692.000   22.306198799  114.185262410    63.0139   4  10   2.0372   2.8508   6.4754  -0.3554  -3.3773   2.5661   0.00    0.0
2158 455693.000   22.306182053  114.185139241    59.5806   4   8   2.3311   3.0619   7.2675  -1.1923  -3.9026   3.2463   0.00    0.0
2158 455694.000   22.306176501  114.185130246    54.0401   4  10   2.0457   2.8586   6.3431  -0.4375  -3.3681   2.5614   0.00    0.0
2158 455695.000   22.306199070  114.185114684    56.6531   4   8   2.3152   3.0442   7.1681  -1.1544  -3.8523   3.1956   0.00    0.0
2158 455696.000   22.306226860  114.185063549    66.7555   4   8   2.3955   3.1296   7.5855  -1.3354  -4.0797   3.4281   0.00    0.0
2158 455697.000   22.306228870  114.184978816    80.6568   4   8   2.4102   3.1549   7.7184  -1.3747  -4.1487   3.4834   0.00    0.0
2158 455698.000   22.306256428  114.184915198    92.1853   4   7   2.7176   3.6432   7.7760   0.6094  -3.9948   3.6213   0.00    0.0
2158 455699.000   22.306332111  114.184900909    96.3163   4   7   2.7751   3.7062   7.7919   0.8716  -3.9493   3.6603   0.00    0.0
2158 455700.000   22.306370321  114.184877866    98.1563   4   7   2.7761   3.7063   7.7996   0.8694  -3.9512   3.6642   0.00    0.0
2158 455701.000   22.306411483  114.184851222   100.3321   4   7   2.7782   3.7141   7.8081   0.8791  -3.9568   3.6663   0.00    0.0
2158 455702.000   22.306427764  114.184860727    97.7441   4   7   2.7801   3.7174   7.8159   0.8833  -3.9593   3.6698   0.00    0.0
2158 455703.000   22.306456934  114.184864105    96.1276   4   8   2.4348   3.1806   7.7768  -1.3438  -4.1567   3.5175   0.00    0.0
2158 455704.000   22.306446047  114.184811469    94.9812   4   8   2.4148   3.1683   7.7677  -1.3754  -4.1709   3.4996   0.00    0.0
2158 455705.000   22.306404205  114.184853885    74.3919   4   9   2.3464   3.4653   6.4376   1.4207  -3.2978   2.6643   0.00    0.0
2158 455706.000   22.306353389  114.184895778    51.7646   4  11   1.8635   2.7314   5.6037   0.8467  -2.9337   2.0425   0.00    0.0
2158 455707.000   22.306349992  114.184915953    39.9088   4  12   1.7198   2.5558   5.4248   0.4445  -2.8004   2.0244   0.00    0.0
2158 455708.000   22.306342619  114.184912011    31.0211   4  12   1.7171   2.5454   5.4685   0.4308  -2.7847   2.0185   0.00    0.0
2158 455709.000   22.306325507  114.184911134    26.6800   4  12   1.7149   2.5417   5.4769   0.4231  -2.7853   2.0186   0.00    0.0
2158 455710.000   22.306326832  114.184924146    24.9308   4  11   1.9416   2.5767   5.7777  -0.4699  -2.9231   2.4030   0.00    0.0
2158 455711.000   22.306324048  114.184926249    23.6838   4  11   1.9677   2.5872   5.8726  -0.5462  -2.9649   2.4733   0.00    0.0
2158 455712.000   22.306327567  114.184935400    23.8395   4  11   1.9675   2.5886   5.8873  -0.5479  -2.9711   2.4755   0.00    0.0
2158 455713.000   22.306329442  114.184940309    24.4853   4  11   1.9672   2.5881   5.8863  -0.5455  -2.9700   2.4743   0.00    0.0
2158 455714.000   22.306366176  114.184926196    33.5009   4  12   1.9014   2.6864   6.1967  -0.7360  -3.2053   2.5410   0.00    0.0
2158 455715.000   22.306383119  114.184920709    37.9425   4  12   1.9057   2.7120   6.3096  -0.7803  -3.2742   2.5789   0.00    0.0
2158 455716.000   22.306417013  114.184905862    46.9753   4  11   2.2939   2.8350   7.0753  -1.2887  -3.6558   3.2741   0.00    0.0
2158 455717.000   22.306426929  114.184894884    50.7170   4  11   2.3754   2.8890   7.4067  -1.4161  -3.8188   3.4747   0.00    0.0
2158 455718.000   22.306432081  114.184903458    51.5526   4  11   2.3850   2.9048   7.4987  -1.4389  -3.8649   3.5109   0.00    0.0
2158 455719.000   22.306432819  114.184900061    52.4856   4  11   2.3857   2.9069   7.5125  -1.4409  -3.8714   3.5150   0.00    0.0
2158 455720.000   22.306431369  114.184893104    53.1965   4  11   2.3861   2.9067   7.5163  -1.4412  -3.8720   3.5168   0.00    0.0
2158 455721.000   22.306436434  114.184897652    52.2181   4  11   2.3870   2.9075   7.5252  -1.4428  -3.8754   3.5204   0.00    0.0
2158 455722.000   22.306438732  114.184906298    51.3848   4  11   2.3881   2.9088   7.5357  -1.4450  -3.8798   3.5248   0.00    0.0
2158 455723.000   22.306438882  114.184907181    51.3465   4  11   2.3889   2.9095   7.5434  -1.4465  -3.8828   3.5282   0.00    0.0
2158 455724.000   22.306445701  114.184893836    52.2148   4  10   2.4024   3.1083   7.6866  -1.3484  -4.0837   3.4774   0.00    0.0
2158 455725.000   22.306377051  114.184935234    31.5852   4  12   1.9537   2.7818   6.6809  -0.9101  -3.4678   2.7463   0.00    0.0
2158 455726.000   22.306368876  114.184925156    24.1123   4  12   1.9121   2.7229   6.4186  -0.8037  -3.3182   2.6169   0.00    0.0
2158 455727.000   22.306433281  114.184891147    22.5542   4  12   1.7826   2.8173   5.6584  -0.2151  -3.2990   1.8933   0.00    0.0
2158 455728.000   22.306434451  114.184898162    11.0091   4  13   1.5184   1.9900   4.4591  -0.4431  -2.0732   1.7283   0.00    0.0
2158 455729.000   22.306505485  114.184877581    11.2458   4  11   1.6243   2.4207   4.9604  -0.7362  -2.7078   1.9265   0.00    0.0
2158 455730.000   22.306549734  114.184837970    10.6192   4  11   1.6316   2.4978   5.0256  -0.8035  -2.8348   1.9590   0.00    0.0
2158 455731.000   22.306577862  114.184727330    26.9402   4  12   1.7534   1.8006   4.0278  -0.1483  -1.6556   1.7796   0.00    0.0
2158 455732.000   22.306597772  114.184661737    35.4006   4  13   1.6428   1.5285   3.6561  -0.5094  -1.1374   1.7826   0.00    0.0
2158 455733.000   22.306659774  114.184658636    43.0241   4  13   1.7200   1.5209   3.5908  -0.4100  -1.1109   1.8119   0.00    0.0
2158 455734.000   22.306678566  114.184695058    39.6682   4  13   1.5460   1.5310   3.6657  -0.6541  -1.2006   1.7869   0.00    0.0
2158 455735.000   22.306696871  114.184679380    36.5973   4  12   1.5381   1.5316   3.6039  -0.6616  -1.2141   1.7656   0.00    0.0
2158 455736.000   22.306653772  114.184661926    15.4687   4  12   1.6670   1.7392   4.2436  -0.5376  -1.4676   2.0631   0.00    0.0
2158 455737.000   22.306659991  114.184638797     7.7279   4  12   1.6944   2.3783   4.9619   0.5170  -2.4298   1.9381   0.00    0.0
2158 455738.000   22.306665308  114.184587627    15.5893   4  13   1.6958   1.7674   4.2785   0.5189  -1.3511   1.9471   0.00    0.0
2158 455739.000   22.306659365  114.184579339    20.7069   4  14   1.5663   1.3641   3.8454  -0.1630   0.1659   1.9292   0.00    0.0
2158 455740.000   22.306650874  114.184609858    15.2690   4  14   1.5518   1.2867   3.7273  -0.2593   0.5872   1.9152   0.00    0.0
2158 455741.000   22.306652662  114.184633566    11.3696   4  14   1.7123   1.2266   3.7823   0.3429   0.8307   2.0507   0.00    0.0
2158 455742.000   22.306629364  114.184632336     4.1118   4  13   1.8626   1.3626   4.1380   0.7413   1.3023   2.3318   0.00    0.0
2158 455743.000   22.306607168  114.184622447    -1.4987   4  13   1.9228   1.4928   4.2411   0.9003   1.3219   2.3810   0.00    0.0
2158 455744.000   22.306621791  114.184639341     2.6544   4  14   1.7551   1.3193   3.9109   0.5061   0.7409   2.0893   0.00    0.0
2158 455745.000   22.306630377  114.184647731     5.3632   4  14   1.7356   1.3150   3.8383   0.4771   0.6812   2.0418   0.00    0.0
2158 455746.000   22.306636841  114.184651910     6.8231   4  14   1.7355   1.3148   3.8353   0.4798   0.6882   2.0410   0.00    0.0
2158 455747.000   22.306645141  114.184655646     9.2295   4  14   1.7358   1.3146   3.8394   0.4795   0.6882   2.0428   0.00    0.0
2158 455748.000   22.306644068  114.184654072     9.5177   4  14   1.7356   1.3147   3.8387   0.4801   0.6892   2.0424   0.00    0.0
2158 455749.000   22.306641761  114.184652386     9.2799   4  14   1.7351   1.3147   3.8365   0.4807   0.6906   2.0413   0.00    0.0
2158 455750.000   22.306639553  114.184655325     9.7245   4  14   1.7348   1.3148   3.8356   0.4811   0.6915   2.0408   0.00    0.0
2158 455751.000   22.306643221  114.184653313    10.2634   4  14   1.7347   1.3148   3.8360   0.4816   0.6924   2.0409   0.00    0.0
2158 455752.000   22.306643019  114.184641208     9.0506   4  14   1.6065   1.2965   3.8027   0.2983   0.6076   1.9577   0.00    0.0
2158 455753.000   22.306630485  114.184615978     4.5839   4  13   1.7082   1.4408   4.0528   0.6786   1.1209   2.1560   0.00    0.0
2158 455754.000   22.306626175  114.184628829     2.5340   4  14   1.5989   1.2363   3.8036   0.4379   0.8199   1.9508   0.00    0.0
2158 455755.000   22.306621936  114.184624603     0.8501   4  14   1.5840   1.2311   3.7430   0.4162   0.7824   1.9126   0.00    0.0
2158 455756.000   22.306620840  114.184615382     0.5575   4  14   1.5834   1.2305   3.7365   0.4174   0.7851   1.9102   0.00    0.0
2158 455757.000   22.306619607  114.184609318     1.3451   4  14   1.5835   1.2303   3.7387   0.4175   0.7856   1.9112   0.00    0.0
2158 455758.000   22.306616476  114.184603448     1.9407   4  14   1.5834   1.2303   3.7388   0.4176   0.7858   1.9111   0.00    0.0
2158 455759.000   22.306614897  114.184598169     2.7075   4  14   1.5831   1.2303   3.7378   0.4178   0.7863   1.9106   0.00    0.0
2158 455760.000   22.306612119  114.184590313     2.6025   4  14   1.5830   1.2303   3.7374   0.4181   0.7868   1.9104   0.00    0.0
2158 455761.000   22.306609695  114.184587618     3.1717   4  14   1.5829   1.2303   3.7378   0.4183   0.7874   1.9105   0.00    0.0
2158 455762.000   22.306611848  114.184592331     4.6925   4  14   1.4987   1.2286   3.6819   0.3769   0.7607   1.8223   0.00    0.0
2158 455763.000   22.306616151  114.184592165     6.6650   4  14   1.4933   1.2284   3.6691   0.3741   0.7574   1.8116   0.00    0.0
2158 455764.000   22.306621983  114.184590705     8.4484   4  14   1.4933   1.2284   3.6683   0.3743   0.7579   1.8118   0.00    0.0
2158 455765.000   22.306616029  114.184593778     7.2551   4  14   1.5225   1.2865   3.7324   0.1630   0.5596   1.8674   0.00    0.0
2158 455766.000   22.306616945  114.184595701     6.7901   4  14   1.5263   1.2879   3.7487   0.1426   0.5416   1.8775   0.00    0.0
2158 455767.000   22.306630809  114.184613673    10.7007   4  13   1.6118   1.4225   3.9760   0.5776   1.0461   2.0521   0.00    0.0
2158 455768.000   22.306621837  114.184604239     9.2447   4  14   1.5367   1.2921   3.8000   0.1969   0.5985   1.9070   0.00    0.0
2158 455769.000   22.306617866  114.184602230     8.7671   4  14   1.5267   1.2888   3.7568   0.1430   0.5418   1.8805   0.00    0.0
2158 455770.000   22.306634779  114.184625256    13.3709   4  13   1.6117   1.4231   3.9788   0.5788   1.0490   2.0531   0.00    0.0
2158 455771.000   22.306645838  114.184636745    16.4958   4  13   1.6277   1.4310   4.0483   0.6079   1.1014   2.0941   0.00    0.0
2158 455772.000   22.306633310  114.184636172    16.6977   4  13   1.7676   1.4654   4.1180   0.7648   1.1959   2.2099   0.00    0.0
2158 455773.000   22.306623187  114.184632509    14.6730   4  13   1.7782   1.4682   4.1346   0.7758   1.2097   2.2262   0.00    0.0
2158 455774.000   22.306613709  114.184631316    12.7605   4  13   1.7783   1.4683   4.1387   0.7762   1.2104   2.2271   0.00    0.0
2158 455775.000   22.306603671  114.184608759     6.4957   4  14   1.5442   1.2933   3.8294   0.2128   0.6083   1.9241   0.00    0.0
2158 455776.000   22.306590522  114.184598282     1.5856   4  14   1.5273   1.2893   3.7672   0.1523   0.5484   1.8842   0.00    0.0
2158 455777.000   22.306582353  114.184595289    -0.8275   4  14   1.5269   1.2887   3.7632   0.1565   0.5566   1.8833   0.00    0.0
2158 455778.000   22.306590962  114.184603812     0.4604   4  14   1.5266   1.2885   3.7635   0.1555   0.5563   1.8831   0.00    0.0
2158 455779.000   22.306605400  114.184609119     2.9847   4  14   1.5261   1.2885   3.7611   0.1566   0.5575   1.8820   0.00    0.0
2158 455780.000   22.306617501  114.184612814     5.4664   4  14   1.5257   1.2885   3.7591   0.1580   0.5591   1.8810   0.00    0.0
2158 455781.000   22.306613573  114.184629314     4.7037   4  14   1.4960   1.2300   3.6946   0.3740   0.7609   1.8250   0.00    0.0
2158 455782.000   22.306614390  114.184632014     4.7031   4  14   1.4927   1.2292   3.6804   0.3801   0.7710   1.8162   0.00    0.0
2158 455783.000   22.306619537  114.184632416     5.9324   4  14   1.4926   1.2288   3.6796   0.3796   0.7694   1.8160   0.00    0.0
