% program   : RTKPOST demo5 b34k
% inp file  : C:\Users\XU\Desktop\6102_Lab\AAE6102_Laboratory-main\GNSS Data\UrbanNav - Medium\20210521.medium-urban.whampoa.ublox.f9p.obs
% inp file  : C:\Users\XU\Desktop\6102_Lab\AAE6102_Laboratory-main\GNSS Data\UrbanNav - Medium\hksc141g.21*
% obs start : 2021/05/21 06:29:02.0 GPST (week2158 455342.0s)
% obs end   : 2021/05/21 06:54:39.0 GPST (week2158 456879.0s)
% pos mode  : PPP Kinematic
% solution  : Forward
% elev mask : 15.0 deg
% dynamics  : on
% tidecorr  : off
% tropo opt : Saastamoinen
% ephemeris : Broadcast
% navi sys  : GPS GLONASS Galileo
% antenna1  :                       ( 0.0000  0.0000  0.0000)
%
% (lat/lon/height=WGS84/ellipsoidal,Q=1:fix,2:float,3:sbas,4:dgps,5:single,6:ppp,ns=# of satellites)
%  GPST          latitude(deg) longitude(deg)  height(m)   Q  ns   sdn(m)   sde(m)   sdu(m)  sdne(m)  sdeu(m)  sdun(m) age(s)  ratio
2158 455355.000   22.301629359  114.190260822    10.5392   6   5   2.7958   2.6100   5.9164  -1.0402  -2.0571   2.9490   0.00    0.0
2158 455356.000   22.301645281  114.190274220     8.3714   6   5   2.6879   3.0363   5.8991  -1.1984  -2.7283   2.8029   0.00    0.0
2158 455357.000   22.301667455  114.190272113     6.5064   6   4   2.9155   3.1957   6.8641  -0.8952  -2.5405   3.5013   0.00    0.0
2158 455365.000   22.302011125  114.190074489     8.5346   6   4   3.0865   3.1128   7.3630  -0.5051  -2.5201   3.4963   0.00    0.0
2158 455366.000   22.302066862  114.190049600     7.1894   6   4   2.9842   4.2183   8.2254  -1.2626  -4.1821   3.3820   0.00    0.0
2158 455367.000   22.302120648  114.190055940     5.2024   6   4   3.1572   4.6346   8.9818  -1.0732  -5.0356   3.4913   0.00    0.0
2158 455374.000   22.302321265  114.189808931     3.6078   6   4   4.0447   3.9643   8.6123   2.2263  -2.8069   3.9565   0.00    0.0
2158 455375.000   22.302310419  114.189762479     3.2936   6   6   3.5200   3.6616   7.7158   1.6736  -3.3039   2.9081   0.00    0.0
2158 455376.000   22.302272198  114.189710258     4.2326   6   5   2.9865   3.6248   6.6106   2.1767  -1.9025   2.0577   0.00    0.0
2158 455377.000   22.302247925  114.189672532     4.8223   6   4   2.8425   3.5606   6.1644   2.1677  -1.6762   1.6877   0.00    0.0
2158 455378.000   22.302240875  114.189644331     6.8870   6   5   2.3366   3.3218   5.4523   1.7537  -1.6672   0.7762   0.00    0.0
2158 455379.000   22.302231515  114.189614990     8.7952   6   4   2.1005   3.2443   4.8507   1.6611  -1.5784  -0.9002   0.00    0.0
2158 455380.000   22.302202343  114.189576950     8.1531   6   6   2.1914   3.2428   4.8013   1.6871  -1.5678  -0.2975   0.00    0.0
2158 455381.000   22.302178682  114.189543098     7.4376   6   4   2.5511   3.4265   6.1335   1.6105  -1.9429   2.2209   0.00    0.0
2158 455382.000   22.302157908  114.189513253     6.3887   6   5   2.6323   3.5083   6.7373   1.4005  -2.5515   2.6202   0.00    0.0
2158 455384.000   22.302121482  114.189432375    10.4355   6   4   2.8437   2.6838   6.8032   1.2530   0.6802   3.0438   0.00    0.0
2158 455385.000   22.302108721  114.189406669    11.0159   6   6   3.0282   2.9872   6.7819   1.1196  -1.7191   3.2630   0.00    0.0
2158 455386.000   22.302076958  114.189360206     9.3482   6   6   3.4796   3.9429   7.1680   2.4624   1.7390   3.8124   0.00    0.0
2158 455387.000   22.302034680  114.189307695     5.4659   6   5   5.4682   8.8226   8.3372   6.0929  -2.4528   3.9582   0.00    0.0
2158 455405.000   22.302169945  114.188735664     5.5867   6   6   2.8904   2.5845   7.4618   0.5246  -0.9508   3.1694   0.00    0.0
2158 455412.000   22.302179187  114.188734195     6.0904   6  10   2.6018   2.1846   6.1265   0.9430   1.0917   2.7118   0.00    0.0
2158 455413.000   22.302177573  114.188734814     6.4441   6   5   2.8014   2.4688   6.5108   1.3507   1.4445   2.9263   0.00    0.0
2158 455414.000   22.302178705  114.188736516     6.9143   6   4   2.8532   2.4729   6.7108   1.3986   1.6131   3.0065   0.00    0.0
2158 455445.000   22.302128340  114.188707141    17.6841   6   4   3.3940   3.1268   8.8411  -0.9458  -2.2699   4.1256   0.00    0.0
2158 455582.000   22.303392005  114.188029587     5.3033   6   4   6.0271   8.5116  17.1692  -0.9091 -10.0010   7.5240   0.00    0.0
2158 455613.000   22.304451156  114.186469775     9.8436   6   5   3.5701   5.3295  10.3408   1.6904  -5.9514   3.5236   0.00    0.0
2158 455614.000   22.304447747  114.186474394     7.1045   6   5   3.5123   5.3251  10.5413   1.5689  -6.1083   3.5112   0.00    0.0
2158 455615.000   22.304439343  114.186487467     2.3673   6   7   3.4588   5.2620  10.7147   1.3045  -6.2073   3.6493   0.00    0.0
2158 455640.000   22.304706081  114.185980475     0.4303   6   4   7.4719  14.2414  13.2153   8.7123  -6.9690   5.9026   0.00    0.0
2158 455705.000   22.306238444  114.184752796    36.2926   6   4  24.5473  40.0727  23.4554  30.0105   8.6336   7.7040   0.00    0.0
2158 455722.000   22.306365682  114.184969968    35.8969   6   4  12.9597  11.3627  25.9173   8.0274 -16.0248 -10.5067   0.00    0.0
2158 455753.000   22.306642681  114.184630083     2.3247   6   4   4.4599   3.9955  10.3129   2.5923   4.3838   5.9169   0.00    0.0
2158 455756.000   22.306645719  114.184625257     3.7475   6   4   4.2941   3.8551   9.8398   2.5120   4.2370   5.6843   0.00    0.0
2158 455769.000   22.306637287  114.184617597     5.1502   6   5   4.7937   4.4292  11.2025   3.3487   5.4208   6.6020   0.00    0.0
2158 455778.000   22.306613110  114.184584071     2.0234   6   4   4.7490   4.7771  10.0623   3.5798   5.2606   6.1410   0.00    0.0
2158 455931.000   22.306995158  114.186264507    71.3301   6   4   5.0908  15.4884  24.7442   5.5359  15.7175   8.0542   0.00    0.0
2158 455961.000   22.306883831  114.186369438    50.3251   6   4   9.0145  17.0299  36.3802  -3.5203  20.4258  11.5455   0.00    0.0
2158 455962.000   22.306889091  114.186379999    54.6029   6   4   8.7831  16.8086  35.6525  -3.4381  20.2215  11.1415   0.00    0.0
2158 455965.000   22.306886168  114.186397677    59.5737   6   4   8.6762  16.2772  34.2994  -3.6752  19.3439  10.8355   0.00    0.0
2158 456126.000   22.305870957  114.188204836    -1.1977   6   4   5.7064   3.7374  12.5381   3.5256   5.0236   6.8998   0.00    0.0
2158 456460.000   22.305735354  114.190751987     0.4707   6   4   3.0634   3.8105   7.9156  -1.0486  -3.9198   3.3718   0.00    0.0
2158 456493.000   22.306481440  114.189866877    16.7390   6   4   6.2079   4.6430  20.6153  -3.8774  -7.8040  10.5484   0.00    0.0
2158 456494.000   22.306482817  114.189864963    17.2087   6   5   5.2519   4.3661  16.0618  -3.1317  -6.4068   8.2877   0.00    0.0
2158 456495.000   22.306496254  114.189872588    18.4919   6   4   4.9593   4.2022  15.0728  -2.9556  -6.0626   7.7508   0.00    0.0
2158 456496.000   22.306501439  114.189873871    19.3980   6   4   4.8241   4.1032  14.6052  -2.8506  -5.8866   7.5008   0.00    0.0
2158 456497.000   22.306502302  114.189873578    19.7902   6   4   4.7407   4.0484  14.2798  -2.7829  -5.7715   7.3319   0.00    0.0
2158 456498.000   22.306503270  114.189873078    20.4250   6   4   4.6745   4.0136  14.0000  -2.7255  -5.6731   7.1876   0.00    0.0
2158 456501.000   22.306499491  114.189870536    19.4600   6   6   4.9880   4.4407  14.1178  -2.9709  -6.0771   7.3261   0.00    0.0
2158 456504.000   22.306560006  114.189784390    21.0992   6   4   6.1375   4.6099  13.4542  -3.5482   3.2451   5.6724   0.00    0.0
2158 456527.000   22.306218647  114.189368259    24.5324   6   4   3.7855   3.4648  10.5566  -0.8469  -1.0413   5.0935   0.00    0.0
2158 456539.000   22.306199571  114.189383608    13.4832   6   5   3.8347   3.4511  10.9379  -1.0983  -0.9234   5.3930   0.00    0.0
2158 456540.000   22.306198063  114.189386760    12.7046   6   4   3.7654   4.1995  11.7163  -0.7891  -3.6331   5.0480   0.00    0.0
2158 456583.000   22.306127879  114.189284212    34.6686   6   4   8.1778   6.8506  29.4590  -4.8149 -11.4292  13.6918   0.00    0.0
2158 456596.000   22.305436866  114.189000729    16.9481   6   6   3.8023   4.0911   9.1622   2.9448   3.7224   3.2422   0.00    0.0
2158 456617.000   22.304712940  114.189829170    20.8761   6   4  15.9749  10.7050  32.1134   9.6937   9.4742 -17.8314   0.00    0.0
2158 456638.000   22.304517978  114.190382937    16.5331   6   4   5.0937   4.4948   9.8891   4.0366   4.1370   3.8820   0.00    0.0
2158 456650.000   22.304248021  114.190736457     8.0785   6   4   6.3992  12.0951  18.9609   1.0643   3.0866   6.2921   0.00    0.0
2158 456696.000   22.302781064  114.191130306    14.1023   6   6  11.9020   9.8767  24.4611  -9.2609 -13.3395  15.4233   0.00    0.0
2158 456702.000   22.302866858  114.190850878    11.6030   6   5   4.4974   6.1951  16.0605   0.6729  -6.4625   6.8845   0.00    0.0
2158 456739.000   22.303407579  114.189855884    34.3404   6   6  11.0829   9.0580  22.2942  -9.0874 -12.7203  14.8051   0.00    0.0
2158 456745.000   22.303365559  114.189885752    30.0435   6   5  11.5705   8.4067  20.2394  -8.8804 -11.7894  14.1180   0.00    0.0
2158 456751.000   22.303438281  114.189838015    39.3173   6   7  11.4981   9.1858  24.5669  -9.5496 -13.7744  16.0009   0.00    0.0
2158 456752.000   22.303435941  114.189857426    35.3973   6   7   9.1965   7.3014  18.8307  -7.4721 -10.5191  12.3213   0.00    0.0
2158 456849.000   22.302253685  114.190136632    14.5649   6   5   3.5488   3.4725   7.0642   2.6825   3.1924   2.4077   0.00    0.0
2158 456850.000   22.302241458  114.190196911    14.4943   6   6   3.8639   3.3056   6.0314   2.6051   2.6064   1.5066   0.00    0.0
2158 456855.000   22.302108116  114.190444369    14.5028   6   4   4.2890   4.0171  12.9368   2.7844  -2.9949   4.7546   0.00    0.0
2158 456858.000   22.301938582  114.190491636    12.6131   6   5   3.4263   3.6229   5.7141   2.6850   2.4377   1.3194   0.00    0.0
2158 456873.000   22.301557219  114.190380215     8.4566   6   4   2.6901   3.1108   9.6055   1.2020   1.0144   3.8618   0.00    0.0
2158 456877.000   22.301567539  114.190345885     4.9474   6   4   2.7397   2.8106   8.3277   1.2826   2.2799   3.6118   0.00    0.0
