% program   : RTKPOST demo5 b34k
% inp file  : C:\Users\XU\Desktop\6102_Lab\AAE6102_Laboratory-main\GNSS Data\Dynamic\20210610.klt1.ublox.f9p.obs
% inp file  : C:\Users\XU\Desktop\6102_Lab\AAE6102_Laboratory-main\GNSS Data\Dynamic\hksc1610.obs
% inp file  : C:\Users\XU\Desktop\6102_Lab\AAE6102_Laboratory-main\GNSS Data\Dynamic\hksc1610.nav
% obs start : 2021/06/10 03:35:54.0 GPST (week2161 358554.0s)
% obs end   : 2021/06/10 03:39:18.0 GPST (week2161 358758.0s)
% pos mode  : Kinematic
% freqs     : L1+L2/E5b
% solution  : Forward
% elev mask : 15.0 deg
% dynamics  : on
% tidecorr  : off
% ionos opt : Broadcast
% tropo opt : Saastamoinen
% ephemeris : Broadcast
% navi sys  : GPS GLONASS Galileo
% amb res   : Fix and Hold
% amb glo   : Fix and Hold
% val thres : 3.0
% antenna1  :                       ( 0.0000  0.0000  0.0000)
% antenna2  :                       ( 0.0000  0.0000  0.0000)
% ref pos   : 22.322172082  114.141187963    20.2386
%
% (lat/lon/height=WGS84/ellipsoidal,Q=1:fix,2:float,3:sbas,4:dgps,5:single,6:ppp,ns=# of satellites)
%  GPST          latitude(deg) longitude(deg)  height(m)   Q  ns   sdn(m)   sde(m)   sdu(m)  sdne(m)  sdeu(m)  sdun(m) age(s)  ratio
2161 358554.000   22.330476542  114.180764187    31.6867   4   2   0.9795   1.1220   4.2172  -0.3677   1.1557  -0.8666   0.00    0.0
2161 358555.000   22.330473589  114.180762772    32.3742   4   2   0.8164   1.1215   3.8593  -0.5310   0.8706  -1.0860   0.00    0.0
2161 358556.000   22.330472830  114.180756111    34.7503   4   2   0.7669   1.0618   3.8166  -0.5738   0.8816  -1.2170   0.00    0.0
2161 358557.000   22.330474588  114.180757387    33.0252   4   2   0.7670   1.0995   3.8920  -0.6284   0.8480  -1.3260   0.00    0.0
2161 358558.000   22.330465028  114.180775686    36.4048   4   3   0.6817   1.0251   3.6323  -0.5494   0.5422  -1.1969   0.00    0.0
2161 358559.000   22.330471684  114.180766868    32.6053   4   2   0.7073   1.0828   3.6355  -0.6345   0.7634  -1.2726   0.00    0.0
2161 358560.000   22.330471976  114.180769603    30.8365   4   2   0.6604   1.0149   3.3784  -0.5948   0.6745  -1.1859   0.00    0.0
2161 358561.000   22.330478526  114.180781735    29.7999   4   0   0.9489   1.0794   3.5470  -0.3507   0.9559  -0.7782   0.00    0.0
2161 358562.000   22.330483131  114.180778110    28.3764   4   0   0.9606   1.0864   3.6036  -0.3225   1.0010  -0.6958   0.00    0.0
2161 358563.000   22.330470363  114.180768583    25.1153   4   2   0.6560   1.0130   3.3338  -0.6025   0.6804  -1.2102   0.00    0.0
2161 358564.000   22.330465550  114.180778474    24.3319   4   2   0.6342   1.0183   3.3137  -0.6114   0.6982  -1.1871   0.00    0.0
2161 358565.000   22.330462055  114.180778366    22.2223   4   2   0.6274   1.0179   3.3192  -0.6146   0.6999  -1.1903   0.00    0.0
2161 358566.000   22.330449677  114.180782603    25.0203   4   0   0.9737   0.6521   3.2185   0.1015  -0.5776  -0.6706   0.00    0.0
2161 358567.000   22.330434465  114.180780562    25.9279   4   2   0.9430   0.5553   3.1898   0.1798  -0.6076  -0.5377   0.00    0.0
2161 358568.000   22.330418194  114.180776985    27.3358   4   0   0.9353   0.5183   3.1139   0.1691  -0.6780  -0.6155   0.00    0.0
2161 358569.000   22.330404458  114.180769290    27.1136   4   2   0.7439   0.9822   3.2417  -0.5088   0.6164  -0.9426   0.00    0.0
2161 358570.000   22.330384424  114.180780153    26.0463   4   3   0.7469   0.7914   2.9082  -0.5458   1.1845  -1.1653   0.00    0.0
2161 358571.000   22.330366980  114.180781537    28.3134   2   5   0.4813   0.3829   1.8012   0.0912  -0.1059  -0.5440   0.00    0.0
2161 358572.000   22.330348926  114.180782404    29.3123   2   4   0.4328   0.3572   1.7068   0.0878  -0.1119  -0.4935   0.00    0.0
2161 358573.000   22.330335125  114.180783570    29.4551   4   2   0.3967   0.3379   1.5852   0.0888  -0.1156  -0.4499   0.00    0.0
2161 358574.000   22.330326786  114.180784316    29.1894   2   5   0.3704   0.3201   1.4940   0.0827  -0.0921  -0.4192   0.00    0.0
2161 358575.000   22.330317565  114.180785602    29.4903   2   4   0.3484   0.3043   1.4185   0.0811  -0.0851  -0.3940   0.00    0.0
2161 358576.000   22.330310588  114.180788903    28.9444   2   5   0.3304   0.2910   1.3731   0.0806  -0.0931  -0.3811   0.00    0.0
2161 358577.000   22.330302918  114.180794444    28.7905   2   6   0.3146   0.2787   1.3282   0.0809  -0.1074  -0.3676   0.00    0.0
2161 358578.000   22.330294003  114.180805868    28.3339   2   5   0.2987   0.2677   1.2769   0.0772  -0.1045  -0.3480   0.00    0.0
2161 358579.000   22.330287302  114.180819985    28.2202   2   6   0.2850   0.2576   1.2302   0.0735  -0.0998  -0.3300   0.00    0.0
2161 358580.000   22.330282148  114.180842301    28.0262   2   6   0.2739   0.2489   1.1939   0.0700  -0.0878  -0.3169   0.00    0.0
2161 358581.000   22.330276295  114.180873529    29.1182   2   5   0.2633   0.2411   1.1509   0.0660  -0.0699  -0.3013   0.00    0.0
2161 358582.000   22.330272503  114.180911990    30.0864   2   5   0.2544   0.2342   1.1101   0.0618  -0.0463  -0.2872   0.00    0.0
2161 358583.000   22.330270332  114.180954358    31.0401   2   4   0.2464   0.2277   1.0738   0.0593  -0.0232  -0.2750   0.00    0.0
2161 358584.000   22.330268927  114.180999958    31.9146   2   4   0.2384   0.2217   1.0404   0.0567   0.0285  -0.2629   0.00    0.0
2161 358585.000   22.330268107  114.181049216    32.5805   2   4   0.2316   0.2162   1.0098   0.0546   0.0434  -0.2526   0.00    0.0
2161 358586.000   22.330267247  114.181101646    33.3472   2   4   0.2248   0.2111   0.9810   0.0525   0.0528  -0.2424   0.00    0.0
2161 358587.000   22.330266149  114.181156318    33.8723   2   4   0.2186   0.2063   0.9542   0.0504   0.0592  -0.2328   0.00    0.0
2161 358588.000   22.330264424  114.181213543    33.9615   2   5   0.2129   0.2018   0.9275   0.0487   0.0643  -0.2238   0.00    0.0
2161 358589.000   22.330261449  114.181273311    34.5730   2   4   0.2073   0.1976   0.9040   0.0471   0.0679  -0.2148   0.00    0.0
2161 358590.000   22.330258282  114.181336306    35.1012   2   5   0.2026   0.1938   0.8840   0.0462   0.0676  -0.2087   0.00    0.0
2161 358591.000   22.330255063  114.181401246    35.5848   2   6   0.1978   0.1902   0.8624   0.0454   0.0677  -0.2015   0.00    0.0
2161 358592.000   22.330253084  114.181467281    35.2343   2   5   0.1938   0.1868   0.8485   0.0453   0.0647  -0.1973   0.00    0.0
2161 358593.000   22.330250795  114.181532185    35.2309   2   5   0.1903   0.1835   0.8334   0.0456   0.0576  -0.1937   0.00    0.0
2161 358594.000   22.330249226  114.181594899    35.0718   2   4   0.1870   0.1803   0.8191   0.0457   0.0509  -0.1904   0.00    0.0
2161 358595.000   22.330247163  114.181654466    34.9229   2   5   0.1838   0.1773   0.8031   0.0458   0.0444  -0.1865   0.00    0.0
2161 358596.000   22.330244518  114.181707454    35.3488   2   4   0.1804   0.1744   0.7857   0.0454   0.0415  -0.1804   0.00    0.0
2161 358597.000   22.330241276  114.181750995    35.5548   2   4   0.1772   0.1717   0.7690   0.0450   0.0390  -0.1752   0.00    0.0
2161 358598.000   22.330238856  114.181779429    35.5722   2   4   0.1741   0.1691   0.7529   0.0441   0.0383  -0.1700   0.00    0.0
2161 358599.000   22.330237772  114.181791391    35.6750   2   5   0.1710   0.1666   0.7356   0.0435   0.0371  -0.1645   0.00    0.0
2161 358600.000   22.330237782  114.181793201    35.6920   2   5   0.1680   0.1642   0.7193   0.0429   0.0359  -0.1586   0.00    0.0
2161 358601.000   22.330238199  114.181793553    35.4719   4   3   0.1652   0.1619   0.7068   0.0427   0.0307  -0.1546   0.00    0.0
2161 358602.000   22.330238776  114.181793778    35.1715   4   3   0.1628   0.1599   0.6949   0.0418   0.0289  -0.1510   0.00    0.0
2161 358603.000   22.330239153  114.181793976    34.8604   2   6   0.1604   0.1579   0.6829   0.0408   0.0287  -0.1473   0.00    0.0
2161 358604.000   22.330239618  114.181794399    34.7201   2   6   0.1580   0.1560   0.6713   0.0399   0.0274  -0.1435   0.00    0.0
2161 358605.000   22.330240167  114.181794665    34.3823   2   6   0.1558   0.1542   0.6599   0.0392   0.0261  -0.1399   0.00    0.0
2161 358606.000   22.330240822  114.181794949    34.1244   2   7   0.1536   0.1524   0.6489   0.0384   0.0249  -0.1363   0.00    0.0
2161 358607.000   22.330241402  114.181795112    33.8867   2   5   0.1515   0.1507   0.6385   0.0377   0.0236  -0.1330   0.00    0.0
2161 358608.000   22.330242027  114.181795371    33.6237   2   5   0.1496   0.1491   0.6283   0.0367   0.0246  -0.1297   0.00    0.0
2161 358609.000   22.330242150  114.181797455    33.3072   2   6   0.1478   0.1476   0.6176   0.0359   0.0265  -0.1258   0.00    0.0
2161 358610.000   22.330241849  114.181808584    32.9976   2   5   0.1463   0.1462   0.6090   0.0354   0.0266  -0.1230   0.00    0.0
2161 358611.000   22.330240775  114.181826969    32.7915   2   6   0.1446   0.1447   0.5979   0.0349   0.0274  -0.1187   0.00    0.0
2161 358612.000   22.330239138  114.181852581    32.8589   2   5   0.1428   0.1432   0.5897   0.0343   0.0262  -0.1161   0.00    0.0
2161 358613.000   22.330238151  114.181882637    32.7440   2   5   0.1410   0.1418   0.5784   0.0336   0.0284  -0.1115   0.00    0.0
2161 358614.000   22.330238135  114.181912679    32.8755   2   5   0.1393   0.1404   0.5688   0.0329   0.0291  -0.1077   0.00    0.0
2161 358615.000   22.330242102  114.181941024    32.7065   2   5   0.1376   0.1390   0.5595   0.0322   0.0310  -0.1036   0.00    0.0
2161 358616.000   22.330252758  114.181966249    32.5573   2   6   0.1361   0.1388   0.5553   0.0338   0.0463  -0.0978   0.00    0.0
2161 358617.000   22.330270354  114.181985994    32.3221   4   2   0.1357   0.1400   0.5560   0.0397   0.0114  -0.1024   0.00    0.0
2161 358618.000   22.330293735  114.181996001    32.4922   2   6   0.1324   0.1360   0.5586   0.0298   0.0623  -0.0945   0.00    0.0
2161 358619.000   22.330321357  114.181999317    32.3359   2   5   0.1316   0.1353   0.5705   0.0310   0.0691  -0.0939   0.00    0.0
2161 358620.000   22.330353415  114.182000754    32.5437   4   2   0.1322   0.1425   0.6065   0.0443   0.1219  -0.0648   0.00    0.0
2161 358621.000   22.330389646  114.182004059    33.2583   4   0   0.1313   0.1428   0.6098   0.0456   0.1286  -0.0603   0.00    0.0
2161 358622.000   22.330428418  114.182004368    32.8848   4   0   0.1301   0.1413   0.6052   0.0446   0.1265  -0.0634   0.00    0.0
2161 358623.000   22.330472156  114.182008387    33.3649   4   0   0.1289   0.1401   0.6019   0.0438   0.1259  -0.0646   0.00    0.0
2161 358624.000   22.330517997  114.182010142    33.9320   4   2   0.1474   0.1389   1.2970   0.0417   0.1165   0.2834   0.00    0.0
2161 358625.000   22.330564497  114.182012906    32.9479   2   5   0.1259   0.1356   0.5775   0.0390   0.1108  -0.0775   0.00    0.0
2161 358626.000   22.330612538  114.182014441    32.8312   2   6   0.1244   0.1324   0.5686   0.0357   0.1034  -0.0803   0.00    0.0
2161 358627.000   22.330662179  114.182014667    32.7900   2   7   0.1231   0.1307   0.5652   0.0343   0.1014  -0.0814   0.00    0.0
2161 358628.000   22.330712963  114.182012473    32.8137   2   4   0.1221   0.1294   0.5574   0.0332   0.0954  -0.0827   0.00    0.0
2161 358629.000   22.330765450  114.182007953    32.9622   2   6   0.1345   0.1321   1.1272  -0.0231  -0.1327   0.2250   0.00    0.0
2161 358630.000   22.330818964  114.182000589    32.2208   2   5   0.1362   0.1351   1.0838   0.0548   0.1856   0.2294   0.00    0.0
2161 358631.000   22.330874841  114.181991597    32.3789   2   4   0.2109   0.5325   1.4817   0.3018   0.8484   0.4820   0.00    0.0
2161 358632.000   22.330933714  114.181984949    32.7711   2   5   0.1201   0.1392   0.5799   0.0478   0.1403  -0.0550   0.00    0.0
2161 358633.000   22.330994285  114.181976100    33.1359   2   6   0.1191   0.1376   0.5824   0.0470   0.1421  -0.0536   0.00    0.0
2161 358634.000   22.331055314  114.181966886    33.0520   2   4   0.1473   0.1708   1.2544   0.1049   0.3621   0.3074   0.00    0.0
2161 358635.000   22.331115743  114.181957017    31.5014   4   2   0.2522   0.9444   2.6313   0.3819  -0.0710   0.6386   0.00    0.0
2161 358636.000   22.331177758  114.181949345    33.0762   4   0   0.2010   0.1625   2.5071   0.1127   0.4084   0.6288   0.00    0.0
2161 358637.000   22.331240279  114.181941906    34.3545   4   2   0.1370   0.1564   1.0955   0.0895   0.3101   0.2561   0.00    0.0
2161 358638.000   22.331302174  114.181935071    34.5956   4   2   0.1326   0.1534   1.0369   0.0822   0.2813   0.2324   0.00    0.0
2161 358639.000   22.331362203  114.181927902    34.5453   2   4   0.1784   0.4141   1.3412   0.2308   0.6470   0.3970   0.00    0.0
2161 358640.000   22.331419412  114.181915376    33.9721   2   5   0.1281   0.1482   0.9632   0.0761   0.2596   0.2093   0.00    0.0
2161 358641.000   22.331475555  114.181900697    33.2193   2   5   0.1646   0.3497   1.2335   0.1974   0.5654   0.3538   0.00    0.0
2161 358642.000   22.331532565  114.181883693    32.5278   2   7   0.1245   0.1420   0.9021   0.0718   0.2496   0.1905   0.00    0.0
2161 358643.000   22.331588019  114.181860062    31.5450   2   6   0.3012   0.6474   1.3056   0.4202   0.7321   0.4610   0.00    0.0
2161 358644.000   22.331647287  114.181844020    31.9080   2   6   0.2119   0.4233   1.1232   0.2689   0.4943   0.2994   0.00    0.0
2161 358645.000   22.331706746  114.181824514    31.1074   2   6   0.1485   0.3038   1.0777   0.1677   0.4822   0.2940   0.00    0.0
2161 358646.000   22.331766212  114.181803494    30.5268   4   3   0.1409   0.2779   1.0112   0.1505   0.4344   0.2642   0.00    0.0
2161 358647.000   22.331826493  114.181783550    30.4740   4   3   0.1364   0.2622   0.9648   0.1402   0.4032   0.2449   0.00    0.0
2161 358648.000   22.331896063  114.181780949    30.4619   4   2   0.4463   0.8253   1.4428   0.5891   0.1160  -0.3173   0.00    0.0
2161 358649.000   22.331948303  114.181741398    31.2970   2   4   0.1963   0.2554   2.7674   0.0771   0.5700  -0.5773   0.00    0.0
2161 358650.000   22.332010652  114.181719647    29.8405   2   5   0.2326   0.2536   3.5965  -0.0694   0.6838  -0.7971   0.00    0.0
2161 358651.000   22.332070594  114.181699557    28.4224   2   5   0.1709   0.2313   2.1821   0.0856   0.4626  -0.4411   0.00    0.0
2161 358652.000   22.332127562  114.181684967    29.9905   2   5   0.1616   0.2180   1.7765   0.0989   0.3626  -0.3622   0.00    0.0
2161 358653.000   22.332182669  114.181672622    31.0232   2   5   0.1536   0.2130   1.6250   0.0980   0.3458  -0.3169   0.00    0.0
2161 358654.000   22.332232936  114.181662505    31.0421   2   5   0.1509   0.2054   1.5334   0.0967   0.3149  -0.3041   0.00    0.0
2161 358655.000   22.332277006  114.181656855    31.0718   2   6   0.1468   0.1994   1.4147   0.0955   0.2898  -0.2797   0.00    0.0
2161 358656.000   22.332311247  114.181652085    31.2649   2   5   0.1436   0.1935   1.3089   0.0942   0.2642  -0.2606   0.00    0.0
2161 358657.000   22.332334545  114.181646035    31.3375   2   8   0.1410   0.1890   1.2494   0.0921   0.2502  -0.2495   0.00    0.0
2161 358658.000   22.332354693  114.181637207    30.7152   2   8   0.1389   0.1855   1.2097   0.0905   0.2412  -0.2413   0.00    0.0
2161 358659.000   22.332371102  114.181624891    30.7068   2   6   0.1373   0.1821   1.1733   0.0889   0.2311  -0.2352   0.00    0.0
2161 358660.000   22.332383621  114.181608252    30.5161   2   9   0.1355   0.1782   1.1346   0.0873   0.2186  -0.2297   0.00    0.0
2161 358661.000   22.332393426  114.181587259    30.0601   2   8   0.1337   0.1746   1.1005   0.0854   0.2090  -0.2239   0.00    0.0
2161 358662.000   22.332398824  114.181565033    29.8104   2   7   0.1321   0.1712   1.0689   0.0838   0.1997  -0.2189   0.00    0.0
2161 358663.000   22.332402546  114.181540376    29.4007   2   6   0.1300   0.1681   1.0252   0.0821   0.1917  -0.2091   0.00    0.0
2161 358664.000   22.332404365  114.181513061    29.2225   4   3   0.1284   0.1653   0.9943   0.0806   0.1838  -0.2032   0.00    0.0
2161 358665.000   22.332406045  114.181480769    28.7894   4   3   0.1280   0.1633   0.9696   0.0808   0.1731  -0.2014   0.00    0.0
2161 358666.000   22.332407314  114.181447515    28.4961   4   2   0.1266   0.1608   0.9428   0.0793   0.1671  -0.1961   0.00    0.0
2161 358667.000   22.332408354  114.181414131    28.0230   4   2   0.1253   0.1584   0.9197   0.0780   0.1619  -0.1912   0.00    0.0
2161 358668.000   22.332411191  114.181381039    26.1122   4   0   0.1263   0.1571   0.9133   0.0794   0.1480  -0.1968   0.00    0.0
2161 358669.000   22.332412624  114.181349814    24.0287   4   0   0.9292   0.1986   1.4672   0.2549  -0.3295  -0.3328   0.00    0.0
2161 358670.000   22.332409845  114.181320256    24.2943   4   0   0.9567   0.2865   2.6225   0.2998  -0.7505  -0.5936   0.00    0.0
2161 358671.000   22.332416429  114.181293709    27.8969   4   2   0.9256   0.3275   3.1106   0.3081  -0.9136  -0.6587   0.00    0.0
2161 358672.000   22.332413619  114.181277105    25.3776   2   4   0.6458   0.2188   1.7842   0.1982  -0.4796  -0.3953   0.00    0.0
2161 358673.000   22.332414364  114.181263163    25.2737   2   7   0.5255   0.1971   1.5087   0.1595  -0.3840  -0.3253   0.00    0.0
2161 358674.000   22.332416733  114.181252585    25.0613   2   6   0.4591   0.1896   1.4098   0.1412  -0.3526  -0.3043   0.00    0.0
2161 358675.000   22.332418764  114.181238278    24.8090   2   6   0.4141   0.1845   1.3489   0.1307  -0.3337  -0.3003   0.00    0.0
2161 358676.000   22.332421916  114.181220916    25.0087   2   6   0.3802   0.1789   1.2771   0.1201  -0.3105  -0.2823   0.00    0.0
2161 358677.000   22.332425720  114.181201450    25.0575   2   6   0.3535   0.1743   1.2165   0.1115  -0.2910  -0.2673   0.00    0.0
2161 358678.000   22.332430146  114.181180839    24.8923   2   6   0.3305   0.1699   1.1608   0.1035  -0.2728  -0.2505   0.00    0.0
2161 358679.000   22.332433525  114.181154429    24.6313   2   7   0.3115   0.1660   1.1109   0.0968  -0.2564  -0.2364   0.00    0.0
2161 358680.000   22.332434379  114.181126150    24.1016   2   6   0.2952   0.1625   1.0681   0.0910  -0.2425  -0.2237   0.00    0.0
2161 358681.000   22.332433454  114.181093035    23.8743   2   7   0.2811   0.1595   1.0335   0.0860  -0.2297  -0.2133   0.00    0.0
2161 358682.000   22.332433683  114.181059323    23.1795   2   8   0.2688   0.1565   0.9958   0.0815  -0.2181  -0.2024   0.00    0.0
2161 358683.000   22.332435231  114.181025799    22.7630   2   5   0.2586   0.1539   0.9642   0.0780  -0.2080  -0.1951   0.00    0.0
2161 358684.000   22.332436645  114.180997621    22.6610   2   6   0.2493   0.1514   0.9352   0.0748  -0.1986  -0.1891   0.00    0.0
2161 358685.000   22.332437919  114.180977884    22.5009   2   6   0.2406   0.1491   0.9076   0.0715  -0.1896  -0.1812   0.00    0.0
2161 358686.000   22.332437981  114.180965699    22.5214   2   5   0.2327   0.1469   0.8830   0.0686  -0.1812  -0.1742   0.00    0.0
2161 358687.000   22.332437480  114.180955073    22.6512   2   6   0.2256   0.1448   0.8586   0.0658  -0.1736  -0.1678   0.00    0.0
2161 358688.000   22.332434557  114.180942934    22.6992   2   7   0.2190   0.1429   0.8363   0.0635  -0.1668  -0.1618   0.00    0.0
2161 358689.000   22.332427797  114.180928902    22.7844   2   8   0.2128   0.1410   0.8154   0.0611  -0.1599  -0.1554   0.00    0.0
2161 358690.000   22.332415958  114.180914484    22.7885   2   6   0.2072   0.1392   0.7955   0.0588  -0.1531  -0.1493   0.00    0.0
2161 358691.000   22.332397685  114.180901972    22.8601   2   6   0.2020   0.1374   0.7769   0.0566  -0.1465  -0.1439   0.00    0.0
2161 358692.000   22.332374831  114.180893827    22.5525   2   7   0.1971   0.1359   0.7601   0.0548  -0.1410  -0.1391   0.00    0.0
2161 358693.000   22.332346349  114.180891825    22.6421   2   7   0.1925   0.1343   0.7443   0.0531  -0.1358  -0.1347   0.00    0.0
2161 358694.000   22.332315454  114.180890972    22.6230   2   8   0.1881   0.1328   0.7292   0.0516  -0.1309  -0.1306   0.00    0.0
2161 358695.000   22.332282833  114.180889175    22.5109   2   7   0.1844   0.1316   0.7184   0.0507  -0.1285  -0.1284   0.00    0.0
2161 358696.000   22.332249455  114.180886309    22.7150   2   7   0.1808   0.1303   0.7050   0.0495  -0.1244  -0.1250   0.00    0.0
2161 358697.000   22.332215576  114.180884811    22.7339   2   8   0.1774   0.1289   0.6921   0.0482  -0.1203  -0.1217   0.00    0.0
2161 358698.000   22.332179918  114.180883331    22.7821   2   8   0.1741   0.1277   0.6796   0.0470  -0.1164  -0.1184   0.00    0.0
2161 358699.000   22.332142527  114.180882484    22.7566   2   8   0.1709   0.1265   0.6674   0.0460  -0.1128  -0.1151   0.00    0.0
2161 358700.000   22.332104262  114.180881467    22.9532   2   7   0.1681   0.1252   0.6571   0.0451  -0.1094  -0.1133   0.00    0.0
2161 358701.000   22.332067829  114.180880111    23.0591   2   9   0.1652   0.1240   0.6431   0.0439  -0.1050  -0.1087   0.00    0.0
2161 358702.000   22.332035448  114.180878219    23.1276   2   8   0.1623   0.1229   0.6311   0.0429  -0.1014  -0.1050   0.00    0.0
2161 358703.000   22.332009288  114.180876475    23.2050   2   8   0.1597   0.1218   0.6193   0.0419  -0.0978  -0.1013   0.00    0.0
2161 358704.000   22.331987008  114.180875313    23.2402   2   8   0.1572   0.1208   0.6082   0.0410  -0.0946  -0.0979   0.00    0.0
2161 358705.000   22.331967418  114.180874466    23.3987   2   8   0.1548   0.1197   0.5968   0.0400  -0.0912  -0.0939   0.00    0.0
2161 358706.000   22.331950701  114.180874808    23.3567   2   5   0.1526   0.1187   0.5888   0.0393  -0.0884  -0.0922   0.00    0.0
2161 358707.000   22.331936201  114.180876398    23.3979   2   4   0.1506   0.1180   0.5869   0.0392  -0.0899  -0.0927   0.00    0.0
2161 358708.000   22.331922586  114.180878074    23.4648   2   4   0.1485   0.1169   0.5738   0.0382  -0.0846  -0.0892   0.00    0.0
2161 358709.000   22.331910997  114.180878007    23.3985   2   5   0.1464   0.1160   0.5638   0.0376  -0.0824  -0.0853   0.00    0.0
2161 358710.000   22.331900097  114.180877421    23.3251   2   5   0.1442   0.1151   0.5538   0.0366  -0.0795  -0.0802   0.00    0.0
2161 358711.000   22.331889286  114.180876445    23.1207   2   7   0.1422   0.1142   0.5414   0.0357  -0.0759  -0.0748   0.00    0.0
2161 358712.000   22.331877946  114.180875356    23.1655   2   6   0.1402   0.1134   0.5319   0.0349  -0.0736  -0.0700   0.00    0.0
2161 358713.000   22.331867041  114.180873913    22.9931   2   6   0.1383   0.1127   0.5223   0.0344  -0.0717  -0.0665   0.00    0.0
2161 358714.000   22.331853468  114.180873169    22.6563   2   7   0.1365   0.1118   0.5125   0.0335  -0.0685  -0.0619   0.00    2.6
2161 358715.000   22.331833444  114.180870731    22.5177   2   6   0.1347   0.1110   0.5044   0.0331  -0.0664  -0.0583   0.00    1.0
2161 358716.000   22.331808946  114.180867888    22.4522   2   4   0.1338   0.1104   0.4968   0.0320  -0.0625  -0.0566   0.00    1.0
2161 358717.000   22.331779085  114.180863848    22.3989   2   5   0.1331   0.1097   0.4916   0.0327  -0.0598  -0.0530   0.00    1.1
2161 358718.000   22.331745711  114.180860133    22.3579   2   5   0.1878   0.1104   0.4883  -0.0367  -0.0627   0.0383   0.00    1.2
2161 358719.000   22.331725932  114.180857536    22.0400   4   0   0.8272   0.8515   0.8499   0.1760   0.0700  -0.1931   0.00    0.0
2161 358720.000   22.331699127  114.180858866    20.3550   4   0   0.8739   0.9155   1.8288   0.2090   0.2174  -0.4168   0.00    0.0
2161 358721.000   22.331676848  114.180853776    12.9896   4   0   0.9185   0.9525   3.1518   0.2047   0.3796  -0.7158   0.00    0.0
2161 358722.000   22.331649507  114.180840965     6.2446   4   0   0.9331   0.9619   3.8818   0.1995   0.4669  -0.8855   0.00    0.0
2161 358723.000   22.331618128  114.180840139     2.9910   4   0   0.9356   0.9624   4.0688   0.1966   0.4900  -0.9290   0.00    0.0
2161 358724.000   22.331592646  114.180847995     6.2549   4   0   0.9327   0.9363   3.9021   0.2331  -0.1635  -0.8950   0.00    0.0
2161 358725.000   22.331555074  114.180843141    14.6790   4   0   0.9118   0.9300   3.5047   0.1819   0.3786  -0.6886   0.00    0.0
2161 358726.000   22.331507479  114.180831049    17.9897   4   0   0.9345   0.9311   3.4965   0.2095   0.3482  -0.7587   0.00    0.0
2161 358727.000   22.331464251  114.180828502    19.7991   4   2   0.7234   0.8835   3.5122   0.4473   0.3525  -0.8064   0.00    0.0
2161 358728.000   22.331417431  114.180827825    19.8525   4   2   0.5972   0.6221   3.4193   0.2661  -0.0538  -0.9034   0.00    0.0
2161 358729.000   22.331368413  114.180845585    20.7953   4   3   0.8805   0.9065   3.4068   0.1485   0.3098  -0.7518   0.00    0.0
2161 358730.000   22.331322888  114.180842595    19.6273   4   0   0.9352   0.9944   3.7978   0.1192  -0.3864  -0.8287   0.00    0.0
2161 358731.000   22.331277168  114.180827153    16.0633   2   6   0.6618   0.6970   3.6360   0.4568  -0.5787  -1.2379   0.00    0.0
2161 358732.000   22.331224827  114.180823553    16.3982   2   6   0.4410   0.4455   2.8795   0.0936   0.4276  -0.8113   0.00    0.0
2161 358733.000   22.331176239  114.180823091    15.1326   2   7   0.3707   0.4005   2.2377   0.0893   0.3424  -0.5646   0.00    0.0
2161 358734.000   22.331125703  114.180821934    15.6222   2   8   0.3416   0.3705   1.9569   0.0852   0.2960  -0.4792   0.00    0.0
2161 358735.000   22.331075518  114.180818430    15.8394   2   5   0.3214   0.3465   1.7870   0.0789   0.2716  -0.4330   0.00    0.0
2161 358736.000   22.331026700  114.180816586    17.0233   4   3   0.3044   0.3352   1.7701   0.0724   0.3328  -0.3988   0.00    0.0
2161 358737.000   22.330977224  114.180811028    18.1009   4   3   0.2909   0.3115   1.6311   0.0670   0.2618  -0.3829   0.00    0.0
2161 358738.000   22.330926723  114.180804732    19.6800   2   4   0.3364   0.3168   1.8488   0.1570  -0.2463  -0.5704   0.00    0.0
2161 358739.000   22.330882931  114.180806122    20.3282   2   5   0.2705   0.3421   2.6553  -0.0703   0.6874  -0.4594   0.00    0.0
2161 358740.000   22.330833855  114.180801791    19.1891   4   2   0.2653   0.3612   3.1604  -0.1102   0.8465  -0.5348   0.00    0.0
2161 358741.000   22.330784672  114.180799004    18.4380   4   2   0.2611   0.3735   3.4931  -0.1345   0.9466  -0.5917   0.00    0.0
2161 358742.000   22.330736857  114.180796064    19.0036   4   2   0.2552   0.3736   3.5794  -0.1427   0.9756  -0.6063   0.00    0.0
2161 358743.000   22.330692753  114.180793934    20.2887   2   5   0.2352   0.2963   2.1687  -0.0568   0.5765  -0.3684   0.00    0.0
2161 358744.000   22.330655183  114.180790747    21.8570   2   7   0.2278   0.2814   1.9927  -0.0488   0.5243  -0.3422   0.00    0.0
2161 358745.000   22.330626360  114.180781129    21.0132   2   8   0.2212   0.2624   1.7698  -0.0380   0.4470  -0.3165   0.00    0.0
2161 358746.000   22.330602169  114.180771210    20.5272   2   5   0.2153   0.2508   1.6311  -0.0300   0.4042  -0.2969   0.00    0.0
2161 358747.000   22.330579941  114.180767524    22.9758   2   6   0.2103   0.2437   1.5749  -0.0245   0.3876  -0.2867   0.00    0.0
2161 358748.000   22.330559479  114.180763050    23.0403   2   5   0.2053   0.2374   1.4977  -0.0223   0.3677  -0.2734   0.00    0.0
2161 358749.000   22.330541987  114.180762912    23.1594   4   2   0.2023   0.2329   1.4861  -0.0241   0.3582  -0.2794   0.00    0.0
2161 358750.000   22.330529000  114.180763495    22.1091   4   0   0.4798   0.8896   2.0408   0.6052   0.3661  -0.4517   0.00    0.0
2161 358751.000   22.330519769  114.180763945    23.5109   4   2   0.5014   0.9075   3.0798   0.6113   0.5085  -0.7028   0.00    0.0
2161 358752.000   22.330508863  114.180752782    27.0916   4   2   0.4247   0.6364   3.5592   0.4300  -0.2055  -0.9271   0.00    0.0
2161 358753.000   22.330511981  114.180762364    26.6765   4   2   0.6332   0.9882   3.6280  -0.5068   0.3816  -1.1015   0.00    0.0
2161 358754.000   22.330519865  114.180768326    20.6755   4   3   0.5289   0.6773   3.5239  -0.1806  -0.4410  -1.0670   0.00    0.0
2161 358755.000   22.330521140  114.180768755    21.4535   4   3   0.4220   0.5509   2.5562  -0.1631   0.1590  -0.7103   0.00    0.0
2161 358756.000   22.330525050  114.180770489    19.8259   4   3   0.4160   0.5011   2.6039   0.0640  -0.3725  -0.7647   0.00    0.0
2161 358757.000   22.330525480  114.180770264    20.5356   2   4   0.3517   0.4359   1.9576  -0.1152   0.2451  -0.5159   0.00    0.0
2161 358758.000   22.330526619  114.180770514    20.5974   4   3   0.3297   0.4007   1.8100  -0.0975   0.2366  -0.4684   0.00    0.0
