% program   : RTKPOST demo5 b34k
% inp file  : C:\Users\XU\Desktop\6102_Lab\AAE6102_Laboratory-main\GNSS Data\Dynamic\20210610.klt1.ublox.f9p.obs
% inp file  : C:\Users\XU\Desktop\6102_Lab\AAE6102_Laboratory-main\GNSS Data\Dynamic\hksc1610.obs
% inp file  : C:\Users\XU\Desktop\6102_Lab\AAE6102_Laboratory-main\GNSS Data\Dynamic\hksc1610.nav
% obs start : 2021/06/10 03:35:54.0 GPST (week2161 358554.0s)
% obs end   : 2021/06/10 03:39:18.0 GPST (week2161 358758.0s)
% pos mode  : DGPS
% freqs     : L1+L2/E5b
% solution  : Forward
% elev mask : 15.0 deg
% dynamics  : on
% tidecorr  : off
% ionos opt : Broadcast
% tropo opt : Saastamoinen
% ephemeris : Broadcast
% navi sys  : GPS GLONASS Galileo
% antenna1  :                       ( 0.0000  0.0000  0.0000)
% antenna2  :                       ( 0.0000  0.0000  0.0000)
% ref pos   : 22.322172082  114.141187963    20.2386
%
% (lat/lon/height=WGS84/ellipsoidal,Q=1:fix,2:float,3:sbas,4:dgps,5:single,6:ppp,ns=# of satellites)
%  GPST          latitude(deg) longitude(deg)  height(m)   Q  ns   sdn(m)   sde(m)   sdu(m)  sdne(m)  sdeu(m)  sdun(m) age(s)  ratio
2161 358554.000   22.330476273  114.180764017    31.6108   4  13   0.9899   1.1252   4.2330  -0.3508   1.1689  -0.8358   0.00    0.0
2161 358555.000   22.330471640  114.180761598    31.9588   4  12   0.9841   1.1623   3.9948  -0.3380   1.0357  -0.7831   0.00    0.0
2161 358556.000   22.330472629  114.180755893    34.5974   4  13   0.9849   1.1162   4.0626  -0.3426   1.1190  -0.8008   0.00    0.0
2161 358557.000   22.330475356  114.180757791    33.1577   4  12   1.0201   1.1564   4.1408  -0.3937   1.1044  -0.9141   0.00    0.0
2161 358558.000   22.330467017  114.180776564    36.9062   4  14   0.9537   1.0995   3.9473  -0.2519   0.9434  -0.7206   0.00    0.0
2161 358559.000   22.330476987  114.180769719    33.7047   4  12   1.0116   1.1429   3.9073  -0.3798   1.0369  -0.8593   0.00    0.0
2161 358560.000   22.330479963  114.180773964    32.6856   4  14   0.9607   1.0652   3.5987  -0.3621   0.9084  -0.8196   0.00    0.0
2161 358561.000   22.330479416  114.180783154    31.0284   4  13   0.9646   1.0860   3.6400  -0.3243   1.0010  -0.7255   0.00    0.0
2161 358562.000   22.330481933  114.180778115    28.8869   4  13   0.9641   1.0866   3.6285  -0.3232   1.0039  -0.7174   0.00    0.0
2161 358563.000   22.330475583  114.180771553    26.2803   4  13   0.9642   1.0862   3.6155  -0.3227   0.9995  -0.7162   0.00    0.0
2161 358564.000   22.330473013  114.180783151    26.3808   4  13   0.9642   1.0862   3.6111  -0.3227   0.9985  -0.7154   0.00    0.0
2161 358565.000   22.330471250  114.180784007    24.6124   4  13   0.9642   1.0862   3.6113  -0.3228   0.9987  -0.7158   0.00    0.0
2161 358566.000   22.330451838  114.180775849    24.6022   4  13   1.0097   1.0923   3.6424  -0.3724   1.0256  -0.8088   0.00    0.0
2161 358567.000   22.330434694  114.180772545    24.1330   4  14   0.9536   1.0365   3.5793  -0.2386   0.9113  -0.6661   0.00    0.0
2161 358568.000   22.330420040  114.180766397    24.6868   4  14   0.9584   1.0612   3.4571  -0.3554   0.8689  -0.7818   0.00    0.0
2161 358569.000   22.330404486  114.180765901    25.3089   4  14   0.9587   1.0614   3.4329  -0.3571   0.8643  -0.7851   0.00    0.0
2161 358570.000   22.330388260  114.180775503    27.2841   4  13   0.9893   1.0591   3.5451  -0.3693   0.9287  -0.7397   0.00    0.0
2161 358571.000   22.330370040  114.180776659    33.9485   4  16   0.9551   0.9895   3.5149   0.0488   0.6793  -0.7656   0.00    0.0
2161 358572.000   22.330347905  114.180785100    37.0173   4  15   0.9616   0.9670   3.8050   0.2593   0.3499  -0.9022   0.00    0.0
2161 358573.000   22.330330171  114.180788758    33.5613   4  15   0.9639   1.0292   3.7757   0.3273  -0.5696  -0.9147   0.00    0.0
2161 358574.000   22.330324330  114.180785447    28.8356   4  15   1.0090   0.9808   3.8335   0.2420   0.2448  -1.0065   0.00    0.0
2161 358575.000   22.330318549  114.180778350    30.2572   4  15   0.9990   0.9619   3.8201   0.2913  -0.0672  -0.9779   0.00    0.0
2161 358576.000   22.330322253  114.180789128    23.8148   4  15   1.0048   0.9715   4.3534   0.3340  -0.5615  -1.2044   0.00    0.0
2161 358577.000   22.330311485  114.180799111    25.2533   4  16   1.0035   0.9615   4.3880   0.3636  -0.7229  -1.2061   0.00    0.0
2161 358578.000   22.330300110  114.180809425    23.1194   4  18   0.9376   0.9361   4.0234   0.2478  -0.3956  -0.9188   0.00    0.0
2161 358579.000   22.330291105  114.180824707    23.9612   4  18   0.9351   0.9355   3.9412   0.2437  -0.3624  -0.8888   0.00    0.0
2161 358580.000   22.330289980  114.180846073    24.0719   4  17   0.9673   0.9598   4.1479   0.2490   0.3187  -0.9770   0.00    0.0
2161 358581.000   22.330265085  114.180874074    37.3462   4  16   0.9397   0.9543   3.7932   0.1877   0.5534  -0.8022   0.00    0.0
2161 358582.000   22.330251834  114.180911028    44.8949   4  15   0.9924   0.9698   3.7749   0.1127   0.6264  -0.9003   0.00    0.0
2161 358583.000   22.330252383  114.180949624    46.7506   4  16   0.9696   0.9561   3.7256   0.2182   0.5394  -0.8285   0.00    0.0
2161 358584.000   22.330262718  114.180999291    46.0686   4  16   0.9392   0.9544   3.7047   0.1884   0.5465  -0.7803   0.00    0.0
2161 358585.000   22.330270005  114.181050422    45.3900   4  16   0.9684   0.9559   3.7095   0.2198   0.5340  -0.8188   0.00    0.0
2161 358586.000   22.330272348  114.181104862    45.1226   4  16   0.9391   0.9544   3.6999   0.1884   0.5468  -0.7809   0.00    0.0
2161 358587.000   22.330272224  114.181156530    41.9254   4  16   0.9386   0.9544   3.6968   0.1881   0.5480  -0.7777   0.00    0.0
2161 358588.000   22.330274038  114.181214793    38.5372   4  16   0.9385   0.9544   3.6961   0.1878   0.5482  -0.7783   0.00    0.0
2161 358589.000   22.330264184  114.181274690    40.8685   4  16   0.9385   0.9545   3.6961   0.1877   0.5487  -0.7784   0.00    0.0
2161 358590.000   22.330256721  114.181338466    42.8680   4  15   0.9618   0.9666   3.8596   0.2594   0.3632  -0.9165   0.00    0.0
2161 358591.000   22.330256211  114.181407551    43.2774   4  16   0.9352   0.9652   3.8313   0.2354   0.4049  -0.8359   0.00    0.0
2161 358592.000   22.330250255  114.181470595    43.2658   4  16   0.9643   0.9673   3.8317   0.2644   0.3866  -0.8708   0.00    0.0
2161 358593.000   22.330242110  114.181525718    44.8273   4  16   0.9938   0.9480   3.7276   0.3139  -0.3672  -0.9355   0.00    0.0
2161 358594.000   22.330240751  114.181586508    46.8299   4  16   0.9945   0.9480   3.7054   0.3158  -0.3852  -0.9349   0.00    0.0
2161 358595.000   22.330240969  114.181650121    47.3840   4  16   0.9945   0.9479   3.7043   0.3155  -0.3806  -0.9339   0.00    0.0
2161 358596.000   22.330241934  114.181708140    46.8974   4  16   0.9945   0.9479   3.7046   0.3155  -0.3803  -0.9342   0.00    0.0
2161 358597.000   22.330231227  114.181749899    44.7914   4  16   0.9945   0.9479   3.7038   0.3154  -0.3793  -0.9340   0.00    0.0
2161 358598.000   22.330227167  114.181774739    41.0480   4  15   0.9704   0.9667   3.7023   0.2343  -0.2271  -0.9105   0.00    0.0
2161 358599.000   22.330228547  114.181786749    39.3236   4  16   0.9609   0.9455   3.6869   0.2842  -0.3367  -0.8845   0.00    0.0
2161 358600.000   22.330236203  114.181793898    39.1402   4  16   0.9606   0.9454   3.6835   0.2847  -0.3426  -0.8830   0.00    0.0
2161 358601.000   22.330245401  114.181805096    34.0165   4  16   0.9966   0.9598   4.1850   0.3540  -0.6688  -1.1436   0.00    0.0
2161 358602.000   22.330254067  114.181802032    27.7770   4  14   1.0546   0.9899   4.4732   0.2502  -0.5382  -1.3334   0.00    0.0
2161 358603.000   22.330256806  114.181803558    23.9168   4  14   1.0584   0.9902   4.5380   0.2464  -0.5255  -1.3578   0.00    0.0
2161 358604.000   22.330260221  114.181808456    23.0347   4  14   1.0584   0.9904   4.5441   0.2464  -0.5287  -1.3582   0.00    0.0
2161 358605.000   22.330262683  114.181808328    22.0662   4  14   1.0584   0.9904   4.5473   0.2462  -0.5282  -1.3591   0.00    0.0
2161 358606.000   22.330270892  114.181807244    21.1266   4  14   1.0586   0.9904   4.5537   0.2461  -0.5282  -1.3609   0.00    0.0
2161 358607.000   22.330272003  114.181804334    19.4268   4  14   1.0588   0.9904   4.5589   0.2461  -0.5283  -1.3624   0.00    0.0
2161 358608.000   22.330276694  114.181800791    15.4878   4  14   1.0937   1.0150   4.6886  -0.0166  -0.1941  -1.4681   0.00    0.0
2161 358609.000   22.330267312  114.181801452    13.6604   4  13   1.1491   1.0183   4.7365   0.1542   0.0661  -1.4487   0.00    0.0
2161 358610.000   22.330264420  114.181812100    15.9450   4  13   1.2093   1.0205   4.8090   0.2185  -0.2139  -1.5451   0.00    0.0
2161 358611.000   22.330261465  114.181826213    16.8826   4  14   1.1921   0.9900   4.7503   0.3225  -0.5141  -1.4945   0.00    0.0
2161 358612.000   22.330267089  114.181857145    18.7569   4  15   1.0722   0.9854   4.6687   0.2415  -0.4797  -1.4209   0.00    0.0
2161 358613.000   22.330272796  114.181891463    22.3606   4  15   1.0543   0.9769   4.0140   0.1610   0.2861  -1.1508   0.00    0.0
2161 358614.000   22.330258949  114.181913394    28.2876   4  16   1.0540   0.9708   4.1888   0.1182   0.2547  -1.2127   0.00    0.0
2161 358615.000   22.330254076  114.181939035    28.5852   4  16   1.0169   0.9694   4.2267  -0.0166   0.2981  -1.1721   0.00    0.0
2161 358616.000   22.330262191  114.181967078    25.6556   4  16   1.0158   0.9694   4.2269  -0.0269   0.3031  -1.1688   0.00    0.0
2161 358617.000   22.330274538  114.181989071    21.3694   4  16   1.0156   0.9694   4.2193  -0.0280   0.3025  -1.1676   0.00    0.0
2161 358618.000   22.330269181  114.182011217    31.7396   4  18   0.9400   0.9298   3.6377   0.2076   0.2776  -0.7865   0.00    0.0
2161 358619.000   22.330297860  114.182008252    36.4090   4  16   1.0160   0.9771   4.2308   0.2878  -0.5189  -1.2004   0.00    0.0
2161 358620.000   22.330338724  114.182009113    39.1802   4  17   0.9891   0.9588   4.1859   0.1875  -0.1627  -1.1080   0.00    0.0
2161 358621.000   22.330372087  114.182009220    39.7660   4  17   0.9869   0.9587   4.1519   0.1825  -0.0743  -1.0896   0.00    0.0
2161 358622.000   22.330420519  114.182006949    36.6028   4  17   0.9868   0.9587   4.1385   0.1826  -0.0892  -1.0878   0.00    0.0
2161 358623.000   22.330468672  114.182008026    30.8094   4  18   0.9546   0.9573   4.0407   0.1418   0.2002  -0.9796   0.00    0.0
2161 358624.000   22.330515968  114.182007912    28.9842   4  18   0.9355   0.9362   3.9556   0.2378  -0.3152  -0.8992   0.00    0.0
2161 358625.000   22.330564023  114.182013845    26.1116   4  18   0.9143   0.9281   3.5440   0.1830   0.3188  -0.6801   0.00    0.0
2161 358626.000   22.330610310  114.182014674    23.0165   4  18   0.9133   0.9280   3.4653   0.1823   0.3299  -0.6584   0.00    0.0
2161 358627.000   22.330663265  114.182019469    22.3140   4  18   0.9329   0.9356   3.8209   0.2365  -0.2948  -0.8616   0.00    0.0
2161 358628.000   22.330706784  114.182024546    26.7248   4  18   0.9526   0.9568   3.9831   0.1436   0.1868  -0.9610   0.00    0.0
2161 358629.000   22.330764548  114.182026788    31.8716   4  18   0.9355   0.9545   3.9514   0.2318  -0.2230  -0.9009   0.00    0.0
2161 358630.000   22.330820778  114.182009120    29.1470   4  18   0.9460   0.9781   3.9967   0.3130   0.3283  -0.8299   0.00    0.0
2161 358631.000   22.330874580  114.182005732    27.1446   4  18   0.9348   0.9365   3.9429   0.2388  -0.2998  -0.8917   0.00    0.0
2161 358632.000   22.330933342  114.181999527    25.7831   4  18   0.9350   0.9362   3.9320   0.2392  -0.3198  -0.8942   0.00    0.0
2161 358633.000   22.330994966  114.181985887    26.2359   4  17   0.9618   0.9556   4.1466   0.3168  -0.5939  -1.0468   0.00    0.0
2161 358634.000   22.331047224  114.181966754    26.6605   4  16   1.0164   1.0036   4.3686   0.1692  -0.2660  -1.2305   0.00    0.0
2161 358635.000   22.331105081  114.181958182    31.0268   4  17   0.9814   0.9907   4.1514  -0.1413   0.4568  -1.0705   0.00    0.0
2161 358636.000   22.331162329  114.181961734    37.2630   4  18   0.9542   0.9581   4.0348   0.1346   0.2464  -0.9768   0.00    0.0
2161 358637.000   22.331238252  114.181971336    38.2885   4  19   0.9165   0.9703   3.3150   0.2590   0.6328  -0.4074   0.00    0.0
2161 358638.000   22.331290262  114.181953967    37.5040   4  18   0.9583   1.0034   3.8783   0.2442   0.5405  -0.8448   0.00    0.0
2161 358639.000   22.331352809  114.181934835    30.9457   4  17   0.9334   0.9392   3.5777   0.0896   0.4218  -0.7410   0.00    0.0
2161 358640.000   22.331411350  114.181924346    29.8416   4  18   0.9178   0.9343   3.2264  -0.0823   0.5376  -0.5438   0.00    0.0
2161 358641.000   22.331470050  114.181909549    27.2591   4  19   0.9141   0.9477   3.1811  -0.1271   0.5828  -0.5443   0.00    0.0
2161 358642.000   22.331525446  114.181887563    28.8957   4  17   0.9564   0.9545   3.9104   0.3066  -0.5277  -0.9789   0.00    0.0
2161 358643.000   22.331581587  114.181864345    29.3118   4  17   0.9830   0.9751   4.2393   0.2545  -0.4756  -1.1301   0.00    0.0
2161 358644.000   22.331636236  114.181851158    32.7465   4  17   0.9646   0.9563   4.2237   0.3181  -0.6017  -1.0754   0.00    0.0
2161 358645.000   22.331700394  114.181837038    30.8857   4  17   0.9636   0.9563   4.2035   0.3189  -0.6074  -1.0667   0.00    0.0
2161 358646.000   22.331752640  114.181811425    29.0308   4  17   0.9636   0.9562   4.2043   0.3188  -0.6048  -1.0675   0.00    0.0
2161 358647.000   22.331813288  114.181800444    27.8730   4  18   0.9361   0.9365   3.9870   0.2395  -0.3213  -0.9121   0.00    0.0
2161 358648.000   22.331888771  114.181788138    27.2384   4  18   0.9348   0.9362   3.9397   0.2369  -0.2953  -0.8953   0.00    0.0
2161 358649.000   22.331954543  114.181761832    28.2775   4  18   0.9348   0.9361   3.9353   0.2368  -0.2978  -0.8956   0.00    0.0
2161 358650.000   22.332011270  114.181731737    27.5339   4  18   0.9348   0.9361   3.9346   0.2366  -0.2965  -0.8955   0.00    0.0
2161 358651.000   22.332059611  114.181703397    29.5739   4  18   0.9348   0.9362   3.9324   0.2365  -0.2957  -0.8952   0.00    0.0
2161 358652.000   22.332119526  114.181702193    31.8345   4  18   0.9348   0.9546   3.9373   0.2308  -0.2090  -0.8967   0.00    0.0
2161 358653.000   22.332170126  114.181681598    34.2247   4  18   0.9347   0.9364   3.9315   0.2361  -0.2894  -0.8952   0.00    0.0
2161 358654.000   22.332218955  114.181662173    36.7357   4  17   0.9615   0.9555   4.1447   0.3144  -0.5808  -1.0478   0.00    0.0
2161 358655.000   22.332265866  114.181658262    33.6928   4  19   0.9011   0.9239   3.2908   0.1347   0.4928  -0.5152   0.00    0.0
2161 358656.000   22.332298091  114.181655674    33.6494   4  18   0.9206   0.9249   3.1863   0.1607   0.4788  -0.5558   0.00    0.0
2161 358657.000   22.332316202  114.181639838    32.9524   4  16   0.9400   0.9655   3.5388   0.1614   0.5205  -0.7780   0.00    0.0
2161 358658.000   22.332347169  114.181631440    25.6262   4  16   0.9452   0.9988   3.9838   0.3056   0.5349  -0.8211   0.00    0.0
2161 358659.000   22.332354694  114.181622915    27.8808   4  16   0.9757   0.9821   4.1029   0.3363   0.2958  -0.9449   0.00    0.0
2161 358660.000   22.332362352  114.181604326    28.7878   4  17   0.9657   0.9394   4.0487   0.2683  -0.3663  -1.0099   0.00    0.0
2161 358661.000   22.332383545  114.181582340    26.3758   4  17   0.9657   0.9388   4.0331   0.2680  -0.3769  -1.0089   0.00    0.0
2161 358662.000   22.332396538  114.181561663    27.8253   4  17   0.9656   0.9386   4.0374   0.2672  -0.3730  -1.0092   0.00    0.0
2161 358663.000   22.332405442  114.181540551    26.4552   4  18   0.9223   0.9250   3.3143   0.1604   0.4800  -0.5993   0.00    0.0
2161 358664.000   22.332409575  114.181509656    26.7186   4  17   0.9368   0.9302   3.4590   0.2062   0.3173  -0.7374   0.00    0.0
2161 358665.000   22.332409683  114.181473376    27.1056   4  17   0.9379   0.9302   3.5173   0.2070   0.3029  -0.7586   0.00    0.0
2161 358666.000   22.332408675  114.181436677    28.1370   4  16   0.9505   0.9399   3.5272   0.1485   0.2575  -0.7367   0.00    0.0
2161 358667.000   22.332401568  114.181409952    26.2781   4  17   0.9889   0.9312   3.5622   0.2347   0.3393  -0.6268   0.00    0.0
2161 358668.000   22.332400683  114.181375293    25.0374   4  17   0.9894   0.9312   3.5697   0.2356   0.3456  -0.6206   0.00    0.0
2161 358669.000   22.332409992  114.181342799    28.0853   4  17   0.9683   0.9321   3.5345   0.2384   0.2841  -0.7955   0.00    0.0
2161 358670.000   22.332409001  114.181310803    27.8737   4  17   0.9685   0.9322   3.5275   0.2385   0.2799  -0.8029   0.00    0.0
2161 358671.000   22.332416369  114.181283854    28.6324   4  17   0.9385   0.9304   3.5170   0.2073   0.3079  -0.7605   0.00    0.0
2161 358672.000   22.332407958  114.181263281    25.1665   4  17   0.9677   0.9322   3.5250   0.2379   0.2835  -0.7992   0.00    0.0
2161 358673.000   22.332411165  114.181252798    23.7547   4  17   0.9385   0.9304   3.5165   0.2071   0.3089  -0.7611   0.00    0.0
2161 358674.000   22.332419123  114.181244042    23.0945   4  17   0.9380   0.9304   3.5141   0.2067   0.3113  -0.7580   0.00    0.0
2161 358675.000   22.332417870  114.181231612    20.6472   4  17   0.9625   0.9385   3.9019   0.2628  -0.3323  -0.9706   0.00    0.0
2161 358676.000   22.332414636  114.181213348    24.0602   4  17   0.9393   0.9305   3.5964   0.2075   0.3011  -0.7841   0.00    0.0
2161 358677.000   22.332418279  114.181193778    24.8114   4  17   0.9379   0.9306   3.5216   0.2063   0.3169  -0.7593   0.00    0.0
2161 358678.000   22.332433539  114.181177572    24.4987   4  18   0.9139   0.9292   3.4632   0.1790   0.3578  -0.6711   0.00    0.0
2161 358679.000   22.332441895  114.181156431    22.9566   4  18   0.9134   0.9292   3.4545   0.1786   0.3607  -0.6649   0.00    0.0
2161 358680.000   22.332439649  114.181130933    20.7627   4  18   0.9133   0.9292   3.4532   0.1784   0.3606  -0.6656   0.00    0.0
2161 358681.000   22.332441570  114.181095150    20.7840   4  18   0.9133   0.9292   3.4514   0.1783   0.3609  -0.6654   0.00    0.0
2161 358682.000   22.332446923  114.181063914    16.9533   4  18   0.9133   0.9293   3.4499   0.1783   0.3613  -0.6654   0.00    0.0
2161 358683.000   22.332443972  114.181026387    17.1107   4  17   0.9372   0.9306   3.5000   0.2055   0.3185  -0.7535   0.00    0.0
2161 358684.000   22.332439324  114.180996813    19.7982   4  17   0.9379   0.9307   3.5122   0.2058   0.3169  -0.7605   0.00    0.0
2161 358685.000   22.332445342  114.180974460    21.3626   4  18   0.9139   0.9294   3.4620   0.1785   0.3621  -0.6719   0.00    0.0
2161 358686.000   22.332443352  114.180964635    23.0961   4  18   0.9134   0.9294   3.4504   0.1781   0.3641  -0.6654   0.00    0.0
2161 358687.000   22.332440073  114.180950991    25.7182   4  18   0.9133   0.9294   3.4498   0.1779   0.3643  -0.6661   0.00    0.0
2161 358688.000   22.332434423  114.180934391    28.5669   4  18   0.9133   0.9294   3.4502   0.1778   0.3650  -0.6662   0.00    0.0
2161 358689.000   22.332426782  114.180921166    28.8121   4  18   0.9133   0.9294   3.4498   0.1777   0.3655  -0.6664   0.00    0.0
2161 358690.000   22.332415017  114.180909851    27.1120   4  18   0.9133   0.9295   3.4494   0.1776   0.3660  -0.6665   0.00    0.0
2161 358691.000   22.332397459  114.180903706    25.0169   4  18   0.9133   0.9295   3.4493   0.1776   0.3666  -0.6666   0.00    0.0
2161 358692.000   22.332375247  114.180893989    23.5369   4  18   0.9133   0.9295   3.4493   0.1775   0.3672  -0.6668   0.00    0.0
2161 358693.000   22.332350214  114.180889516    21.7796   4  18   0.9133   0.9295   3.4494   0.1774   0.3677  -0.6669   0.00    0.0
2161 358694.000   22.332320992  114.180890700    19.5912   4  18   0.9133   0.9296   3.4494   0.1773   0.3683  -0.6671   0.00    0.0
2161 358695.000   22.332276900  114.180886969    22.0436   4  17   0.9373   0.9309   3.5004   0.2047   0.3263  -0.7555   0.00    0.0
2161 358696.000   22.332245095  114.180880387    23.1447   4  17   0.9380   0.9310   3.5128   0.2051   0.3248  -0.7626   0.00    0.0
2161 358697.000   22.332207642  114.180884111    23.5546   4  17   0.9381   0.9310   3.5141   0.2051   0.3261  -0.7623   0.00    0.0
2161 358698.000   22.332172112  114.180874532    22.6348   4  17   0.9381   0.9310   3.5142   0.2051   0.3267  -0.7625   0.00    0.0
2161 358699.000   22.332139729  114.180871027    23.1539   4  17   0.9381   0.9310   3.5147   0.2050   0.3275  -0.7627   0.00    0.0
2161 358700.000   22.332100982  114.180868997    24.9420   4  17   0.9381   0.9311   3.5153   0.2050   0.3282  -0.7629   0.00    0.0
2161 358701.000   22.332061979  114.180872689    27.3854   4  17   0.9381   0.9311   3.5155   0.2049   0.3289  -0.7631   0.00    0.0
2161 358702.000   22.332033003  114.180870343    27.7614   4  17   0.9381   0.9311   3.5156   0.2048   0.3295  -0.7633   0.00    0.0
2161 358703.000   22.332012806  114.180866437    25.7954   4  17   0.9381   0.9311   3.5156   0.2048   0.3301  -0.7635   0.00    0.0
2161 358704.000   22.331990332  114.180861551    24.9359   4  17   0.9381   0.9312   3.5157   0.2047   0.3308  -0.7636   0.00    0.0
2161 358705.000   22.331969707  114.180859622    25.9639   4  17   0.9381   0.9312   3.5158   0.2047   0.3314  -0.7638   0.00    0.0
2161 358706.000   22.331954676  114.180853471    26.6692   4  17   0.9381   0.9312   3.5159   0.2046   0.3321  -0.7640   0.00    0.0
2161 358707.000   22.331942228  114.180853928    24.8643   4  17   0.9626   0.9389   3.9002   0.2600  -0.3023  -0.9734   0.00    0.0
2161 358708.000   22.331926811  114.180855608    24.0369   4  17   0.9655   0.9392   4.0145   0.2630  -0.3332  -1.0096   0.00    0.0
2161 358709.000   22.331920284  114.180856155    21.2250   4  18   0.9354   0.9370   3.9380   0.2314  -0.2307  -0.9052   0.00    0.0
2161 358710.000   22.331908594  114.180862182    18.4253   4  18   0.9344   0.9369   3.9154   0.2305  -0.2209  -0.8951   0.00    0.0
2161 358711.000   22.331894120  114.180859417    20.2412   4  19   0.9143   0.9301   3.5364   0.1767   0.3768  -0.6921   0.00    0.0
2161 358712.000   22.331880338  114.180859200    21.5770   4  19   0.9134   0.9301   3.4637   0.1759   0.3829  -0.6709   0.00    0.0
2161 358713.000   22.331870992  114.180858388    21.6643   4  18   0.9325   0.9368   3.8099   0.2280  -0.1854  -0.8664   0.00    0.0
2161 358714.000   22.331854246  114.180867940    21.2452   4  18   0.9344   0.9370   3.9082   0.2301  -0.2206  -0.8959   0.00    0.0
2161 358715.000   22.331836296  114.180871059    18.7974   4  18   0.9344   0.9370   3.9158   0.2299  -0.2148  -0.8967   0.00    0.0
2161 358716.000   22.331813987  114.180871481    17.0354   4  18   0.9343   0.9370   3.9122   0.2298  -0.2136  -0.8960   0.00    0.0
2161 358717.000   22.331787997  114.180869860    14.9725   4  18   0.9344   0.9370   3.9138   0.2297  -0.2117  -0.8963   0.00    0.0
2161 358718.000   22.331761905  114.180863214    14.7115   4  18   0.9344   0.9371   3.9172   0.2296  -0.2100  -0.8971   0.00    0.0
2161 358719.000   22.331734919  114.180855989    12.0498   4  17   0.9364   0.9620   4.1146   0.1984   0.4787  -0.9394   0.00    0.0
2161 358720.000   22.331700765  114.180857602    11.1964   4  17   0.9370   0.9626   4.1697   0.1951   0.5038  -0.9517   0.00    0.0
2161 358721.000   22.331678335  114.180852773     6.3963   4  17   0.9371   0.9627   4.1765   0.1954   0.5019  -0.9534   0.00    0.0
2161 358722.000   22.331649906  114.180840904     5.5719   4  17   0.9371   0.9628   4.1763   0.1952   0.5027  -0.9534   0.00    0.0
2161 358723.000   22.331617312  114.180840524     5.3523   4  17   0.9371   0.9628   4.1778   0.1950   0.5034  -0.9539   0.00    0.0
2161 358724.000   22.331591299  114.180847939     9.2612   4  18   0.9350   0.9376   3.9741   0.2278  -0.1726  -0.9103   0.00    0.0
2161 358725.000   22.331554310  114.180843387    16.8222   4  18   0.9144   0.9305   3.5464   0.1757   0.3831  -0.6961   0.00    0.0
2161 358726.000   22.331506981  114.180831149    19.0926   4  17   0.9377   0.9318   3.5214   0.2028   0.3498  -0.7637   0.00    0.0
2161 358727.000   22.331465814  114.180827829    19.9851   4  17   0.9384   0.9318   3.5280   0.2032   0.3453  -0.7706   0.00    0.0
2161 358728.000   22.331418157  114.180830919    19.5975   4  18   0.9140   0.9305   3.4729   0.1751   0.3885  -0.6798   0.00    0.0
2161 358729.000   22.331369005  114.180847333    20.4198   4  18   0.9134   0.9305   3.4560   0.1748   0.3896  -0.6724   0.00    0.0
2161 358730.000   22.331323197  114.180842078    19.0902   4  18   0.9387   0.9966   3.8193   0.1188  -0.3990  -0.8398   0.00    0.0
2161 358731.000   22.331279959  114.180827447    16.4937   4  18   0.9404   0.9981   3.9254   0.1237  -0.4370  -0.8685   0.00    0.0
2161 358732.000   22.331228812  114.180834744    10.8369   4  18   0.9343   0.9383   3.9152   0.2274  -0.2042  -0.8966   0.00    0.0
2161 358733.000   22.331178954  114.180835169     6.8427   4  18   0.9343   0.9376   3.9088   0.2274  -0.1822  -0.8968   0.00    0.0
2161 358734.000   22.331118141  114.180826571    11.8498   4  16   0.9403   0.9594   3.7527   0.1735   0.6063  -0.8202   0.00    0.0
2161 358735.000   22.331069120  114.180813989    14.3766   4  16   0.9399   0.9603   3.7208   0.1713   0.6211  -0.8106   0.00    0.0
2161 358736.000   22.331018276  114.180817631    16.7775   4  16   0.9400   0.9603   3.7191   0.1717   0.6176  -0.8108   0.00    0.0
2161 358737.000   22.330969855  114.180801810    17.5700   4  17   0.9388   0.9326   3.5614   0.2012   0.3696  -0.7785   0.00    0.0
2161 358738.000   22.330923382  114.180794491    17.8364   4  17   0.9462   0.9894   3.5378   0.0342   0.1599  -0.7480   0.00    0.0
2161 358739.000   22.330880319  114.180790256    19.7377   4  17   0.9386   0.9516   3.5298   0.1941   0.3955  -0.7719   0.00    0.0
2161 358740.000   22.330824115  114.180790136    20.3899   4  16   0.9397   0.9602   3.6747   0.1730   0.6050  -0.8024   0.00    0.0
2161 358741.000   22.330771102  114.180790235    20.4449   4  16   0.9402   0.9818   3.7206   0.1589   0.6628  -0.8131   0.00    0.0
2161 358742.000   22.330724807  114.180789608    21.0905   4  16   0.9402   0.9822   3.7259   0.1584   0.6652  -0.8146   0.00    0.0
2161 358743.000   22.330680174  114.180790180    22.4976   4  16   0.9400   0.9610   3.7157   0.1707   0.6218  -0.8113   0.00    0.0
2161 358744.000   22.330646926  114.180791600    24.4354   4  16   0.9400   0.9607   3.7145   0.1711   0.6194  -0.8112   0.00    0.0
2161 358745.000   22.330617836  114.180774568    22.0027   4  16   0.9401   0.9606   3.7158   0.1709   0.6203  -0.8117   0.00    0.0
2161 358746.000   22.330598429  114.180763584    19.3826   4  16   0.9401   0.9607   3.7165   0.1708   0.6207  -0.8120   0.00    0.0
2161 358747.000   22.330586229  114.180774128    18.3349   4  17   0.9635   0.9399   3.9521   0.2554  -0.2409  -0.9901   0.00    0.0
2161 358748.000   22.330565038  114.180764351    19.8046   4  16   0.9498   1.0460   3.7842  -0.1397   0.5886  -0.8185   0.00    0.0
2161 358749.000   22.330537099  114.180759995    21.9032   4  15   0.9544   1.0752   3.8576  -0.2148   0.7735  -0.8588   0.00    0.0
2161 358750.000   22.330531703  114.180760055    21.4057   4  16   0.9492   1.0497   3.7633  -0.1508   0.6217  -0.8085   0.00    0.0
2161 358751.000   22.330520411  114.180763839    25.6055   4  16   0.9489   1.0492   3.7408  -0.1476   0.6075  -0.8014   0.00    0.0
2161 358752.000   22.330512732  114.180758629    29.7732   4  15   0.9733   1.0708   3.7809  -0.2612   0.7017  -0.8747   0.00    0.0
2161 358753.000   22.330521816  114.180771366    29.8395   4  15   0.9741   1.0715   3.7916  -0.2641   0.7092  -0.8813   0.00    0.0
2161 358754.000   22.330528184  114.180779297    23.9671   4  16   0.9496   1.0499   3.7489  -0.1522   0.6164  -0.8074   0.00    0.0
2161 358755.000   22.330536374  114.180775629    20.8174   4  16   0.9406   0.9841   3.7326   0.1541   0.6670  -0.8173   0.00    0.0
2161 358756.000   22.330541624  114.180773692    18.7099   4  16   0.9405   0.9833   3.7305   0.1553   0.6707  -0.8183   0.00    0.0
2161 358757.000   22.330538189  114.180774534    18.2854   4  16   0.9405   0.9830   3.7308   0.1560   0.6704  -0.8183   0.00    0.0
2161 358758.000   22.330536829  114.180772854    18.7951   4  16   0.9405   0.9830   3.7306   0.1559   0.6709  -0.8186   0.00    0.0
