% program   : RTKPOST demo5 b34k
% inp file  : D:\0POLYU¿Î³Ì\AAE6102\25.3.20_Lab\AAE6102_Laboratory-main\GNSS Data\UrbanNav - Medium\20210521.medium-urban.whampoa.ublox.f9p.obs
% inp file  : D:\0POLYU¿Î³Ì\AAE6102\25.3.20_Lab\AAE6102_Laboratory-main\GNSS Data\UrbanNav - Medium\hksc141g.21o
% inp file  : D:\0POLYU¿Î³Ì\AAE6102\25.3.20_Lab\AAE6102_Laboratory-main\GNSS Data\UrbanNav - Medium\hksc141g.21*
% obs start : 2021/05/21 06:29:02.0 GPST (week2158 455342.0s)
% obs end   : 2021/05/21 06:54:39.0 GPST (week2158 456879.0s)
% pos mode  : DGPS
% freqs     : L1+L2/E5b
% solution  : Forward
% elev mask : 20.0 deg
% dynamics  : on
% tidecorr  : off
% ionos opt : Broadcast
% tropo opt : Saastamoinen
% ephemeris : Broadcast
% navi sys  : GPS GLONASS Galileo
% antenna1  :                       ( 0.0000  0.0000  0.0000)
% antenna2  :                       ( 0.0000  0.0000  0.0000)
% ref pos   : 22.322172082  114.141187963    20.2386
%
% (lat/lon/height=WGS84/ellipsoidal,Q=1:fix,2:float,3:sbas,4:dgps,5:single,6:ppp,ns=# of satellites)
%  GPST          latitude(deg) longitude(deg)  height(m)   Q  ns   sdn(m)   sde(m)   sdu(m)  sdne(m)  sdeu(m)  sdun(m) age(s)  ratio
2158 455342.000   22.301558107  114.190299701     3.5274   4  17   0.9842   1.1447   2.5792   0.2545   0.7230   0.4884   0.00    0.0
2158 455343.000   22.301560277  114.190298805     4.0482   4  17   0.9798   1.1374   2.5108   0.2501   0.7004   0.4737   0.00    0.0
2158 455344.000   22.301565078  114.190296682     5.1310   4  17   0.9800   1.1380   2.5245   0.2508   0.7054   0.4770   0.00    0.0
2158 455345.000   22.301569773  114.190294290     6.0513   4  17   0.9671   1.1227   2.5012   0.2479   0.7013   0.4742   0.00    0.0
2158 455346.000   22.301571886  114.190293808     6.3842   4  17   0.9615   1.1136   2.4303   0.2435   0.6821   0.4612   0.00    0.0
2158 455347.000   22.301572303  114.190297542     6.5215   4  17   0.9611   1.1122   2.3590   0.2412   0.6620   0.4477   0.00    0.0
2158 455348.000   22.301570195  114.190295736     6.0753   4  17   0.9609   1.1115   2.3078   0.2398   0.6474   0.4380   0.00    0.0
2158 455349.000   22.301569443  114.190286975     5.8735   4  17   0.9608   1.1112   2.2827   0.2390   0.6404   0.4334   0.00    0.0
2158 455350.000   22.301568840  114.190275243     5.7271   4  17   0.9608   1.1111   2.2760   0.2388   0.6387   0.4324   0.00    0.0
2158 455351.000   22.301571048  114.190263198     5.6252   4  17   0.9608   1.1112   2.2756   0.2388   0.6389   0.4325   0.00    0.0
2158 455352.000   22.301581162  114.190251686     5.7999   4  17   0.9608   1.1112   2.2756   0.2388   0.6391   0.4328   0.00    0.0
2158 455353.000   22.301590443  114.190247426     5.3321   4  17   0.9608   1.1112   2.2751   0.2388   0.6392   0.4329   0.00    0.0
2158 455354.000   22.301604585  114.190238243     5.2944   4  17   0.9608   1.1113   2.2749   0.2388   0.6393   0.4331   0.00    0.0
2158 455355.000   22.301618068  114.190231721     5.4257   4  17   0.9608   1.1113   2.2749   0.2388   0.6396   0.4334   0.00    0.0
2158 455356.000   22.301634039  114.190223835     5.6764   4  17   0.9608   1.1113   2.2750   0.2389   0.6399   0.4337   0.00    0.0
2158 455357.000   22.301650609  114.190210051     4.7652   4  17   0.9608   1.1114   2.2751   0.2389   0.6401   0.4339   0.00    0.0
2158 455358.000   22.301678919  114.190195886     4.8979   4  17   0.9608   1.1114   2.2752   0.2389   0.6404   0.4342   0.00    0.0
2158 455359.000   22.301709044  114.190179438     4.2560   4  17   0.9608   1.1115   2.2754   0.2389   0.6407   0.4345   0.00    0.0
2158 455360.000   22.301747940  114.190158345     4.6008   4  17   0.9608   1.1115   2.2755   0.2389   0.6409   0.4347   0.00    0.0
2158 455361.000   22.301792314  114.190141805     5.0126   4  17   0.9608   1.1115   2.2756   0.2389   0.6412   0.4350   0.00    0.0
2158 455362.000   22.301838733  114.190120963     4.9981   4  17   0.9608   1.1116   2.2757   0.2389   0.6415   0.4353   0.00    0.0
2158 455363.000   22.301890785  114.190096854     5.1570   4  17   0.9608   1.1116   2.2759   0.2389   0.6417   0.4356   0.00    0.0
2158 455364.000   22.301944377  114.190068539     5.1660   4  17   0.9608   1.1117   2.2760   0.2389   0.6420   0.4358   0.00    0.0
2158 455365.000   22.301995670  114.190040728     4.8614   4  17   0.9609   1.1117   2.2761   0.2389   0.6423   0.4361   0.00    0.0
2158 455366.000   22.302048758  114.190018413     4.4214   4  16   0.9904   1.1502   2.2926   0.3576   0.5764   0.3533   0.00    0.0
2158 455367.000   22.302101141  114.189997296     4.0956   4  16   0.9909   1.1510   2.2957   0.3594   0.5725   0.3483   0.00    0.0
2158 455368.000   22.302144597  114.189969790     4.2401   4  16   0.9910   1.1513   2.2959   0.3600   0.5733   0.3493   0.00    0.0
2158 455369.000   22.302181394  114.189934879     5.4424   4  16   1.0602   1.3136   2.3470   0.5994   0.1573  -0.2441   0.00    0.0
2158 455370.000   22.302223699  114.189903871     6.3209   4  16   1.0626   1.3196   2.3579   0.6067  -0.0497  -0.2742   0.00    0.0
2158 455371.000   22.302247636  114.189861302     5.5794   4  15   1.1007   1.5033   2.4197   0.7582  -0.6229  -0.4777   0.00    0.0
2158 455372.000   22.302262602  114.189817007     5.1670   4  15   1.1347   1.4821   2.3797   0.7698  -0.8007  -0.6003   0.00    0.0
2158 455373.000   22.302278114  114.189771042     4.3607   4  16   1.1294   1.4494   2.3262   0.7463  -0.8923  -0.6495   0.00    0.0
2158 455374.000   22.302280431  114.189728082     4.1588   4  15   1.1726   1.4595   2.3263   0.7821  -0.9135  -0.6943   0.00    0.0
2158 455375.000   22.302278128  114.189689406     4.0211   4  15   1.2224   1.5492   2.3928   0.8970  -0.9090  -0.7334   0.00    0.0
2158 455376.000   22.302262145  114.189658180     4.2703   4  15   1.2247   1.5531   2.4047   0.9016  -0.9112  -0.7373   0.00    0.0
2158 455377.000   22.302242643  114.189621691     4.9653   4  15   1.2360   1.5995   2.4559   0.9364  -0.8001  -0.6787   0.00    0.0
2158 455378.000   22.302224553  114.189594108     5.0102   4  15   1.1068   1.5172   2.4397   0.7728  -0.6633  -0.5050   0.00    0.0
2158 455379.000   22.302205491  114.189561757     4.8749   4  15   1.1039   1.5141   2.4363   0.7677  -0.6527  -0.4931   0.00    0.0
2158 455380.000   22.302176828  114.189522155     5.4258   4  15   1.1034   1.5139   2.4369   0.7670  -0.6526  -0.4936   0.00    0.0
2158 455381.000   22.302165369  114.189514202     3.8535   4  16   1.0644   1.3415   2.3925   0.6095   0.2072  -0.2958   0.00    0.0
2158 455382.000   22.302147636  114.189484277     4.1917   4  16   1.0633   1.3377   2.3861   0.6053   0.2662  -0.2780   0.00    0.0
2158 455383.000   22.302124295  114.189446234     5.4852   4  16   1.0631   1.3368   2.3860   0.6044   0.2623  -0.2790   0.00    0.0
2158 455384.000   22.302101156  114.189411142     6.2971   4  16   1.0630   1.3365   2.3859   0.6041   0.2656  -0.2775   0.00    0.0
2158 455385.000   22.302063115  114.189334798     9.9831   4  16   1.0329   1.2224   2.3577   0.4786   0.5171   0.1213   0.00    0.0
2158 455386.000   22.302045910  114.189310782    10.0483   4  16   1.0323   1.2204   2.3532   0.4760   0.5271   0.1413   0.00    0.0
2158 455387.000   22.302035993  114.189284333     6.9046   4  17   0.9918   1.1540   2.3079   0.3631   0.5783   0.3509   0.00    0.0
2158 455388.000   22.302020998  114.189238644     3.4284   4  17   0.9617   1.1139   2.2837   0.2431   0.6469   0.4406   0.00    0.0
2158 455389.000   22.302016426  114.189188209     2.1179   4  17   0.9612   1.1131   2.2807   0.2405   0.6495   0.4433   0.00    0.0
2158 455390.000   22.302021452  114.189134610     2.3147   4  17   0.9610   1.1128   2.2804   0.2395   0.6493   0.4433   0.00    0.0
2158 455391.000   22.302053240  114.189095581     4.3460   4  16   1.0120   1.1226   2.3999   0.3228   0.7298   0.6590   0.00    0.0
2158 455392.000   22.302074753  114.189035119     3.4442   4  15   1.0792   1.1580   2.6189   0.4259   0.9001   0.8880   0.00    0.0
2158 455393.000   22.302103910  114.188979102    -0.7893   4  15   1.1408   1.1654   2.7842   0.4133   0.9653   0.8181   0.00    0.0
2158 455394.000   22.302134514  114.188930111    -0.9576   4  16   1.1416   1.1485   2.7731   0.4172   0.9234   0.8213   0.00    0.0
2158 455395.000   22.302164605  114.188884811     0.7561   4  15   1.1604   1.1447   2.6535   0.4466   0.8820   0.9347   0.00    0.0
2158 455396.000   22.302177486  114.188843566     2.5062   4  15   1.2953   1.1481   2.8299   0.3818   0.8192   1.2115   0.00    0.0
2158 455397.000   22.302180999  114.188809270     0.8311   4  15   1.4040   1.1563   3.2230   0.2082   0.6891   1.5740   0.00    0.0
2158 455398.000   22.302189688  114.188787068     1.0270   4  15   1.4240   1.1565   3.3250   0.2085   0.6920   1.6356   0.00    0.0
2158 455399.000   22.302197240  114.188768840     1.8270   4  15   1.4244   1.1569   3.3353   0.2112   0.6976   1.6391   0.00    0.0
2158 455400.000   22.302204481  114.188753728     2.7154   4  15   1.4246   1.1569   3.3373   0.2116   0.6984   1.6399   0.00    0.0
2158 455401.000   22.302202797  114.188735205     2.3517   4  15   1.4251   1.1570   3.3428   0.2130   0.7004   1.6424   0.00    0.0
2158 455402.000   22.302198587  114.188720939     2.3508   4  15   1.4256   1.1571   3.3475   0.2143   0.7021   1.6445   0.00    0.0
2158 455403.000   22.302191170  114.188712396     2.2435   4  15   1.4257   1.1571   3.3495   0.2150   0.7030   1.6454   0.00    0.0
2158 455404.000   22.302178485  114.188712136     2.6159   4  15   1.4257   1.1572   3.3502   0.2154   0.7035   1.6457   0.00    0.0
2158 455405.000   22.302174835  114.188707994     3.9243   4  15   1.4257   1.1572   3.3507   0.2159   0.7041   1.6460   0.00    0.0
2158 455406.000   22.302179317  114.188700267     6.3796   4  15   1.4257   1.1572   3.3514   0.2163   0.7047   1.6464   0.00    0.0
2158 455407.000   22.302183312  114.188698428     7.7940   4  15   1.4258   1.1572   3.3522   0.2167   0.7052   1.6467   0.00    0.0
2158 455408.000   22.302183810  114.188696633     8.2549   4  15   1.4258   1.1573   3.3528   0.2172   0.7058   1.6470   0.00    0.0
2158 455409.000   22.302184042  114.188696177     8.1667   4  15   1.4258   1.1573   3.3534   0.2176   0.7063   1.6473   0.00    0.0
2158 455410.000   22.302183354  114.188695924     7.4124   4  15   1.4257   1.1573   3.3539   0.2180   0.7069   1.6475   0.00    0.0
2158 455411.000   22.302182241  114.188696361     6.8663   4  15   1.4257   1.1573   3.3544   0.2184   0.7074   1.6477   0.00    0.0
2158 455412.000   22.302179952  114.188694824     6.2513   4  15   1.4261   1.1736   3.3939   0.2331   0.7751   1.6532   0.00    0.0
2158 455413.000   22.302180152  114.188696142     5.9194   4  15   1.4268   1.1742   3.4036   0.2372   0.7818   1.6569   0.00    0.0
2158 455414.000   22.302179894  114.188695594     6.2007   4  15   1.4266   1.1580   3.3654   0.2227   0.7145   1.6523   0.00    0.0
2158 455415.000   22.302180485  114.188696071     6.5037   4  15   1.4259   1.1575   3.3572   0.2195   0.7091   1.6492   0.00    0.0
2158 455416.000   22.302182062  114.188697272     6.7700   4  15   1.4257   1.1575   3.3574   0.2204   0.7101   1.6491   0.00    0.0
2158 455417.000   22.302182687  114.188698377     6.7455   4  15   1.4257   1.1575   3.3582   0.2208   0.7106   1.6495   0.00    0.0
2158 455418.000   22.302183447  114.188699313     6.8738   4  15   1.4257   1.1575   3.3584   0.2212   0.7111   1.6496   0.00    0.0
2158 455419.000   22.302184035  114.188701368     6.9095   4  15   1.4256   1.1575   3.3586   0.2216   0.7116   1.6497   0.00    0.0
2158 455420.000   22.302184878  114.188702245     6.8475   4  15   1.4256   1.1576   3.3590   0.2220   0.7121   1.6499   0.00    0.0
2158 455421.000   22.302185150  114.188703099     6.7972   4  15   1.4256   1.1576   3.3595   0.2224   0.7127   1.6501   0.00    0.0
2158 455422.000   22.302184972  114.188704433     6.5856   4  15   1.4255   1.1576   3.3601   0.2228   0.7132   1.6504   0.00    0.0
2158 455423.000   22.302185013  114.188704453     6.5057   4  15   1.4255   1.1577   3.3606   0.2232   0.7137   1.6506   0.00    0.0
2158 455424.000   22.302183643  114.188704118     6.5067   4  15   1.4255   1.1577   3.3611   0.2236   0.7142   1.6508   0.00    0.0
2158 455425.000   22.302183591  114.188705204     6.3265   4  15   1.4255   1.1577   3.3616   0.2240   0.7148   1.6511   0.00    0.0
2158 455426.000   22.302182888  114.188705162     5.9804   4  15   1.4255   1.1577   3.3621   0.2243   0.7153   1.6513   0.00    0.0
2158 455427.000   22.302182153  114.188705570     5.9106   4  15   1.4255   1.1578   3.3626   0.2247   0.7158   1.6515   0.00    0.0
2158 455428.000   22.302181457  114.188703749     5.8165   4  15   1.4254   1.1578   3.3631   0.2251   0.7163   1.6518   0.00    0.0
2158 455429.000   22.302182061  114.188703671     5.6273   4  15   1.4254   1.1578   3.3636   0.2255   0.7169   1.6520   0.00    0.0
2158 455430.000   22.302182282  114.188703483     5.8467   4  15   1.4254   1.1578   3.3641   0.2259   0.7174   1.6522   0.00    0.0
2158 455431.000   22.302182498  114.188702803     5.9708   4  15   1.4254   1.1579   3.3646   0.2263   0.7179   1.6525   0.00    0.0
2158 455432.000   22.302181666  114.188701299     6.2752   4  15   1.4254   1.1579   3.3651   0.2267   0.7184   1.6527   0.00    0.0
2158 455433.000   22.302181880  114.188701246     6.4586   4  15   1.4253   1.1579   3.3656   0.2271   0.7190   1.6529   0.00    0.0
2158 455434.000   22.302181903  114.188700787     6.6625   4  15   1.4253   1.1579   3.3662   0.2275   0.7195   1.6532   0.00    0.0
2158 455435.000   22.302181460  114.188700511     7.3022   4  15   1.4253   1.1580   3.3667   0.2279   0.7200   1.6534   0.00    0.0
2158 455436.000   22.302181143  114.188701174     7.4132   4  15   1.4253   1.1580   3.3672   0.2282   0.7205   1.6536   0.00    0.0
2158 455437.000   22.302180935  114.188699647     7.6049   4  15   1.4253   1.1580   3.3677   0.2286   0.7210   1.6539   0.00    0.0
2158 455438.000   22.302181933  114.188699469     7.7442   4  15   1.4253   1.1581   3.3682   0.2290   0.7216   1.6541   0.00    0.0
2158 455439.000   22.302181246  114.188697392     7.8324   4  15   1.4252   1.1581   3.3687   0.2294   0.7221   1.6543   0.00    0.0
2158 455440.000   22.302181476  114.188696253     7.6502   4  15   1.4252   1.1581   3.3692   0.2298   0.7226   1.6546   0.00    0.0
2158 455441.000   22.302181667  114.188696794     7.1637   4  15   1.4252   1.1581   3.3697   0.2302   0.7231   1.6548   0.00    0.0
2158 455442.000   22.302180768  114.188698019     7.0178   4  15   1.4252   1.1582   3.3702   0.2305   0.7237   1.6550   0.00    0.0
2158 455443.000   22.302170613  114.188697398     6.4768   4  15   1.4252   1.1582   3.3708   0.2309   0.7242   1.6553   0.00    0.0
2158 455444.000   22.302146701  114.188693457     5.9325   4  15   1.4252   1.1582   3.3713   0.2313   0.7247   1.6555   0.00    0.0
2158 455445.000   22.302107990  114.188679992     6.2648   4  15   1.4251   1.1582   3.3718   0.2317   0.7252   1.6557   0.00    0.0
2158 455446.000   22.302058899  114.188653248     5.8174   4  15   1.4251   1.1583   3.3723   0.2321   0.7257   1.6560   0.00    0.0
2158 455447.000   22.301999462  114.188619203     4.7859   4  15   1.4251   1.1583   3.3728   0.2325   0.7263   1.6562   0.00    0.0
2158 455448.000   22.301945224  114.188584235     8.0770   4  15   1.3483   1.1396   3.0742  -0.2675   0.4542   1.4406   0.00    0.0
2158 455449.000   22.301889064  114.188541642     9.4142   4  15   1.3400   1.1261   2.9955  -0.2747   0.3474   1.4115   0.00    0.0
2158 455450.000   22.301816882  114.188481099     5.2521   4  15   1.4113   1.1566   3.2890   0.2048   0.6949   1.6114   0.00    0.0
2158 455451.000   22.301765182  114.188425148     4.3757   4  15   1.4242   1.1584   3.3669   0.2341   0.7288   1.6537   0.00    0.0
2158 455452.000   22.301718343  114.188374321     5.3492   4  15   1.4245   1.1584   3.3718   0.2337   0.7281   1.6556   0.00    0.0
2158 455453.000   22.301682808  114.188349153     8.5608   4  15   1.4242   1.1585   3.3700   0.2341   0.7285   1.6548   0.00    0.0
2158 455454.000   22.301650380  114.188298169    14.9841   4  15   1.4245   1.2255   3.4235   0.2391   0.5448   1.6551   0.00    0.0
2158 455455.000   22.301612230  114.188246829    19.8385   4  14   1.5189   1.3703   3.7040   0.6019   1.0578   1.8558   0.00    0.0
2158 455456.000   22.301566273  114.188173676    19.5287   4  13   1.5649   1.4414   3.8503   0.5263   0.9792   1.9576   0.00    0.0
2158 455457.000   22.301493628  114.188064520    14.9316   4  15   1.3799   1.3452   3.1515  -0.6602  -0.9889   1.4855   0.00    0.0
2158 455458.000   22.301464925  114.187967490     7.2410   4  14   1.3862   1.3762   3.0658  -0.7143  -0.9592   1.4050   0.00    0.0
2158 455459.000   22.301434053  114.187868183     6.0571   4  16   1.1728   1.1504   2.6618  -0.3235   0.3923   0.9684   0.00    0.0
2158 455460.000   22.301410646  114.187818764     5.3883   4  16   1.1655   1.1480   2.6053  -0.3139   0.4311   0.9324   0.00    0.0
2158 455461.000   22.301391443  114.187804987     4.1083   4  16   1.0855   1.1675   2.4443  -0.2115   0.4396   0.7781   0.00    0.0
2158 455462.000   22.301384199  114.187743905     2.3152   4  14   1.1662   1.2588   2.4820  -0.4956   0.4833   0.7584   0.00    0.0
2158 455463.000   22.301378099  114.187735602     0.1993   4  15   1.1369   1.2174   2.4648  -0.4089   0.4046   0.7805   0.00    0.0
2158 455464.000   22.301360078  114.187740566     1.0747   4  15   1.2421   1.2494   2.7743  -0.5303   0.2034   0.8497   0.00    0.0
2158 455465.000   22.301360786  114.187714224     2.6504   4  15   1.2448   1.2406   2.8150  -0.5262  -0.1866   0.8847   0.00    0.0
2158 455466.000   22.301363050  114.187705461     4.1135   4  15   1.2454   1.2404   2.8133  -0.5265  -0.1956   0.8865   0.00    0.0
2158 455467.000   22.301369553  114.187708508     2.6776   4  14   1.2883   1.2632   3.0645  -0.5869   0.4845   0.6277   0.00    0.0
2158 455468.000   22.301367579  114.187705674     0.3866   4  14   1.2891   1.2646   3.1327  -0.5890   0.5217   0.6057   0.00    0.0
2158 455469.000   22.301361943  114.187721696    -2.6930   4  14   1.2867   1.2525   3.0886  -0.5762   0.4143   0.6512   0.00    0.0
2158 455470.000   22.301349992  114.187744574    -2.5036   4  12   1.7790   1.4254   3.2609  -1.0787  -0.7340   1.2835   0.00    0.0
2158 455471.000   22.301274965  114.187791488    -6.7547   4  12   2.1778   1.5552   3.3728  -1.3944  -1.0071   1.6103   0.00    0.0
2158 455472.000   22.301151420  114.187871455    -7.8269   4  13   2.0539   1.4681   3.4392  -1.2456  -1.1023   1.7528   0.00    0.0
2158 455473.000   22.301079408  114.187895236    -3.0322   4  13   2.1874   1.4761   3.3989  -1.3024  -1.1477   1.7866   0.00    0.0
2158 455474.000   22.301142459  114.187842160    -2.8184   4  13   2.3729   1.5235   3.4355  -1.4173  -1.2760   2.0236   0.00    0.0
2158 455475.000   22.301235906  114.187783082     2.8525   4  13   1.7183   1.2877   3.1977  -0.8908  -0.7861   1.5222   0.00    0.0
2158 455476.000   22.301299191  114.187732298     4.3435   4  12   1.7469   1.3195   3.1586  -0.9449  -0.7423   1.4759   0.00    0.0
2158 455477.000   22.301339424  114.187711536     1.4898   4  11   1.9017   1.3583   3.2318  -1.0655  -0.5804   1.2921   0.00    0.0
2158 455478.000   22.301342422  114.187682663     4.0564   4  12   1.7497   1.3372   3.1975  -0.9531  -0.6720   1.4620   0.00    0.0
2158 455479.000   22.301332534  114.187697908     2.8144   4  12   1.7166   1.3344   3.0294  -0.9381  -0.7327   1.5819   0.00    0.0
2158 455480.000   22.301294818  114.187768706     2.2440   4  13   1.5551   1.2870   2.9575  -0.8139  -0.6648   1.4706   0.00    0.0
2158 455481.000   22.301278307  114.187849103    -4.0334   4  13   1.6292   1.3841   3.0542  -0.9569  -0.9172   1.5928   0.00    0.0
2158 455482.000   22.301300841  114.187893741   -10.8837   4  13   1.6383   1.3894   3.0790  -0.9677  -0.9439   1.6152   0.00    0.0
2158 455483.000   22.301415021  114.187872867    -3.5443   4  12   1.3059   1.5400   2.8115  -0.4888   1.0706   0.9201   0.00    0.0
2158 455484.000   22.301489273  114.187889129     4.2967   4  13   1.3509   1.2759   2.5451  -0.6429   0.5099   0.8790   0.00    0.0
2158 455485.000   22.301548015  114.187943634     9.1092   4  14   1.1575   1.1797   2.4682  -0.3247   0.6468   0.6929   0.00    0.0
2158 455486.000   22.301599840  114.187999206    14.2447   4  14   1.2244   1.1827   2.6041  -0.3870   0.5482   0.9165   0.00    0.0
2158 455487.000   22.301646930  114.188041688    20.4554   4  14   1.4823   1.2765   2.9250  -0.7406  -0.6978   1.4372   0.00    0.0
2158 455488.000   22.301663835  114.188104229    20.8846   4  14   1.5115   1.2843   3.0086  -0.7687  -0.7724   1.5099   0.00    0.0
2158 455489.000   22.301641503  114.188179598    15.3256   4  12   1.4483   1.4309   3.0234  -0.7157  -0.2803   1.4184   0.00    0.0
2158 455490.000   22.301628947  114.188287267    17.0209   4  13   1.4278   1.3666   2.9827  -0.6381  -0.5123   1.4526   0.00    0.0
2158 455491.000   22.301675739  114.188317501    18.9989   4  13   1.4284   1.3657   2.9785  -0.6392  -0.5323   1.4555   0.00    0.0
2158 455492.000   22.301736100  114.188292390    15.9513   4  12   1.4448   1.4347   3.0253  -0.7101  -0.2273   1.4156   0.00    0.0
2158 455493.000   22.301759581  114.188284040    12.9203   4  11   1.4451   1.4537   3.0692  -0.7152   0.2605   1.4101   0.00    0.0
2158 455494.000   22.301750568  114.188348157    17.4095   4  13   1.4074   1.3017   2.9614  -0.7217  -0.6836   1.4042   0.00    0.0
2158 455495.000   22.301767537  114.188342400    18.1384   4  12   1.4329   1.3271   2.9392  -0.7783  -0.6650   1.3675   0.00    0.0
2158 455496.000   22.301773983  114.188327698    15.7367   4  12   1.4333   1.3376   2.9632  -0.7835  -0.6065   1.3575   0.00    0.0
2158 455497.000   22.301775319  114.188326131    14.8747   4  12   1.4336   1.3378   2.9689  -0.7836  -0.6042   1.3591   0.00    0.0
2158 455498.000   22.301777079  114.188327921    15.2691   4  12   1.4337   1.3380   2.9686  -0.7838  -0.6041   1.3592   0.00    0.0
2158 455499.000   22.301780897  114.188327812    15.5520   4  12   1.4335   1.3380   2.9681  -0.7835  -0.6030   1.3588   0.00    0.0
2158 455500.000   22.301782416  114.188332461    15.5082   4  12   1.4334   1.3379   2.9683  -0.7834  -0.6027   1.3589   0.00    0.0
2158 455501.000   22.301784738  114.188336889    15.9218   4  12   1.4334   1.3379   2.9686  -0.7834  -0.6025   1.3591   0.00    0.0
2158 455502.000   22.301786823  114.188340655    16.2868   4  12   1.4333   1.3379   2.9688  -0.7833  -0.6022   1.3592   0.00    0.0
2158 455503.000   22.301783420  114.188341941    15.7200   4  12   1.4332   1.3379   2.9689  -0.7831  -0.6019   1.3593   0.00    0.0
2158 455504.000   22.301783284  114.188341766    15.2998   4  12   1.4331   1.3379   2.9690  -0.7830  -0.6016   1.3593   0.00    0.0
2158 455505.000   22.301785448  114.188344309    15.4318   4  12   1.4330   1.3379   2.9691  -0.7829  -0.6012   1.3594   0.00    0.0
2158 455506.000   22.301783498  114.188343912    14.5772   4  12   1.4329   1.3379   2.9692  -0.7828  -0.6009   1.3595   0.00    0.0
2158 455507.000   22.301783619  114.188348574    14.5227   4  12   1.4329   1.3379   2.9694  -0.7827  -0.6006   1.3595   0.00    0.0
2158 455508.000   22.301788587  114.188363953    16.7778   4  12   1.4328   1.3379   2.9695  -0.7826  -0.6003   1.3596   0.00    0.0
2158 455509.000   22.301792652  114.188364410    18.0949   4  12   1.4327   1.3379   2.9696  -0.7825  -0.6000   1.3597   0.00    0.0
2158 455510.000   22.301794299  114.188360877    18.5919   4  12   1.4326   1.3379   2.9698  -0.7824  -0.5997   1.3597   0.00    0.0
2158 455511.000   22.301798500  114.188353797    18.6360   4  12   1.4325   1.3379   2.9699  -0.7823  -0.5993   1.3598   0.00    0.0
2158 455512.000   22.301799528  114.188352609    18.2959   4  12   1.4324   1.3379   2.9700  -0.7822  -0.5990   1.3598   0.00    0.0
2158 455513.000   22.301800269  114.188355797    18.8210   4  12   1.4323   1.3378   2.9701  -0.7821  -0.5987   1.3599   0.00    0.0
2158 455514.000   22.301804156  114.188359759    20.2161   4  12   1.4322   1.3378   2.9703  -0.7820  -0.5984   1.3600   0.00    0.0
2158 455515.000   22.301808182  114.188360853    21.7892   4  12   1.4321   1.3378   2.9704  -0.7819  -0.5981   1.3600   0.00    0.0
2158 455516.000   22.301807871  114.188360915    22.8493   4  12   1.4320   1.3378   2.9705  -0.7818  -0.5977   1.3601   0.00    0.0
2158 455517.000   22.301812709  114.188359363    23.6317   4  13   1.4311   1.3269   2.9460  -0.7763  -0.6497   1.3670   0.00    0.0
2158 455518.000   22.301814026  114.188364340    25.2768   4  13   1.4310   1.3267   2.9411  -0.7764  -0.6525   1.3662   0.00    0.0
2158 455519.000   22.301815245  114.188372453    28.1097   4  13   1.4307   1.3266   2.9409  -0.7761  -0.6517   1.3660   0.00    0.0
2158 455520.000   22.301790377  114.188414109    35.3312   4  14   1.4031   1.2905   2.9207  -0.7186  -0.7283   1.4009   0.00    0.0
2158 455521.000   22.301794000  114.188424456    40.6309   4  14   1.4028   1.2897   2.9167  -0.7178  -0.7326   1.4020   0.00    0.0
2158 455522.000   22.301804384  114.188424235    43.7905   4  14   1.4023   1.2894   2.9165  -0.7170  -0.7316   1.4015   0.00    0.0
2158 455523.000   22.301808335  114.188422476    44.6492   4  14   1.4022   1.2893   2.9166  -0.7168  -0.7315   1.4016   0.00    0.0
2158 455524.000   22.301799425  114.188428433    43.1716   4  14   1.4021   1.2893   2.9165  -0.7166  -0.7311   1.4016   0.00    0.0
2158 455525.000   22.301812911  114.188433392    41.7310   4  14   1.4019   1.2893   2.9165  -0.7165  -0.7307   1.4015   0.00    0.0
2158 455526.000   22.301822568  114.188472580    40.1789   4  15   1.3558   1.2370   2.9160  -0.6194  -0.7149   1.3937   0.00    0.0
2158 455527.000   22.301860504  114.188473186    39.3970   4  15   1.3544   1.2357   2.9160  -0.6166  -0.7133   1.3931   0.00    0.0
2158 455528.000   22.301900147  114.188495423    39.1222   4  15   1.3541   1.2354   2.9161  -0.6160  -0.7131   1.3932   0.00    0.0
2158 455529.000   22.301960379  114.188496860    38.8421   4  15   1.3540   1.2353   2.9162  -0.6157  -0.7127   1.3932   0.00    0.0
2158 455530.000   22.302010003  114.188496411    36.3944   4  15   1.3539   1.2353   2.9163  -0.6156  -0.7123   1.3932   0.00    0.0
2158 455531.000   22.302026343  114.188490463    23.2630   4  14   1.4026   1.2519   3.1367  -0.5515  -0.5217   1.5377   0.00    0.0
2158 455532.000   22.302070921  114.188507815    15.7163   4  13   1.4112   1.2607   3.2241  -0.5460  -0.4373   1.5695   0.00    0.0
2158 455533.000   22.302121765  114.188541066    14.1742   4  13   1.4120   1.2611   3.2367  -0.5458  -0.4355   1.5742   0.00    0.0
2158 455534.000   22.302178818  114.188554727    14.0259   4  13   1.4122   1.2612   3.2378  -0.5458  -0.4352   1.5748   0.00    0.0
2158 455535.000   22.302235832  114.188566635    14.1971   4  13   1.4123   1.2612   3.2402  -0.5457  -0.4348   1.5759   0.00    0.0
2158 455536.000   22.302261139  114.188575667     5.7940   4  13   1.4504   1.2378   3.5192  -0.1867   0.7306   1.7237   0.00    0.0
2158 455537.000   22.302301315  114.188585657     2.5015   4  13   1.4618   1.2397   3.5987  -0.1141   0.7845   1.7634   0.00    0.0
2158 455538.000   22.302346372  114.188596770     2.2703   4  13   1.4629   1.2393   3.6085  -0.1168   0.7818   1.7680   0.00    0.0
2158 455539.000   22.302401001  114.188590784     7.2725   4  14   1.4291   1.1994   3.5388   0.2905   0.9131   1.7044   0.00    0.0
2158 455540.000   22.302426204  114.188598270     9.4362   4  14   1.4259   1.1991   3.5259   0.2958   0.9190   1.6959   0.00    0.0
2158 455541.000   22.302441537  114.188606221     9.4468   4  14   1.4261   1.1987   3.5278   0.2956   0.9180   1.6971   0.00    0.0
2158 455542.000   22.302440480  114.188595153     6.0052   4  14   1.4263   1.1987   3.5295   0.2962   0.9189   1.6978   0.00    0.0
2158 455543.000   22.302436350  114.188590690     3.5925   4  14   1.4262   1.1987   3.5296   0.2964   0.9192   1.6979   0.00    0.0
2158 455544.000   22.302433736  114.188590689     3.0274   4  14   1.4261   1.1988   3.5296   0.2965   0.9193   1.6978   0.00    0.0
2158 455545.000   22.302437135  114.188592766     3.6951   4  14   1.4261   1.1988   3.5300   0.2967   0.9197   1.6980   0.00    0.0
2158 455546.000   22.302435984  114.188590931     3.3332   4  14   1.4261   1.1989   3.5306   0.2970   0.9202   1.6983   0.00    0.0
2158 455547.000   22.302437271  114.188591221     3.2100   4  14   1.4260   1.1989   3.5312   0.2974   0.9207   1.6985   0.00    0.0
2158 455548.000   22.302436527  114.188592103     3.0271   4  14   1.4260   1.1990   3.5318   0.2976   0.9212   1.6987   0.00    0.0
2158 455549.000   22.302436178  114.188591853     3.2519   4  14   1.4260   1.1990   3.5323   0.2979   0.9217   1.6989   0.00    0.0
2158 455550.000   22.302439872  114.188592552     3.7816   4  14   1.4260   1.1990   3.5328   0.2982   0.9221   1.6991   0.00    0.0
2158 455551.000   22.302442710  114.188594431     4.7151   4  14   1.4259   1.1991   3.5333   0.2985   0.9226   1.6994   0.00    0.0
2158 455552.000   22.302445289  114.188596413     5.9852   4  14   1.4259   1.1991   3.5338   0.2988   0.9231   1.6996   0.00    0.0
2158 455553.000   22.302444283  114.188599621     6.8193   4  14   1.4259   1.1992   3.5344   0.2991   0.9235   1.6998   0.00    0.0
2158 455554.000   22.302446273  114.188601649     7.8589   4  14   1.4259   1.1992   3.5349   0.2994   0.9240   1.7000   0.00    0.0
2158 455555.000   22.302447481  114.188601698     7.4324   4  14   1.4258   1.1993   3.5354   0.2996   0.9245   1.7002   0.00    0.0
2158 455556.000   22.302454638  114.188595138     6.7426   4   8   1.5764   1.5413   4.1358   0.6130   1.6056   1.8593   0.00    0.0
2158 455557.000   22.302447274  114.188598219     5.6180   4  10   1.5614   1.5468   4.3325   0.7489   1.7002   1.9781   0.00    0.0
2158 455558.000   22.302428576  114.188581266    -2.8250   4  12   1.4503   1.2845   3.8045   0.2423   1.1834   1.7229   0.00    0.0
2158 455559.000   22.302426823  114.188592211    -2.3610   4  12   1.4373   1.2751   3.6934   0.1710   1.1265   1.6724   0.00    0.0
2158 455560.000   22.302434601  114.188604471    -0.4606   4  10   1.5776   1.4904   4.1912   0.5948   1.6753   1.8822   0.00    0.0
2158 455561.000   22.302444858  114.188613236    -0.3364   4  10   1.5987   1.5179   4.3680   0.6507   1.7774   1.9599   0.00    0.0
2158 455562.000   22.302442681  114.188593669     0.4115   4   8   1.6041   1.5796   4.4005   0.6807   1.7539   1.9667   0.00    0.0
2158 455563.000   22.302442443  114.188588336     2.4846   4   8   1.5321   1.3644   4.0072  -0.2312   1.2592   1.5825   0.00    0.0
2158 455564.000   22.302448727  114.188626121    11.2978   4  13   1.4343   1.2375   3.6438   0.2629   1.0186   1.7109   0.00    0.0
2158 455565.000   22.302481272  114.188647100    17.7195   4  12   1.5229   1.3739   3.8986   0.6153   1.3855   1.9185   0.00    0.0
2158 455566.000   22.302510123  114.188611037     9.8962   4   8   1.5953   1.5657   4.2902   0.6617   1.6979   1.9323   0.00    0.0
2158 455567.000   22.302535908  114.188588550     4.1951   4   8   1.6009   1.5812   4.3949   0.6790   1.7516   1.9606   0.00    0.0
2158 455568.000   22.302576070  114.188572847     2.8196   4   7   1.6093   1.5890   4.4924   0.6659   1.7152   1.9975   0.00    0.0
2158 455569.000   22.302622613  114.188558786     2.1831   4   8   1.6056   1.5824   4.4247   0.6818   1.7561   1.9757   0.00    0.0
2158 455570.000   22.302666386  114.188565125     7.0381   4  13   1.4538   1.2598   3.7166   0.4186   0.9199   1.7470   0.00    0.0
2158 455571.000   22.302734373  114.188538111     6.9157   4  14   1.4300   1.2020   3.5713   0.3033   0.9286   1.7162   0.00    0.0
2158 455572.000   22.302788919  114.188510059     5.8358   4  13   1.4373   1.2497   3.5875   0.3886   0.8544   1.6921   0.00    0.0
2158 455573.000   22.302839193  114.188466201     2.6357   4  14   1.4358   1.2135   3.5080   0.3670   0.6964   1.6804   0.00    0.0
2158 455574.000   22.302894750  114.188426338     1.8273   4  14   1.4337   1.2127   3.4839   0.3635   0.6842   1.6709   0.00    0.0
2158 455575.000   22.302947914  114.188384495    -0.0987   4  13   1.5248   1.3364   3.6968   0.6528   1.0835   1.8534   0.00    0.0
2158 455576.000   22.302999835  114.188327240     1.1088   4  12   1.5672   1.5682   3.9741   0.7803   0.8366   1.8921   0.00    0.0
2158 455577.000   22.303047095  114.188267215     2.4244   4  12   1.5718   1.5783   4.0484   0.7786   0.7885   1.9133   0.00    0.0
2158 455578.000   22.303087818  114.188195163     0.5285   4  12   1.5703   1.5518   4.0008   0.7613   0.6599   1.9000   0.00    0.0
2158 455579.000   22.303159529  114.188162801     1.0231   4  13   1.4583   1.4259   3.7663   0.4721  -0.6211   1.6820   0.00    0.0
2158 455580.000   22.303212234  114.188101987     2.4885   4  14   1.3748   1.4041   3.3620   0.3207  -0.8978   1.4153   0.00    0.0
2158 455581.000   22.303257907  114.188035753    -0.2551   4  13   1.4360   1.4222   3.6255   0.4527  -0.6686   1.6042   0.00    0.0
2158 455582.000   22.303321784  114.187934766     0.5268   4  13   1.4502   1.6305   3.9233   0.5231  -1.1956   1.6201   0.00    0.0
2158 455583.000   22.303373975  114.187842159     2.9629   4  13   1.4514   1.6464   3.9962   0.5099  -1.2659   1.6341   0.00    0.0
2158 455584.000   22.303440670  114.187747308     7.7192   4  13   1.4529   1.6646   4.0268   0.5215  -1.2142   1.6428   0.00    0.0
2158 455585.000   22.303520234  114.187676471     8.1380   4  13   1.4535   1.6653   4.0334   0.5240  -1.2094   1.6456   0.00    0.0
2158 455586.000   22.303589387  114.187601151     8.0768   4  13   1.4538   1.6655   4.0388   0.5230  -1.2116   1.6478   0.00    0.0
2158 455587.000   22.303626236  114.187530599     7.4247   4  12   1.5698   1.8372   4.2020   0.8555  -0.7632   1.8434   0.00    0.0
2158 455588.000   22.303663130  114.187510465     9.0187   4   7   1.9378   2.0297   4.8206   0.9438  -1.2578   2.1408   0.00    0.0
2158 455589.004   22.303684313  114.187544957     3.8543   4   2   2.3273   2.7827   6.3773   0.9094  -2.4436   2.5269   0.00    0.0
2158 455590.000   22.303613069  114.187114524     1.2549   4   8   2.3384   4.1024   6.5716   1.4494  -2.4350   3.1484   0.00    0.0
2158 455591.000   22.303634647  114.186717790     1.3344   4   8   2.6752   2.9198   6.1410   2.0453   2.4669   3.5821   0.00    0.0
2158 455592.000   22.303757870  114.186413636    39.8550   4  11   2.1735   2.9501   5.3364   1.7887   2.1074   2.8920   0.00    0.0
2158 455593.000   22.303909003  114.186397373    73.2104   4  12   2.1965   2.2877   5.5865   1.3224   1.9877   3.1025   0.00    0.0
2158 455594.000   22.304099318  114.186519028   112.3550   4  11   2.0384   1.5711   4.8156   0.7126   1.2033   2.6838   0.00    0.0
2158 455595.000   22.304214752  114.186556601   115.2627   4  12   1.8390   1.7253   4.5879  -0.3141  -1.3284   2.2807   0.00    0.0
2158 455596.000   22.304235248  114.186637741    85.9200   4  10   1.8504   2.4469   5.6512  -0.8557  -2.7841   2.4804   0.00    0.0
2158 455597.000   22.304217769  114.186634858    56.0871   4  10   1.8901   2.6110   6.1744  -1.0354  -3.1627   2.6651   0.00    0.0
2158 455598.000   22.304160242  114.186700203    12.0665   4  12   1.7022   2.0171   5.1298  -0.4604  -2.0813   2.2219   0.00    0.0
2158 455599.000   22.304111857  114.186678288   -11.7322   4  10   1.8077   1.7143   4.4170   0.7010  -1.1272   2.0401   0.00    0.0
2158 455600.000   22.304119732  114.186675878   -21.2953   4  10   1.8767   1.9447   4.8251   0.2456  -1.7687   2.2627   0.00    0.0
2158 455601.000   22.304162721  114.186652806   -20.9013   4  10   1.8996   1.9742   5.0185  -0.2153  -1.9027   2.3507   0.00    0.0
2158 455602.000   22.304206749  114.186610179    -7.9368   4  10   1.8218   1.7127   4.4380   0.7037  -1.1246   2.0647   0.00    0.0
2158 455603.000   22.304233586  114.186577305    -0.8188   4  10   1.8078   1.7020   4.3040   0.7341  -1.0270   2.0050   0.00    0.0
2158 455604.000   22.304263095  114.186564493     2.7688   4  10   1.8056   1.7016   4.2868   0.7323  -1.0334   1.9966   0.00    0.0
2158 455605.000   22.304343870  114.186555439    11.5180   4  11   1.6472   1.6916   4.1824   0.6359  -1.1114   1.8128   0.00    0.0
2158 455606.000   22.304354832  114.186519380    14.7093   4  11   1.7096   1.6954   4.2028   0.6782  -1.0801   1.8737   0.00    0.0
2158 455607.000   22.304357592  114.186484559    15.4062   4  11   1.7145   1.6952   4.2098   0.6798  -1.0750   1.8845   0.00    0.0
2158 455608.000   22.304363692  114.186458435    13.9936   4  11   1.7139   1.6950   4.2095   0.6796  -1.0755   1.8835   0.00    0.0
2158 455609.000   22.304367284  114.186434047    11.8580   4  11   1.7138   1.6949   4.2086   0.6799  -1.0746   1.8831   0.00    0.0
2158 455610.000   22.304369645  114.186416139     9.8175   4  11   1.7138   1.6947   4.2087   0.6801  -1.0737   1.8834   0.00    0.0
2158 455611.000   22.304375298  114.186384000    13.8054   4  12   1.6477   1.8868   4.4222   0.5258  -1.6399   1.8733   0.00    0.0
2158 455612.000   22.304372882  114.186359399    15.7618   4  12   1.6468   1.9076   4.4928   0.4927  -1.7161   1.8884   0.00    0.0
2158 455613.000   22.304365266  114.186381157    13.3022   4  12   1.6382   1.6689   4.1753   0.6382  -1.2512   1.8252   0.00    0.0
2158 455614.000   22.304370166  114.186372782     9.3199   4  12   1.6352   1.6729   4.1232   0.6450  -1.1554   1.7957   0.00    0.0
2158 455615.000   22.304368622  114.186382387     8.3560   4  12   1.6334   1.6577   4.1022   0.6538  -1.1945   1.7995   0.00    0.0
2158 455616.000   22.304365021  114.186380817     7.6958   4  12   1.6336   1.6569   4.1006   0.6527  -1.1964   1.8001   0.00    0.0
2158 455617.000   22.304368583  114.186370506     9.3125   4  12   1.6333   1.6565   4.0993   0.6535  -1.1943   1.7997   0.00    0.0
2158 455618.000   22.304371624  114.186370349    10.6367   4  12   1.6330   1.6563   4.0976   0.6536  -1.1938   1.7988   0.00    0.0
2158 455619.000   22.304373896  114.186369187    11.7262   4  12   1.6328   1.6562   4.0970   0.6537  -1.1934   1.7984   0.00    0.0
2158 455620.000   22.304376327  114.186363339    12.8131   4  12   1.6327   1.6560   4.0974   0.6539  -1.1928   1.7985   0.00    0.0
2158 455621.000   22.304375009  114.186359467    13.4688   4  12   1.6327   1.6559   4.0981   0.6539  -1.1924   1.7989   0.00    0.0
2158 455622.000   22.304381343  114.186359499    13.5722   4  12   1.6326   1.6557   4.0989   0.6540  -1.1921   1.7992   0.00    0.0
2158 455623.000   22.304389355  114.186367947    12.4030   4  12   1.6326   1.6556   4.0996   0.6541  -1.1916   1.7994   0.00    0.0
2158 455624.000   22.304387580  114.186368167    11.1848   4  12   1.6325   1.6554   4.1002   0.6541  -1.1912   1.7997   0.00    0.0
2158 455625.000   22.304392468  114.186364682    10.2548   4  12   1.6324   1.6553   4.1009   0.6542  -1.1908   1.8000   0.00    0.0
2158 455626.000   22.304403847  114.186369174     9.2064   4  12   1.6324   1.6551   4.1016   0.6543  -1.1904   1.8003   0.00    0.0
2158 455627.000   22.304412505  114.186371303     9.8902   4  13   1.5313   1.6383   3.6942   0.5436  -1.3546   1.4946   0.00    0.0
2158 455628.000   22.304418988  114.186373177     9.3776   4  13   1.5214   1.6379   3.6136   0.5479  -1.3467   1.4494   0.00    0.0
2158 455629.000   22.304420812  114.186373266     7.7783   4  13   1.5212   1.6366   3.6077   0.5489  -1.3415   1.4484   0.00    0.0
2158 455630.000   22.304421203  114.186368354     5.2744   4  13   1.5209   1.6363   3.6075   0.5486  -1.3417   1.4479   0.00    0.0
2158 455631.000   22.304429224  114.186349529     3.0437   4  13   1.5206   1.6360   3.6041   0.5492  -1.3400   1.4465   0.00    0.0
2158 455632.000   22.304458749  114.186331407     4.8751   4  13   1.5204   1.6356   3.6014   0.5498  -1.3382   1.4457   0.00    0.0
2158 455633.000   22.304486784  114.186301110     4.5672   4  12   1.6129   1.6527   3.9693   0.6566  -1.1788   1.7290   0.00    0.0
2158 455634.000   22.304525234  114.186268068     5.9292   4  12   1.6301   1.6526   4.0823   0.6580  -1.1754   1.7932   0.00    0.0
2158 455635.000   22.304564011  114.186226950     7.7677   4  12   1.6310   1.6534   4.0986   0.6557  -1.1835   1.7990   0.00    0.0
2158 455636.000   22.304604976  114.186181627     8.9820   4  12   1.8123   1.7522   4.0997   0.9426  -1.1978   1.7859   0.00    0.0
2158 455637.000   22.304632574  114.186132415     9.9429   4  12   1.8219   1.7591   4.1033   0.9578  -1.1998   1.7861   0.00    0.0
2158 455638.000   22.304688978  114.186117270    14.1050   4  11   2.1006   2.0395   4.3117   1.4126  -0.3013   2.1366   0.00    0.0
2158 455639.000   22.304683851  114.186043899    14.1539   4  11   1.8355   1.8613   4.3669   1.0691  -0.4476   2.1122   0.00    0.0
2158 455640.000   22.304770034  114.186051962    16.7275   4  11   1.8230   1.8522   4.3755   1.0485  -0.4976   2.1069   0.00    0.0
2158 455641.000   22.304824647  114.186034362    18.7394   4  11   1.8228   1.8530   4.3758   1.0489  -0.4945   2.1077   0.00    0.0
2158 455642.000   22.304865641  114.185998461    23.6411   4  13   1.7699   1.5039   4.0181   0.7049  -0.6031   1.9709   0.00    0.0
2158 455643.000   22.304869003  114.185952795    23.9732   4  12   1.9653   1.6676   4.2442   1.0623   0.8968   2.2635   0.00    0.0
2158 455644.000   22.304884575  114.185935246    21.4989   4  13   1.7784   1.4970   3.9984   0.7141  -0.5258   1.9797   0.00    0.0
2158 455645.000   22.304893948  114.185946033    14.3835   4  13   1.6005   1.3334   3.8539   0.3330  -0.0881   1.9306   0.00    0.0
2158 455646.000   22.304928095  114.185971902    12.4726   4  13   1.7215   1.3527   3.8457   0.5211   0.3484   1.9840   0.00    0.0
2158 455647.000   22.304963749  114.186000893    12.5281   4  13   1.7262   1.3522   3.8489   0.5238   0.3567   1.9899   0.00    0.0
2158 455648.000   22.304986663  114.186039522    14.0824   4  13   1.7257   1.3520   3.8487   0.5235   0.3556   1.9889   0.00    0.0
2158 455649.000   22.304987382  114.186116694    10.6104   4  12   1.7665   1.5746   4.0704  -0.1742  -0.9721   2.1109   0.00    0.0
2158 455650.000   22.304985027  114.186156922     8.2918   4  12   1.7776   1.5880   4.1379  -0.2668  -1.0476   2.1457   0.00    0.0
2158 455651.000   22.305091239  114.186223279    13.0471   4  11   1.8699   1.6789   4.1856   0.2045  -0.9677   2.1531   0.00    0.0
2158 455652.000   22.305146235  114.186272948    15.1780   4  11   1.8741   1.6831   4.1960   0.2254  -0.9594   2.1571   0.00    0.0
2158 455653.000   22.305187499  114.186311999    19.7811   4  12   1.8750   1.6836   4.1993   0.2256  -0.9603   2.1589   0.00    0.0
2158 455654.000   22.305172871  114.186318703    16.9476   4  12   1.7935   1.6474   4.2008  -0.3728  -0.9760   2.1479   0.00    0.0
2158 455655.000   22.305190180  114.186383466    13.6781   4  12   1.8358   1.6576   4.4797  -0.7566  -1.2550   2.3668   0.00    0.0
2158 455656.000   22.305247168  114.186447699    12.2558   4  12   1.8040   1.6473   4.2708  -0.4169  -1.0127   2.1893   0.00    0.0
2158 455657.000   22.305264296  114.186464961     7.5329   4  12   1.9794   1.6733   4.5226  -0.6329  -1.2032   2.4531   0.00    0.0
2158 455658.000   22.305251267  114.186470789     1.5623   4  12   1.8111   1.6475   4.2781  -0.4073  -1.0054   2.1983   0.00    0.0
2158 455659.000   22.305276351  114.186482081     0.6038   4  11   1.7639   1.5230   4.0997   0.2290  -0.3280   2.0604   0.00    0.0
2158 455660.000   22.305365905  114.186419012     8.7193   4  12   1.7583   1.5195   4.0661   0.2622  -0.2028   2.0423   0.00    0.0
2158 455661.000   22.305441508  114.186351642     5.3543   4  12   1.7506   1.4193   4.0283   0.4206   0.6900   1.9518   0.00    0.0
2158 455662.000   22.305466359  114.186298459     6.4946   4  11   1.7807   1.6268   4.2276   0.5794  -0.8703   1.9334   0.00    0.0
2158 455663.000   22.305456973  114.186233083    16.4847   4  11   1.8659   2.0043   4.6750   0.9109  -1.6853   1.6698   0.00    0.0
2158 455664.000   22.305491231  114.186194745    24.5558   4  11   1.8449   2.0484   4.7546   0.9396  -1.8261   1.7195   0.00    0.0
2158 455665.000   22.305518081  114.186164976    26.7011   4  11   1.8483   2.0491   4.7605   0.9388  -1.8246   1.7364   0.00    0.0
2158 455666.000   22.305552722  114.186135630    26.7555   4  11   1.8491   2.0501   4.7598   0.9424  -1.8222   1.7360   0.00    0.0
2158 455667.000   22.305589245  114.186103070    24.7119   4  11   1.8491   2.0504   4.7650   0.9425  -1.8240   1.7373   0.00    0.0
2158 455668.000   22.305616296  114.186038285    25.3751   4  11   1.8496   2.0504   4.7713   0.9423  -1.8247   1.7405   0.00    0.0
2158 455669.000   22.305624649  114.185997098    24.6845   4  10   1.8524   2.0659   4.8021   0.9292  -1.7887   1.7284   0.00    0.0
2158 455670.000   22.305634534  114.185861362    44.1216   4   9   2.1328   3.2141   5.4938   1.6837  -2.4475   1.9902   0.00    0.0
2158 455671.000   22.305663579  114.185797347    62.0040   4   9   2.1871   3.4268   5.7701   1.7900  -2.6809   2.0480   0.00    0.0
2158 455672.000   22.305705951  114.185777684    71.4166   4   9   2.1883   3.4331   5.8308   1.7864  -2.7114   2.0634   0.00    0.0
2158 455673.000   22.305770440  114.185858682    76.6865   4  10   1.8723   2.7360   5.7901   0.9182  -2.9722   1.8578   0.00    0.0
2158 455674.000   22.305835562  114.185879894    78.1657   4  10   1.8570   2.7189   5.7828   0.8774  -2.9915   1.8359   0.00    0.0
2158 455675.000   22.305866565  114.185897911    77.4224   4  10   1.8566   2.7152   5.7893   0.8729  -2.9915   1.8394   0.00    0.0
2158 455676.000   22.305897147  114.185910338    70.9016   4  10   1.8553   2.7119   5.7968   0.8660  -2.9941   1.8420   0.00    0.0
2158 455677.000   22.306068035  114.186203713    26.4277   4   9   2.1857   3.5383   6.7038   1.8373  -4.0755  -0.6981   0.00    0.0
2158 455678.000   22.306199599  114.186453666   -22.4481   4   8   2.5361   3.8572   7.1827   2.2000  -4.5514  -1.8239   0.00    0.0
2158 455679.000   22.306306656  114.186612854   -59.8556   4   8   2.6240   3.9832   7.6517   2.3331  -4.8273  -2.2213   0.00    0.0
2158 455680.000   22.306255842  114.186571899   -71.1899   4   7   2.6062   4.6344   7.4633   2.7347  -4.7230  -1.5086   0.00    0.0
2158 455681.000   22.306210787  114.186447226   -49.0207   4   9   2.5670   4.5213   6.3601   2.6440  -4.0655   0.8476   0.00    0.0
2158 455682.000   22.306224853  114.186386201   -29.2210   4   9   2.5663   4.4552   6.0936   2.6349  -3.8866   0.9286   0.00    0.0
2158 455683.000   22.306269717  114.186360945   -14.8820   4   9   2.5682   4.4520   6.0622   2.6439  -3.8626   0.9097   0.00    0.0
2158 455684.000   22.306323723  114.186323718    -6.1365   4   9   2.5700   4.4557   5.9806   2.6465  -3.8486   0.9627   0.00    0.0
2158 455685.000   22.306277709  114.186080794    17.1006   4  10   2.2026   3.5291   5.5234   1.8477  -2.9454   1.9655   0.00    0.0
2158 455686.000   22.306302007  114.185978381    37.1020   4  10   2.3642   3.4982   6.0928   1.6361  -3.0804   2.5322   0.00    0.0
2158 455687.000   22.306328400  114.185927866    48.3356   4   9   2.3950   3.5192   6.4057   1.5916  -3.1714   2.6654   0.00    0.0
2158 455688.000   22.306329589  114.185885158    52.2906   4   9   2.3966   3.5214   6.4886   1.5755  -3.2044   2.6944   0.00    0.0
2158 455689.000   22.306335610  114.185820573    57.4321   4   9   2.3969   3.5197   6.4952   1.5729  -3.2051   2.6982   0.00    0.0
2158 455690.000   22.306345500  114.185737854    61.9722   4  10   2.0541   2.8733   6.4716  -0.1754  -3.3635   2.5752   0.00    0.0
2158 455691.000   22.306299743  114.185560471    66.1986   4  10   2.0377   2.8538   6.4703  -0.3427  -3.3766   2.5636   0.00    0.0
2158 455692.000   22.306198799  114.185262411    63.0136   4  10   2.0372   2.8508   6.4754  -0.3554  -3.3773   2.5661   0.00    0.0
2158 455693.000   22.306182052  114.185139242    59.5802   4   8   2.3311   3.0619   7.2675  -1.1923  -3.9026   3.2463   0.00    0.0
2158 455694.000   22.306176501  114.185130246    54.0398   4  10   2.0457   2.8586   6.3431  -0.4375  -3.3681   2.5614   0.00    0.0
2158 455695.000   22.306199070  114.185114684    56.6529   4   8   2.3152   3.0442   7.1681  -1.1544  -3.8523   3.1956   0.00    0.0
2158 455696.000   22.306226859  114.185063550    66.7554   4   8   2.3955   3.1296   7.5855  -1.3354  -4.0797   3.4281   0.00    0.0
2158 455697.000   22.306228870  114.184978816    80.6568   4   8   2.4102   3.1549   7.7184  -1.3747  -4.1487   3.4834   0.00    0.0
2158 455698.000   22.306256428  114.184915197    92.1853   4   7   2.7176   3.6432   7.7760   0.6094  -3.9948   3.6213   0.00    0.0
2158 455699.000   22.306332111  114.184900909    96.3163   4   7   2.7751   3.7062   7.7919   0.8716  -3.9493   3.6603   0.00    0.0
2158 455700.000   22.306370321  114.184877866    98.1563   4   7   2.7761   3.7063   7.7996   0.8694  -3.9512   3.6642   0.00    0.0
2158 455701.000   22.306411483  114.184851222   100.3322   4   7   2.7782   3.7141   7.8081   0.8791  -3.9568   3.6663   0.00    0.0
2158 455702.000   22.306427764  114.184860726    97.7442   4   7   2.7801   3.7174   7.8159   0.8833  -3.9593   3.6698   0.00    0.0
2158 455703.000   22.306456934  114.184864105    96.1276   4   8   2.4348   3.1806   7.7768  -1.3438  -4.1567   3.5175   0.00    0.0
2158 455704.000   22.306446047  114.184811469    94.9812   4   8   2.4148   3.1683   7.7677  -1.3754  -4.1709   3.4996   0.00    0.0
2158 455705.000   22.306404205  114.184853885    74.3919   4   9   2.3464   3.4653   6.4376   1.4207  -3.2978   2.6643   0.00    0.0
2158 455706.000   22.306353389  114.184895778    51.7646   4  11   1.8635   2.7314   5.6037   0.8467  -2.9337   2.0425   0.00    0.0
2158 455707.000   22.306349992  114.184915953    39.9088   4  12   1.7198   2.5558   5.4248   0.4445  -2.8004   2.0244   0.00    0.0
2158 455708.000   22.306342619  114.184912011    31.0211   4  12   1.7171   2.5454   5.4685   0.4308  -2.7847   2.0185   0.00    0.0
2158 455709.000   22.306325507  114.184911134    26.6800   4  12   1.7149   2.5417   5.4769   0.4231  -2.7853   2.0186   0.00    0.0
2158 455710.000   22.306326832  114.184924146    24.9308   4  11   1.9416   2.5767   5.7777  -0.4699  -2.9231   2.4030   0.00    0.0
2158 455711.000   22.306324048  114.184926249    23.6838   4  11   1.9677   2.5872   5.8726  -0.5462  -2.9649   2.4733   0.00    0.0
2158 455712.000   22.306327567  114.184935400    23.8395   4  11   1.9675   2.5886   5.8873  -0.5479  -2.9711   2.4755   0.00    0.0
2158 455713.000   22.306329442  114.184940309    24.4853   4  11   1.9672   2.5881   5.8863  -0.5455  -2.9700   2.4743   0.00    0.0
2158 455714.000   22.306366176  114.184926196    33.5009   4  12   1.9014   2.6864   6.1967  -0.7360  -3.2053   2.5410   0.00    0.0
2158 455715.000   22.306383119  114.184920709    37.9425   4  12   1.9057   2.7120   6.3096  -0.7803  -3.2742   2.5789   0.00    0.0
2158 455716.000   22.306417013  114.184905862    46.9753   4  11   2.2939   2.8350   7.0753  -1.2887  -3.6558   3.2741   0.00    0.0
2158 455717.000   22.306426929  114.184894884    50.7170   4  11   2.3754   2.8890   7.4067  -1.4161  -3.8188   3.4747   0.00    0.0
2158 455718.000   22.306432081  114.184903458    51.5526   4  11   2.3850   2.9048   7.4987  -1.4389  -3.8649   3.5109   0.00    0.0
2158 455719.000   22.306432819  114.184900061    52.4856   4  11   2.3857   2.9069   7.5125  -1.4409  -3.8714   3.5150   0.00    0.0
2158 455720.000   22.306431369  114.184893104    53.1965   4  11   2.3861   2.9067   7.5163  -1.4412  -3.8720   3.5168   0.00    0.0
2158 455721.000   22.306436434  114.184897652    52.2181   4  11   2.3870   2.9075   7.5252  -1.4428  -3.8754   3.5204   0.00    0.0
2158 455722.000   22.306438732  114.184906298    51.3848   4  11   2.3881   2.9088   7.5357  -1.4450  -3.8798   3.5248   0.00    0.0
2158 455723.000   22.306438882  114.184907181    51.3465   4  11   2.3889   2.9095   7.5434  -1.4465  -3.8828   3.5282   0.00    0.0
2158 455724.000   22.306445701  114.184893836    52.2148   4  10   2.4024   3.1083   7.6866  -1.3484  -4.0837   3.4774   0.00    0.0
2158 455725.000   22.306377051  114.184935234    31.5852   4  12   1.9537   2.7818   6.6809  -0.9101  -3.4678   2.7463   0.00    0.0
2158 455726.000   22.306368876  114.184925156    24.1123   4  12   1.9121   2.7229   6.4186  -0.8037  -3.3182   2.6169   0.00    0.0
2158 455727.000   22.306399726  114.184894117    10.4451   4  10   2.0234   2.8184   6.4614  -0.3489  -3.3361   2.5634   0.00    0.0
2158 455728.000   22.306386796  114.184896729    -8.6661   4  12   1.7027   1.9943   5.2767  -0.3949  -2.0444   2.2701   0.00    0.0
2158 455729.000   22.306443598  114.184900198   -15.7181   4  10   1.8465   2.4422   5.9244  -0.8231  -2.8228   2.5538   0.00    0.0
2158 455730.000   22.306481868  114.184871408   -19.0235   4  10   1.8545   2.5238   5.9602  -0.9101  -2.9720   2.5752   0.00    0.0
2158 455731.000   22.306507874  114.184835835   -15.4630   4  11   1.9934   2.7534   6.0173   0.0540  -3.1370   2.4223   0.00    0.0
2158 455732.000   22.306530727  114.184727997    -2.3104   4  12   1.8566   1.3998   4.3330  -0.3982  -0.4436   2.3376   0.00    0.0
2158 455733.000   22.306594770  114.184681117     9.3477   4  11   1.9377   1.3924   4.1779  -0.2088   0.2998   2.3364   0.00    0.0
2158 455734.000   22.306601456  114.184684168    10.3062   4  12   1.7125   1.5337   4.2323  -0.5632  -1.0444   2.1869   0.00    0.0
2158 455735.000   22.306623526  114.184666588    11.5072   4  12   1.7048   1.5414   4.2540  -0.5854  -1.0964   2.1850   0.00    0.0
2158 455736.000   22.306634644  114.184668536     7.4325   4  12   1.7034   1.7425   4.4523  -0.5659  -1.5098   2.1742   0.00    0.0
2158 455737.000   22.306668637  114.184642259    10.5247   4  12   1.6973   2.3905   5.0263   0.4947  -2.4688   1.9583   0.00    0.0
2158 455738.000   22.306678090  114.184586657    21.0026   4  13   1.6966   1.7682   4.2871   0.5175  -1.3551   1.9506   0.00    0.0
2158 455739.000   22.306669078  114.184578512    25.0249   4  14   1.5674   1.3641   3.8533  -0.1645   0.1600   1.9331   0.00    0.0
2158 455740.000   22.306656271  114.184609511    17.6905   4  14   1.5530   1.2867   3.7354  -0.2597   0.5866   1.9191   0.00    0.0
2158 455741.000   22.306653842  114.184633803    11.8264   4  14   1.7132   1.2266   3.7869   0.3435   0.8316   2.0532   0.00    0.0
2158 455742.000   22.306626465  114.184631690     3.0317   4  13   1.8631   1.3626   4.1400   0.7417   1.3030   2.3330   0.00    0.0
2158 455743.000   22.306602386  114.184621179    -3.2349   4  13   1.9229   1.4928   4.2418   0.9004   1.3221   2.3814   0.00    0.0
2158 455744.000   22.306617994  114.184638840     1.1976   4  14   1.7552   1.3193   3.9114   0.5062   0.7410   2.0895   0.00    0.0
2158 455745.000   22.306627375  114.184647262     4.2269   4  14   1.7357   1.3150   3.8388   0.4772   0.6814   2.0420   0.00    0.0
2158 455746.000   22.306635049  114.184651668     6.1369   4  14   1.7356   1.3148   3.8357   0.4799   0.6883   2.0412   0.00    0.0
2158 455747.000   22.306644462  114.184655579     8.9639   4  14   1.7359   1.3146   3.8396   0.4795   0.6882   2.0429   0.00    0.0
2158 455748.000   22.306644146  114.184654095     9.5445   4  14   1.7356   1.3147   3.8388   0.4801   0.6892   2.0424   0.00    0.0
2158 455749.000   22.306642216  114.184652444     9.4548   4  14   1.7351   1.3147   3.8365   0.4807   0.6906   2.0413   0.00    0.0
2158 455750.000   22.306640089  114.184655390     9.9318   4  14   1.7348   1.3148   3.8356   0.4811   0.6915   2.0408   0.00    0.0
2158 455751.000   22.306643657  114.184653366    10.4326   4  14   1.7347   1.3148   3.8360   0.4816   0.6924   2.0409   0.00    0.0
2158 455752.000   22.306643264  114.184641233     9.1521   4  14   1.6065   1.2965   3.8027   0.2983   0.6076   1.9577   0.00    0.0
2158 455753.000   22.306630599  114.184616011     4.6285   4  13   1.7082   1.4408   4.0528   0.6786   1.1209   2.1560   0.00    0.0
2158 455754.000   22.306626171  114.184628831     2.5318   4  14   1.5989   1.2363   3.8036   0.4379   0.8199   1.9508   0.00    0.0
2158 455755.000   22.306621873  114.184624591     0.8242   4  14   1.5840   1.2311   3.7430   0.4162   0.7824   1.9126   0.00    0.0
2158 455756.000   22.306620764  114.184615367     0.5258   4  14   1.5834   1.2305   3.7365   0.4174   0.7851   1.9102   0.00    0.0
2158 455757.000   22.306619545  114.184609307     1.3191   4  14   1.5835   1.2303   3.7387   0.4175   0.7856   1.9112   0.00    0.0
2158 455758.000   22.306616438  114.184603441     1.9248   4  14   1.5834   1.2303   3.7388   0.4176   0.7858   1.9111   0.00    0.0
2158 455759.000   22.306614882  114.184598166     2.7013   4  14   1.5831   1.2303   3.7378   0.4178   0.7863   1.9106   0.00    0.0
2158 455760.000   22.306612120  114.184590313     2.6032   4  14   1.5830   1.2303   3.7374   0.4181   0.7868   1.9104   0.00    0.0
2158 455761.000   22.306609705  114.184587620     3.1759   4  14   1.5829   1.2303   3.7378   0.4183   0.7874   1.9105   0.00    0.0
2158 455762.000   22.306611859  114.184592333     4.6973   4  14   1.4987   1.2286   3.6819   0.3769   0.7607   1.8223   0.00    0.0
2158 455763.000   22.306616160  114.184592166     6.6688   4  14   1.4933   1.2284   3.6691   0.3741   0.7574   1.8116   0.00    0.0
2158 455764.000   22.306621988  114.184590706     8.4508   4  14   1.4933   1.2284   3.6683   0.3743   0.7579   1.8118   0.00    0.0
2158 455765.000   22.306616031  114.184593778     7.2560   4  14   1.5225   1.2865   3.7324   0.1630   0.5596   1.8674   0.00    0.0
2158 455766.000   22.306616945  114.184595701     6.7900   4  14   1.5263   1.2879   3.7487   0.1426   0.5416   1.8775   0.00    0.0
2158 455767.000   22.306630808  114.184613672    10.6999   4  13   1.6118   1.4225   3.9760   0.5776   1.0461   2.0521   0.00    0.0
2158 455768.000   22.306621836  114.184604238     9.2439   4  14   1.5367   1.2921   3.8000   0.1969   0.5985   1.9070   0.00    0.0
2158 455769.000   22.306617865  114.184602230     8.7665   4  14   1.5267   1.2888   3.7568   0.1430   0.5418   1.8805   0.00    0.0
2158 455770.000   22.306634778  114.184625255    13.3705   4  13   1.6117   1.4231   3.9788   0.5788   1.0490   2.0531   0.00    0.0
2158 455771.000   22.306645838  114.184636745    16.4956   4  13   1.6277   1.4310   4.0483   0.6079   1.1014   2.0941   0.00    0.0
2158 455772.000   22.306633310  114.184636172    16.6977   4  13   1.7676   1.4654   4.1180   0.7648   1.1959   2.2099   0.00    0.0
2158 455773.000   22.306623188  114.184632509    14.6731   4  13   1.7782   1.4682   4.1346   0.7758   1.2097   2.2262   0.00    0.0
2158 455774.000   22.306613710  114.184631316    12.7606   4  13   1.7783   1.4683   4.1387   0.7762   1.2104   2.2271   0.00    0.0
2158 455775.000   22.306603671  114.184608759     6.4958   4  14   1.5442   1.2933   3.8294   0.2128   0.6083   1.9241   0.00    0.0
2158 455776.000   22.306590522  114.184598282     1.5857   4  14   1.5273   1.2893   3.7672   0.1523   0.5484   1.8842   0.00    0.0
2158 455777.000   22.306582353  114.184595289    -0.8274   4  14   1.5269   1.2887   3.7632   0.1565   0.5566   1.8833   0.00    0.0
2158 455778.000   22.306590962  114.184603812     0.4604   4  14   1.5266   1.2885   3.7635   0.1555   0.5563   1.8831   0.00    0.0
2158 455779.000   22.306605400  114.184609119     2.9847   4  14   1.5261   1.2885   3.7611   0.1566   0.5575   1.8820   0.00    0.0
2158 455780.000   22.306617501  114.184612814     5.4664   4  14   1.5257   1.2885   3.7591   0.1580   0.5591   1.8810   0.00    0.0
2158 455781.000   22.306613573  114.184629314     4.7037   4  14   1.4960   1.2300   3.6946   0.3740   0.7609   1.8250   0.00    0.0
2158 455782.000   22.306614390  114.184632014     4.7031   4  14   1.4927   1.2292   3.6804   0.3801   0.7710   1.8162   0.00    0.0
2158 455783.000   22.306619537  114.184632416     5.9324   4  14   1.4926   1.2288   3.6796   0.3796   0.7694   1.8160   0.00    0.0
