% program   : RTKPOST demo5 b34k
% inp file  : D:\0POLYU¿Î³Ì\AAE6102\25.3.20_Lab\AAE6102_Laboratory-main\GNSS Data\UrbanNav - Medium\20210521.medium-urban.whampoa.ublox.f9p.obs
% inp file  : D:\0POLYU¿Î³Ì\AAE6102\25.3.20_Lab\AAE6102_Laboratory-main\GNSS Data\UrbanNav - Medium\hksc141g.21o
% inp file  : D:\0POLYU¿Î³Ì\AAE6102\25.3.20_Lab\AAE6102_Laboratory-main\GNSS Data\UrbanNav - Medium\hksc141g.21*
% obs start : 2021/05/21 06:29:02.0 GPST (week2158 455342.0s)
% obs end   : 2021/05/21 06:54:39.0 GPST (week2158 456879.0s)
% pos mode  : DGPS
% freqs     : L1+L2/E5b
% solution  : Forward
% elev mask : 20.0 deg
% dynamics  : on
% tidecorr  : off
% ionos opt : Broadcast
% tropo opt : Saastamoinen
% ephemeris : Broadcast
% navi sys  : GPS GLONASS Galileo
% antenna1  :                       ( 0.0000  0.0000  0.0000)
% antenna2  :                       ( 0.0000  0.0000  0.0000)
% ref pos   : 22.322172082  114.141187963    20.2386
%
% (lat/lon/height=WGS84/ellipsoidal,Q=1:fix,2:float,3:sbas,4:dgps,5:single,6:ppp,ns=# of satellites)
%  GPST          latitude(deg) longitude(deg)  height(m)   Q  ns   sdn(m)   sde(m)   sdu(m)  sdne(m)  sdeu(m)  sdun(m) age(s)  ratio
2158 455342.000   22.301555354  114.190309653     2.8289   4  17   0.9884   1.1846   2.5875   0.1928   0.6778   0.5073   0.00    0.0
2158 455343.000   22.301560243  114.190298899     4.0106   4  17   0.9798   1.1374   2.5108   0.2501   0.7004   0.4737   0.00    0.0
2158 455344.000   22.301565107  114.190296587     5.1568   4  17   0.9800   1.1380   2.5245   0.2508   0.7053   0.4771   0.00    0.0
2158 455345.000   22.301569692  114.190294615     6.0314   4  17   0.9671   1.1228   2.5012   0.2478   0.7013   0.4742   0.00    0.0
2158 455346.000   22.301571820  114.190294067     6.3350   4  17   0.9615   1.1136   2.4304   0.2435   0.6820   0.4612   0.00    0.0
2158 455347.000   22.301572277  114.190297567     6.4601   4  17   0.9611   1.1122   2.3591   0.2412   0.6620   0.4477   0.00    0.0
2158 455348.000   22.301570182  114.190295667     6.0172   4  17   0.9609   1.1115   2.3078   0.2398   0.6475   0.4380   0.00    0.0
2158 455349.000   22.301569431  114.190286922     5.8306   4  17   0.9608   1.1112   2.2827   0.2390   0.6405   0.4334   0.00    0.0
2158 455350.000   22.301568831  114.190275224     5.7041   4  17   0.9608   1.1111   2.2760   0.2388   0.6387   0.4324   0.00    0.0
2158 455351.000   22.301571045  114.190263197     5.6189   4  17   0.9608   1.1112   2.2756   0.2388   0.6389   0.4325   0.00    0.0
2158 455352.000   22.301581163  114.190251690     5.8032   4  17   0.9608   1.1112   2.2756   0.2388   0.6391   0.4328   0.00    0.0
2158 455353.000   22.301590445  114.190247430     5.3385   4  17   0.9608   1.1112   2.2751   0.2388   0.6392   0.4329   0.00    0.0
2158 455354.000   22.301604587  114.190238246     5.2998   4  17   0.9608   1.1113   2.2749   0.2388   0.6393   0.4331   0.00    0.0
2158 455355.000   22.301618069  114.190231723     5.4286   4  17   0.9608   1.1113   2.2749   0.2388   0.6396   0.4334   0.00    0.0
2158 455356.000   22.301634040  114.190223836     5.6771   4  17   0.9608   1.1113   2.2750   0.2389   0.6399   0.4337   0.00    0.0
2158 455357.000   22.301650608  114.190210051     4.7645   4  17   0.9608   1.1114   2.2751   0.2389   0.6401   0.4339   0.00    0.0
2158 455358.000   22.301678919  114.190195886     4.8969   4  17   0.9608   1.1114   2.2752   0.2389   0.6404   0.4342   0.00    0.0
2158 455359.000   22.301709044  114.190179438     4.2552   4  17   0.9608   1.1115   2.2754   0.2389   0.6407   0.4345   0.00    0.0
2158 455360.000   22.301747940  114.190158344     4.6004   4  17   0.9608   1.1115   2.2755   0.2389   0.6409   0.4347   0.00    0.0
2158 455361.000   22.301792314  114.190141805     5.0125   4  17   0.9608   1.1115   2.2756   0.2389   0.6412   0.4350   0.00    0.0
2158 455362.000   22.301838733  114.190120963     4.9982   4  17   0.9608   1.1116   2.2757   0.2389   0.6415   0.4353   0.00    0.0
2158 455363.000   22.301890785  114.190096854     5.1572   4  17   0.9608   1.1116   2.2759   0.2389   0.6417   0.4356   0.00    0.0
2158 455364.000   22.301944377  114.190068539     5.1662   4  17   0.9608   1.1117   2.2760   0.2389   0.6420   0.4358   0.00    0.0
2158 455365.000   22.301995670  114.190040728     4.8614   4  17   0.9609   1.1117   2.2761   0.2389   0.6423   0.4361   0.00    0.0
2158 455366.000   22.302048758  114.190018413     4.4214   4  16   0.9904   1.1502   2.2926   0.3576   0.5764   0.3533   0.00    0.0
2158 455367.000   22.302101141  114.189997296     4.0956   4  16   0.9909   1.1510   2.2957   0.3594   0.5725   0.3483   0.00    0.0
2158 455368.000   22.302144597  114.189969790     4.2401   4  16   0.9910   1.1513   2.2959   0.3600   0.5733   0.3493   0.00    0.0
2158 455369.000   22.302181394  114.189934879     5.4423   4  16   1.0602   1.3136   2.3470   0.5994   0.1573  -0.2441   0.00    0.0
2158 455370.000   22.302223699  114.189903871     6.3209   4  16   1.0626   1.3196   2.3579   0.6067  -0.0497  -0.2742   0.00    0.0
2158 455371.000   22.302247636  114.189861302     5.5794   4  15   1.1007   1.5033   2.4197   0.7582  -0.6229  -0.4777   0.00    0.0
2158 455372.000   22.302262602  114.189817007     5.1670   4  15   1.1347   1.4821   2.3797   0.7698  -0.8007  -0.6003   0.00    0.0
2158 455373.000   22.302278114  114.189771042     4.3607   4  16   1.1294   1.4494   2.3262   0.7463  -0.8923  -0.6495   0.00    0.0
2158 455374.000   22.302280431  114.189728082     4.1588   4  15   1.1726   1.4595   2.3263   0.7821  -0.9135  -0.6943   0.00    0.0
2158 455375.000   22.302278128  114.189689406     4.0211   4  15   1.2224   1.5492   2.3928   0.8970  -0.9090  -0.7334   0.00    0.0
2158 455376.000   22.302262145  114.189658180     4.2703   4  15   1.2247   1.5531   2.4047   0.9016  -0.9112  -0.7373   0.00    0.0
2158 455377.000   22.302242643  114.189621691     4.9653   4  15   1.2360   1.5995   2.4559   0.9364  -0.8001  -0.6787   0.00    0.0
2158 455378.000   22.302224553  114.189594108     5.0102   4  15   1.1068   1.5172   2.4397   0.7728  -0.6633  -0.5050   0.00    0.0
2158 455379.000   22.302205491  114.189561757     4.8749   4  15   1.1039   1.5141   2.4363   0.7677  -0.6527  -0.4931   0.00    0.0
2158 455380.000   22.302176828  114.189522155     5.4258   4  15   1.1034   1.5139   2.4369   0.7670  -0.6526  -0.4936   0.00    0.0
2158 455381.000   22.302165369  114.189514202     3.8535   4  16   1.0644   1.3415   2.3925   0.6095   0.2072  -0.2958   0.00    0.0
2158 455382.000   22.302147636  114.189484277     4.1917   4  16   1.0633   1.3377   2.3861   0.6053   0.2662  -0.2780   0.00    0.0
2158 455383.000   22.302124295  114.189446234     5.4852   4  16   1.0631   1.3368   2.3860   0.6044   0.2623  -0.2790   0.00    0.0
2158 455384.000   22.302101156  114.189411142     6.2971   4  16   1.0630   1.3365   2.3859   0.6041   0.2656  -0.2775   0.00    0.0
2158 455385.000   22.302083140  114.189381081     6.7700   4  16   1.0630   1.3366   2.3857   0.6040   0.2659  -0.2771   0.00    0.0
2158 455386.000   22.302048740  114.189317003     8.7353   4  16   1.0329   1.2224   2.3577   0.4786   0.5171   0.1220   0.00    0.0
2158 455387.000   22.302033693  114.189287585     7.8475   4  17   0.9925   1.1683   2.3306   0.3555   0.6270   0.3357   0.00    0.0
2158 455388.000   22.302019451  114.189244574     5.2604   4  17   0.9624   1.1283   2.3107   0.2300   0.6925   0.4272   0.00    0.0
2158 455389.000   22.302016796  114.189189564     2.9633   4  17   0.9612   1.1136   2.2849   0.2405   0.6527   0.4435   0.00    0.0
2158 455390.000   22.302021818  114.189134741     2.5036   4  17   0.9611   1.1129   2.2807   0.2395   0.6494   0.4435   0.00    0.0
2158 455391.000   22.302052327  114.189102925     5.6910   4  16   1.0123   1.1373   2.4263   0.3164   0.7729   0.6531   0.00    0.0
2158 455392.000   22.302074953  114.189044294     5.6080   4  15   1.0793   1.1765   2.6607   0.4262   0.9518   0.8893   0.00    0.0
2158 455393.000   22.302106018  114.188988771     2.0186   4  15   1.1417   1.1869   2.8403   0.4255   1.0272   0.8338   0.00    0.0
2158 455394.000   22.302135430  114.188931398    -0.0151   4  16   1.1419   1.1495   2.7832   0.4183   0.9291   0.8246   0.00    0.0
2158 455395.000   22.302164588  114.188884237     0.7347   4  15   1.1604   1.1447   2.6543   0.4466   0.8820   0.9350   0.00    0.0
2158 455396.000   22.302176785  114.188843161     2.0965   4  15   1.2953   1.1482   2.8308   0.3819   0.8194   1.2119   0.00    0.0
2158 455397.000   22.302179939  114.188809185     0.3488   4  15   1.4041   1.1563   3.2242   0.2083   0.6892   1.5746   0.00    0.0
2158 455398.000   22.302189042  114.188787030     0.7433   4  15   1.4241   1.1565   3.3256   0.2086   0.6921   1.6359   0.00    0.0
2158 455399.000   22.302197047  114.188768818     1.7466   4  15   1.4245   1.1569   3.3355   0.2112   0.6976   1.6391   0.00    0.0
2158 455400.000   22.302204602  114.188753743     2.7722   4  15   1.4246   1.1569   3.3373   0.2116   0.6984   1.6399   0.00    0.0
2158 455401.000   22.302203054  114.188735249     2.4679   4  15   1.4251   1.1570   3.3429   0.2130   0.7004   1.6424   0.00    0.0
2158 455402.000   22.302198842  114.188720989     2.4659   4  15   1.4256   1.1571   3.3475   0.2143   0.7021   1.6445   0.00    0.0
2158 455403.000   22.302191352  114.188712432     2.3256   4  15   1.4257   1.1571   3.3495   0.2150   0.7030   1.6454   0.00    0.0
2158 455404.000   22.302178577  114.188712155     2.6577   4  15   1.4257   1.1572   3.3502   0.2154   0.7035   1.6458   0.00    0.0
2158 455405.000   22.302174854  114.188707998     3.9333   4  15   1.4257   1.1572   3.3507   0.2159   0.7041   1.6460   0.00    0.0
2158 455406.000   22.302179294  114.188700263     6.3691   4  15   1.4257   1.1572   3.3515   0.2163   0.7047   1.6464   0.00    0.0
2158 455407.000   22.302183273  114.188698420     7.7765   4  15   1.4258   1.1572   3.3522   0.2167   0.7052   1.6467   0.00    0.0
2158 455408.000   22.302183774  114.188696626     8.2388   4  15   1.4258   1.1573   3.3528   0.2172   0.7058   1.6470   0.00    0.0
2158 455409.000   22.302184019  114.188696173     8.1560   4  15   1.4258   1.1573   3.3534   0.2176   0.7063   1.6473   0.00    0.0
2158 455410.000   22.302183343  114.188695922     7.4076   4  15   1.4257   1.1573   3.3539   0.2180   0.7069   1.6475   0.00    0.0
2158 455411.000   22.302182240  114.188696361     6.8659   4  15   1.4257   1.1573   3.3544   0.2184   0.7074   1.6477   0.00    0.0
2158 455412.000   22.302179957  114.188694825     6.2535   4  15   1.4261   1.1736   3.3939   0.2331   0.7751   1.6532   0.00    0.0
2158 455413.000   22.302180158  114.188696143     5.9222   4  15   1.4268   1.1742   3.4036   0.2372   0.7818   1.6569   0.00    0.0
2158 455414.000   22.302179900  114.188695595     6.2030   4  15   1.4266   1.1580   3.3654   0.2227   0.7145   1.6523   0.00    0.0
2158 455415.000   22.302180489  114.188696071     6.5051   4  15   1.4259   1.1575   3.3572   0.2195   0.7091   1.6492   0.00    0.0
2158 455416.000   22.302182063  114.188697273     6.7706   4  15   1.4257   1.1575   3.3574   0.2204   0.7101   1.6491   0.00    0.0
2158 455417.000   22.302182687  114.188698377     6.7454   4  15   1.4257   1.1575   3.3582   0.2208   0.7106   1.6495   0.00    0.0
2158 455418.000   22.302183446  114.188699313     6.8735   4  15   1.4257   1.1575   3.3584   0.2212   0.7111   1.6496   0.00    0.0
2158 455419.000   22.302184035  114.188701367     6.9091   4  15   1.4256   1.1575   3.3586   0.2216   0.7116   1.6497   0.00    0.0
2158 455420.000   22.302184877  114.188702245     6.8472   4  15   1.4256   1.1576   3.3590   0.2220   0.7121   1.6499   0.00    0.0
2158 455421.000   22.302185150  114.188703099     6.7970   4  15   1.4256   1.1576   3.3595   0.2224   0.7127   1.6501   0.00    0.0
2158 455422.000   22.302184972  114.188704433     6.5855   4  15   1.4255   1.1576   3.3601   0.2228   0.7132   1.6504   0.00    0.0
2158 455423.000   22.302185013  114.188704453     6.5058   4  15   1.4255   1.1577   3.3606   0.2232   0.7137   1.6506   0.00    0.0
2158 455424.000   22.302183644  114.188704118     6.5067   4  15   1.4255   1.1577   3.3611   0.2236   0.7142   1.6508   0.00    0.0
2158 455425.000   22.302183591  114.188705204     6.3266   4  15   1.4255   1.1577   3.3616   0.2240   0.7148   1.6511   0.00    0.0
2158 455426.000   22.302182888  114.188705162     5.9804   4  15   1.4255   1.1577   3.3621   0.2243   0.7153   1.6513   0.00    0.0
2158 455427.000   22.302182153  114.188705570     5.9106   4  15   1.4255   1.1578   3.3626   0.2247   0.7158   1.6515   0.00    0.0
2158 455428.000   22.302181457  114.188703749     5.8165   4  15   1.4254   1.1578   3.3631   0.2251   0.7163   1.6518   0.00    0.0
2158 455429.000   22.302182061  114.188703671     5.6273   4  15   1.4254   1.1578   3.3636   0.2255   0.7169   1.6520   0.00    0.0
2158 455430.000   22.302182282  114.188703483     5.8466   4  15   1.4254   1.1578   3.3641   0.2259   0.7174   1.6522   0.00    0.0
2158 455431.000   22.302182498  114.188702803     5.9708   4  15   1.4254   1.1579   3.3646   0.2263   0.7179   1.6525   0.00    0.0
2158 455432.000   22.302181666  114.188701299     6.2752   4  15   1.4254   1.1579   3.3651   0.2267   0.7184   1.6527   0.00    0.0
2158 455433.000   22.302181880  114.188701246     6.4586   4  15   1.4253   1.1579   3.3656   0.2271   0.7190   1.6529   0.00    0.0
2158 455434.000   22.302181903  114.188700787     6.6625   4  15   1.4253   1.1579   3.3662   0.2275   0.7195   1.6532   0.00    0.0
2158 455435.000   22.302181460  114.188700511     7.3022   4  15   1.4253   1.1580   3.3667   0.2279   0.7200   1.6534   0.00    0.0
2158 455436.000   22.302181143  114.188701174     7.4132   4  15   1.4253   1.1580   3.3672   0.2282   0.7205   1.6536   0.00    0.0
2158 455437.000   22.302180935  114.188699647     7.6049   4  15   1.4253   1.1580   3.3677   0.2286   0.7210   1.6539   0.00    0.0
2158 455438.000   22.302181933  114.188699469     7.7442   4  15   1.4253   1.1581   3.3682   0.2290   0.7216   1.6541   0.00    0.0
2158 455439.000   22.302181246  114.188697392     7.8324   4  15   1.4252   1.1581   3.3687   0.2294   0.7221   1.6543   0.00    0.0
2158 455440.000   22.302181476  114.188696253     7.6502   4  15   1.4252   1.1581   3.3692   0.2298   0.7226   1.6546   0.00    0.0
2158 455441.000   22.302181667  114.188696794     7.1637   4  15   1.4252   1.1581   3.3697   0.2302   0.7231   1.6548   0.00    0.0
2158 455442.000   22.302180768  114.188698019     7.0178   4  15   1.4252   1.1582   3.3702   0.2305   0.7237   1.6550   0.00    0.0
2158 455443.000   22.302170613  114.188697398     6.4768   4  15   1.4252   1.1582   3.3708   0.2309   0.7242   1.6553   0.00    0.0
2158 455444.000   22.302146701  114.188693457     5.9325   4  15   1.4252   1.1582   3.3713   0.2313   0.7247   1.6555   0.00    0.0
2158 455445.000   22.302107990  114.188679992     6.2648   4  15   1.4251   1.1582   3.3718   0.2317   0.7252   1.6557   0.00    0.0
2158 455446.000   22.302058899  114.188653248     5.8174   4  15   1.4251   1.1583   3.3723   0.2321   0.7257   1.6560   0.00    0.0
2158 455447.000   22.301999462  114.188619203     4.7859   4  15   1.4251   1.1583   3.3728   0.2325   0.7263   1.6562   0.00    0.0
2158 455448.000   22.301945224  114.188584235     8.0770   4  15   1.3483   1.1396   3.0742  -0.2675   0.4542   1.4406   0.00    0.0
2158 455449.000   22.301889064  114.188541642     9.4142   4  15   1.3400   1.1261   2.9955  -0.2747   0.3474   1.4115   0.00    0.0
2158 455450.000   22.301816882  114.188481099     5.2521   4  15   1.4113   1.1566   3.2890   0.2048   0.6949   1.6114   0.00    0.0
2158 455451.000   22.301765182  114.188425148     4.3757   4  15   1.4242   1.1584   3.3669   0.2341   0.7288   1.6537   0.00    0.0
2158 455452.000   22.301718343  114.188374321     5.3492   4  15   1.4245   1.1584   3.3718   0.2337   0.7281   1.6556   0.00    0.0
2158 455453.000   22.301682808  114.188349153     8.5608   4  15   1.4242   1.1585   3.3700   0.2341   0.7285   1.6548   0.00    0.0
2158 455454.000   22.301650380  114.188298169    14.9841   4  15   1.4245   1.2255   3.4235   0.2391   0.5448   1.6551   0.00    0.0
2158 455455.000   22.301612230  114.188246829    19.8385   4  14   1.5189   1.3703   3.7040   0.6019   1.0578   1.8558   0.00    0.0
2158 455456.000   22.301588693  114.188144199    25.8119   4  13   1.6083   1.5112   3.9633   0.3292   0.7294   2.0448   0.00    0.0
2158 455457.000   22.301520373  114.188033462    14.2573   4  14   1.4025   1.3849   3.2215  -0.7151  -0.9257   1.4694   0.00    0.0
2158 455458.000   22.301467522  114.187965125     6.5585   4  14   1.3865   1.3769   3.0770  -0.7145  -0.9539   1.4055   0.00    0.0
2158 455459.000   22.301420065  114.187892464     3.4452   4  15   1.1908   1.2036   2.6888  -0.4216   0.1395   1.0081   0.00    0.0
2158 455460.000   22.301398432  114.187838867     2.5862   4  15   1.1832   1.2009   2.6347  -0.4124   0.2380   0.9729   0.00    0.0
2158 455461.000   22.301390662  114.187805082     3.3373   4  16   1.0860   1.1688   2.4486  -0.2154   0.4338   0.7809   0.00    0.0
2158 455462.000   22.301385862  114.187741038     2.4600   4  14   1.1663   1.2593   2.4826  -0.4962   0.4835   0.7586   0.00    0.0
2158 455463.000   22.301378754  114.187735171     0.6137   4  15   1.1369   1.2175   2.4653  -0.4090   0.4044   0.7807   0.00    0.0
2158 455464.000   22.301360141  114.187741154     1.5087   4  15   1.2421   1.2494   2.7748  -0.5303   0.2042   0.8497   0.00    0.0
2158 455465.000   22.301341266  114.187723270     2.0703   4  15   1.3318   1.2560   2.8207  -0.6080  -0.2626   0.9303   0.00    0.0
2158 455466.000   22.301335098  114.187718063     2.7589   4  14   1.3355   1.2565   2.8201  -0.6112  -0.2759   0.9365   0.00    0.0
2158 455467.000   22.301341659  114.187721429     1.8552   4  13   1.3921   1.2837   3.0657  -0.6819   0.4753   0.6436   0.00    0.0
2158 455468.000   22.301313438  114.187729175    -0.8716   4  13   1.5194   1.3053   3.1376  -0.7785   0.4788   0.6928   0.00    0.0
2158 455469.000   22.301288235  114.187755204    -3.8044   4  13   1.5252   1.2995   3.0906  -0.7846   0.3792   0.7000   0.00    0.0
2158 455470.000   22.301263832  114.187784310    -9.6164   4  11   2.1330   1.5401   3.3624  -1.3528  -0.8795   1.5191   0.00    0.0
2158 455471.000   22.301254289  114.187795264   -13.5349   4  11   2.2142   1.5711   3.4623  -1.4190  -1.0029   1.6648   0.00    0.0
2158 455472.000   22.301253227  114.187790829   -17.9470   4  11   2.2166   1.5747   3.5464  -1.4162  -0.9683   1.6878   0.00    0.0
2158 455473.000   22.301283410  114.187755069   -13.2612   4  10   2.2593   1.6155   3.5780  -1.4701  -1.0233   1.7326   0.00    0.0
2158 455474.000   22.301275293  114.187755048    -5.0279   4  11   2.0396   1.5357   3.5408  -1.2935  -1.1660   1.8969   0.00    0.0
2158 455475.000   22.301281770  114.187748792     4.0503   4  12   1.7674   1.3285   3.2186  -0.9655  -0.7852   1.5255   0.00    0.0
2158 455476.000   22.301292224  114.187737297     6.1785   4  12   1.7487   1.3215   3.1618  -0.9483  -0.7445   1.4785   0.00    0.0
2158 455477.000   22.301331391  114.187717515     3.2465   4  11   1.9013   1.3585   3.2346  -1.0656  -0.5804   1.2928   0.00    0.0
2158 455478.000   22.301344631  114.187681944     4.9191   4  12   1.7502   1.3374   3.1998  -0.9536  -0.6729   1.4633   0.00    0.0
2158 455479.000   22.301336411  114.187695378     3.0032   4  12   1.7168   1.3345   3.0303  -0.9382  -0.7332   1.5826   0.00    0.0
2158 455480.000   22.301325119  114.187740403     2.3634   4  12   1.5960   1.3238   2.9581  -0.8797  -0.6751   1.4761   0.00    0.0
2158 455481.000   22.301322039  114.187806961    -2.7449   4  12   1.6838   1.4346   3.0575  -1.0373  -0.9452   1.6112   0.00    0.0
2158 455482.000   22.301347381  114.187849555    -8.8846   4  12   1.6947   1.4412   3.0833  -1.0500  -0.9748   1.6360   0.00    0.0
2158 455483.000   22.301394925  114.187876278    -7.8629   4  12   1.4531   1.5505   3.0412  -0.5879   0.9813   1.2567   0.00    0.0
2158 455484.000   22.301460644  114.187897646     1.7568   4  12   1.2936   1.2743   2.5744  -0.6223   0.5103   0.8731   0.00    0.0
2158 455485.000   22.301545252  114.187944225     8.4513   4  14   1.1566   1.1798   2.4685  -0.3251   0.6478   0.6899   0.00    0.0
2158 455486.000   22.301602914  114.187998001    14.5525   4  14   1.2244   1.1827   2.6059  -0.3871   0.5477   0.9180   0.00    0.0
2158 455487.000   22.301649819  114.188040318    21.1769   4  14   1.4824   1.2765   2.9281  -0.7406  -0.6982   1.4383   0.00    0.0
2158 455488.000   22.301664791  114.188103897    21.4222   4  14   1.5116   1.2843   3.0100  -0.7687  -0.7724   1.5104   0.00    0.0
2158 455489.000   22.301679012  114.188164057    19.7984   4  12   1.5977   1.4553   3.1000  -0.8313  -0.5099   1.5727   0.00    0.0
2158 455490.000   22.301694669  114.188214816    15.6310   4  12   1.6035   1.4620   3.1220  -0.8333  -0.4811   1.5844   0.00    0.0
2158 455491.000   22.301705233  114.188252072    10.7452   4  11   1.4536   1.4547   3.0832  -0.7221   0.2186   1.4258   0.00    0.0
2158 455492.000   22.301730122  114.188280350    10.2061   4  11   1.4463   1.4550   3.0777  -0.7164   0.2745   1.4120   0.00    0.0
2158 455493.000   22.301750724  114.188290574    10.9072   4  11   1.4463   1.4550   3.0789  -0.7163   0.2718   1.4135   0.00    0.0
2158 455494.000   22.301768138  114.188327304    14.4955   4  12   1.4354   1.3409   2.9882  -0.7819  -0.5881   1.3667   0.00    0.0
2158 455495.000   22.301774086  114.188329339    15.7886   4  12   1.4341   1.3389   2.9707  -0.7845  -0.6071   1.3597   0.00    0.0
2158 455496.000   22.301773685  114.188326784    15.4500   4  12   1.4340   1.3382   2.9698  -0.7840  -0.6043   1.3595   0.00    0.0
2158 455497.000   22.301775017  114.188327335    15.4048   4  12   1.4339   1.3380   2.9697  -0.7839  -0.6048   1.3596   0.00    0.0
2158 455498.000   22.301777943  114.188328110    15.8782   4  12   1.4338   1.3380   2.9690  -0.7838  -0.6041   1.3594   0.00    0.0
2158 455499.000   22.301781905  114.188327362    15.9252   4  12   1.4336   1.3380   2.9686  -0.7836  -0.6033   1.3592   0.00    0.0
2158 455500.000   22.301782847  114.188332124    15.6017   4  12   1.4335   1.3380   2.9686  -0.7835  -0.6029   1.3591   0.00    0.0
2158 455501.000   22.301784608  114.188336846    15.8216   4  12   1.4334   1.3379   2.9687  -0.7834  -0.6026   1.3592   0.00    0.0
2158 455502.000   22.301786450  114.188340759    16.1075   4  12   1.4333   1.3379   2.9688  -0.7833  -0.6022   1.3592   0.00    0.0
2158 455503.000   22.301783064  114.188342046    15.5496   4  12   1.4332   1.3379   2.9689  -0.7832  -0.6019   1.3593   0.00    0.0
2158 455504.000   22.301783052  114.188341824    15.1832   4  12   1.4331   1.3379   2.9690  -0.7830  -0.6016   1.3593   0.00    0.0
2158 455505.000   22.301785345  114.188344328    15.3768   4  12   1.4330   1.3379   2.9691  -0.7829  -0.6012   1.3594   0.00    0.0
2158 455506.000   22.301783486  114.188343911    14.5693   4  12   1.4329   1.3379   2.9692  -0.7828  -0.6009   1.3595   0.00    0.0
2158 455507.000   22.301783654  114.188348566    14.5406   4  12   1.4329   1.3379   2.9694  -0.7827  -0.6006   1.3595   0.00    0.0
2158 455508.000   22.301788635  114.188363943    16.8029   4  12   1.4328   1.3379   2.9695  -0.7826  -0.6003   1.3596   0.00    0.0
2158 455509.000   22.301792692  114.188364402    18.1157   4  12   1.4327   1.3379   2.9696  -0.7825  -0.6000   1.3597   0.00    0.0
2158 455510.000   22.301794322  114.188360872    18.6040   4  12   1.4326   1.3379   2.9698  -0.7824  -0.5997   1.3597   0.00    0.0
2158 455511.000   22.301798508  114.188353795    18.6399   4  12   1.4325   1.3379   2.9699  -0.7823  -0.5993   1.3598   0.00    0.0
2158 455512.000   22.301799525  114.188352610    18.2945   4  12   1.4324   1.3379   2.9700  -0.7822  -0.5990   1.3598   0.00    0.0
2158 455513.000   22.301800262  114.188355798    18.8173   4  12   1.4323   1.3378   2.9701  -0.7821  -0.5987   1.3599   0.00    0.0
2158 455514.000   22.301804149  114.188359761    20.2124   4  12   1.4322   1.3378   2.9703  -0.7820  -0.5984   1.3600   0.00    0.0
2158 455515.000   22.301808177  114.188360855    21.7866   4  12   1.4321   1.3378   2.9704  -0.7819  -0.5981   1.3600   0.00    0.0
2158 455516.000   22.301807868  114.188360915    22.8481   4  12   1.4320   1.3378   2.9705  -0.7818  -0.5977   1.3601   0.00    0.0
2158 455517.000   22.301812709  114.188359363    23.6316   4  13   1.4311   1.3269   2.9460  -0.7763  -0.6497   1.3670   0.00    0.0
2158 455518.000   22.301814027  114.188364340    25.2772   4  13   1.4310   1.3267   2.9411  -0.7764  -0.6525   1.3662   0.00    0.0
2158 455519.000   22.301815246  114.188372452    28.1103   4  13   1.4307   1.3266   2.9409  -0.7761  -0.6517   1.3660   0.00    0.0
2158 455520.000   22.301818995  114.188380277    31.4178   4  13   1.4307   1.3265   2.9410  -0.7760  -0.6515   1.3661   0.00    0.0
2158 455521.000   22.301806036  114.188365429    26.4147   4  12   1.4609   1.3578   3.1783  -0.7184  -0.2734   1.4911   0.00    0.0
2158 455522.000   22.301798882  114.188359227    22.2883   4  12   1.4672   1.3587   3.2386  -0.7134  -0.2076   1.5194   0.00    0.0
2158 455523.000   22.301798837  114.188364175    22.3399   4  12   1.4677   1.3589   3.2443  -0.7139  -0.2165   1.5220   0.00    0.0
2158 455524.000   22.301795952  114.188370266    22.2199   4  12   1.4676   1.3590   3.2448  -0.7137  -0.2138   1.5221   0.00    0.0
2158 455525.000   22.301810823  114.188380535    23.7426   4  12   1.4677   1.3590   3.2473  -0.7136  -0.2129   1.5232   0.00    0.0
2158 455526.000   22.301820318  114.188355669    19.8357   4  11   1.4586   1.4791   3.3417  -0.5335   0.6756   1.5819   0.00    0.0
2158 455527.000   22.301834347  114.188366740    15.8866   4  12   1.4513   1.4484   3.3988  -0.4434   0.7142   1.6161   0.00    0.0
2158 455528.000   22.301866380  114.188397113    14.0035   4  12   1.4520   1.4476   3.4091  -0.4411   0.7125   1.6212   0.00    0.0
2158 455529.000   22.301904654  114.188434793    16.4728   4  13   1.4417   1.4027   3.3595  -0.3641   0.5475   1.6520   0.00    0.0
2158 455530.000   22.301964936  114.188474918    18.4838   4  13   1.4168   1.2648   3.2635  -0.5423  -0.4154   1.5887   0.00    0.0
2158 455531.000   22.302016056  114.188486504    16.7998   4  13   1.4136   1.2623   3.2465  -0.5476  -0.4440   1.5791   0.00    0.0
2158 455532.000   22.302075099  114.188508364    16.9786   4  13   1.4135   1.2614   3.2460  -0.5467  -0.4394   1.5791   0.00    0.0
2158 455533.000   22.302129444  114.188539888    17.7078   4  13   1.4133   1.2613   3.2457  -0.5466  -0.4393   1.5788   0.00    0.0
2158 455534.000   22.302185038  114.188553256    16.9695   4  13   1.4131   1.2613   3.2447  -0.5463  -0.4376   1.5782   0.00    0.0
2158 455535.000   22.302238810  114.188565966    15.5731   4  13   1.4129   1.2612   3.2441  -0.5460  -0.4361   1.5778   0.00    0.0
2158 455536.000   22.302261034  114.188575629     5.7250   4  13   1.4507   1.2378   3.5212  -0.1865   0.7308   1.7247   0.00    0.0
2158 455537.000   22.302299231  114.188585423     1.5422   4  13   1.4619   1.2397   3.5995  -0.1138   0.7847   1.7638   0.00    0.0
2158 455538.000   22.302343669  114.188596268     1.0409   4  13   1.4630   1.2393   3.6090  -0.1166   0.7819   1.7683   0.00    0.0
2158 455539.000   22.302384337  114.188605591     2.6070   4  13   1.4630   1.2393   3.6094  -0.1146   0.7829   1.7684   0.00    0.0
2158 455540.000   22.302409987  114.188610022     4.4899   4  13   1.4632   1.2393   3.6124  -0.1133   0.7838   1.7697   0.00    0.0
2158 455541.000   22.302436966  114.188605385     7.3944   4  14   1.4297   1.1995   3.5451   0.2916   0.9148   1.7074   0.00    0.0
2158 455542.000   22.302440472  114.188593468     5.7156   4  14   1.4264   1.1992   3.5311   0.2967   0.9205   1.6983   0.00    0.0
2158 455543.000   22.302437650  114.188590781     4.1436   4  14   1.4263   1.1988   3.5304   0.2964   0.9193   1.6983   0.00    0.0
2158 455544.000   22.302435186  114.188591505     3.7733   4  14   1.4262   1.1988   3.5308   0.2969   0.9199   1.6984   0.00    0.0
2158 455545.000   22.302438286  114.188593370     4.2848   4  14   1.4261   1.1988   3.5308   0.2970   0.9201   1.6984   0.00    0.0
2158 455546.000   22.302436633  114.188591162     3.6476   4  14   1.4261   1.1989   3.5309   0.2971   0.9203   1.6984   0.00    0.0
2158 455547.000   22.302437425  114.188591231     3.2764   4  14   1.4260   1.1989   3.5313   0.2974   0.9207   1.6985   0.00    0.0
2158 455548.000   22.302436343  114.188592026     2.9360   4  14   1.4260   1.1990   3.5318   0.2977   0.9212   1.6988   0.00    0.0
2158 455549.000   22.302435854  114.188591752     3.0987   4  14   1.4260   1.1990   3.5323   0.2979   0.9217   1.6990   0.00    0.0
2158 455550.000   22.302439563  114.188592459     3.6360   4  14   1.4260   1.1990   3.5328   0.2982   0.9221   1.6992   0.00    0.0
2158 455551.000   22.302442494  114.188594364     4.6128   4  14   1.4259   1.1991   3.5333   0.2985   0.9226   1.6994   0.00    0.0
2158 455552.000   22.302445180  114.188596378     5.9336   4  14   1.4259   1.1991   3.5338   0.2988   0.9231   1.6996   0.00    0.0
2158 455553.000   22.302444260  114.188599614     6.8085   4  14   1.4259   1.1992   3.5344   0.2991   0.9235   1.6998   0.00    0.0
2158 455554.000   22.302446301  114.188601658     7.8724   4  14   1.4259   1.1992   3.5349   0.2994   0.9240   1.7000   0.00    0.0
2158 455555.000   22.302447528  114.188601713     7.4548   4  14   1.4258   1.1993   3.5354   0.2996   0.9245   1.7002   0.00    0.0
2158 455556.000   22.302454690  114.188595179     6.7711   4   8   1.5764   1.5413   4.1358   0.6130   1.6056   1.8593   0.00    0.0
2158 455557.000   22.302447313  114.188598250     5.6386   4  10   1.5614   1.5468   4.3325   0.7489   1.7002   1.9781   0.00    0.0
2158 455558.000   22.302428591  114.188581274    -2.8168   4  12   1.4503   1.2845   3.8045   0.2423   1.1834   1.7229   0.00    0.0
2158 455559.000   22.302426825  114.188592212    -2.3597   4  12   1.4373   1.2751   3.6934   0.1710   1.1265   1.6724   0.00    0.0
2158 455560.000   22.302434595  114.188604466    -0.4639   4  10   1.5776   1.4904   4.1912   0.5948   1.6753   1.8822   0.00    0.0
2158 455561.000   22.302444850  114.188613229    -0.3411   4  10   1.5987   1.5179   4.3680   0.6507   1.7774   1.9599   0.00    0.0
2158 455562.000   22.302442673  114.188593662     0.4071   4   8   1.6041   1.5796   4.4005   0.6807   1.7539   1.9667   0.00    0.0
2158 455563.000   22.302442439  114.188588334     2.4820   4   8   1.5321   1.3644   4.0072  -0.2312   1.2592   1.5825   0.00    0.0
2158 455564.000   22.302459911  114.188594228     2.6636   4  12   1.4394   1.2784   3.7399   0.1742   1.1436   1.6809   0.00    0.0
2158 455565.000   22.302470664  114.188596234     2.1405   4  11   1.5257   1.4858   4.1769   0.6462   1.6612   1.9482   0.00    0.0
2158 455566.000   22.302495506  114.188594578     1.4645   4   8   1.6011   1.5788   4.3736   0.6802   1.7473   1.9608   0.00    0.0
2158 455567.000   22.302528819  114.188587639     1.6681   4   8   1.6032   1.5816   4.4074   0.6807   1.7544   1.9678   0.00    0.0
2158 455568.000   22.302576905  114.188575435     3.6430   4   7   1.6096   1.5892   4.4936   0.6659   1.7155   1.9982   0.00    0.0
2158 455569.000   22.302626854  114.188561661     4.2462   4   8   1.6060   1.5825   4.4276   0.6824   1.7572   1.9771   0.00    0.0
2158 455570.000   22.302669779  114.188565609     8.5651   4  13   1.4542   1.2598   3.7188   0.4188   0.9201   1.7482   0.00    0.0
2158 455571.000   22.302736554  114.188538667     7.9233   4  14   1.4302   1.2020   3.5726   0.3035   0.9289   1.7168   0.00    0.0
2158 455572.000   22.302789699  114.188510283     6.2346   4  13   1.4373   1.2497   3.5879   0.3887   0.8545   1.6922   0.00    0.0
2158 455573.000   22.302838998  114.188466177     2.5548   4  14   1.4359   1.2135   3.5081   0.3670   0.6964   1.6804   0.00    0.0
2158 455574.000   22.302894052  114.188426198     1.4939   4  14   1.4338   1.2127   3.4840   0.3635   0.6842   1.6709   0.00    0.0
2158 455575.000   22.302946914  114.188384120    -0.5371   4  13   1.5248   1.3364   3.6970   0.6528   1.0836   1.8535   0.00    0.0
2158 455576.000   22.302999013  114.188327081     0.7081   4  12   1.5672   1.5682   3.9742   0.7803   0.8366   1.8922   0.00    0.0
2158 455577.000   22.303046570  114.188267116     2.1682   4  12   1.5718   1.5783   4.0485   0.7786   0.7885   1.9133   0.00    0.0
2158 455578.000   22.303087587  114.188195131     0.4169   4  12   1.5703   1.5518   4.0008   0.7613   0.6599   1.9000   0.00    0.0
2158 455579.000   22.303159514  114.188162805     1.0147   4  13   1.4583   1.4259   3.7663   0.4721  -0.6211   1.6820   0.00    0.0
2158 455580.000   22.303212298  114.188101970     2.5253   4  14   1.3748   1.4041   3.3620   0.3207  -0.8978   1.4153   0.00    0.0
2158 455581.000   22.303258022  114.188035738    -0.1922   4  13   1.4360   1.4222   3.6255   0.4527  -0.6686   1.6042   0.00    0.0
2158 455582.000   22.303321874  114.187934710     0.5852   4  13   1.4502   1.6305   3.9233   0.5231  -1.1956   1.6201   0.00    0.0
2158 455583.000   22.303374030  114.187842122     2.9991   4  13   1.4514   1.6464   3.9962   0.5099  -1.2659   1.6341   0.00    0.0
2158 455584.000   22.303440692  114.187747293     7.7342   4  13   1.4529   1.6646   4.0268   0.5215  -1.2142   1.6428   0.00    0.0
2158 455585.000   22.303520233  114.187676471     8.1374   4  13   1.4535   1.6653   4.0334   0.5240  -1.2094   1.6456   0.00    0.0
2158 455586.000   22.303589374  114.187601159     8.0679   4  13   1.4538   1.6655   4.0388   0.5230  -1.2116   1.6478   0.00    0.0
2158 455587.000   22.303626216  114.187530603     7.4128   4  12   1.5698   1.8372   4.2020   0.8555  -0.7632   1.8434   0.00    0.0
2158 455588.000   22.303663107  114.187510474     9.0057   4   7   1.9378   2.0297   4.8206   0.9438  -1.2578   2.1408   0.00    0.0
2158 455589.004   22.303684292  114.187544977     3.8398   4   2   2.3273   2.7827   6.3773   0.9094  -2.4436   2.5269   0.00    0.0
2158 455590.000   22.303719933  114.187410740    -3.9333   4   5   2.9975   5.6664   6.7613   3.0116  -2.7090   3.0223   0.00    0.0
2158 455591.000   22.303819387  114.187273021    -1.0178   4  10   1.8606   2.0598   5.2711  -0.3153  -2.0550   2.3826   0.00    0.0
2158 455592.000   22.303916868  114.187171178     5.0028   4   9   1.9499   1.9418   4.6438   1.1139   0.2741   2.2860   0.00    0.0
2158 455593.000   22.303939026  114.187065888     8.4852   4  10   1.7350   1.7090   4.2735   0.7081  -1.0402   1.9302   0.00    0.0
2158 455594.000   22.303977905  114.186987903     9.0025   4   9   2.0492   1.9431   4.6012   1.1996   0.6650   2.3632   0.00    0.0
2158 455595.000   22.304019042  114.186905515     4.6409   4  10   1.8300   1.7097   4.3593   0.7592  -0.9874   2.0529   0.00    0.0
2158 455596.000   22.304058257  114.186848677     1.0402   4  10   1.8065   1.7040   4.2931   0.7306  -1.0463   1.9973   0.00    0.0
2158 455597.000   22.304084761  114.186785716    -2.9061   4  10   1.8054   1.7031   4.2759   0.7334  -1.0363   1.9911   0.00    0.0
2158 455598.000   22.304112981  114.186725648    -4.8708   4  10   1.8049   1.7020   4.2748   0.7322  -1.0352   1.9908   0.00    0.0
2158 455599.000   22.304126972  114.186673719    -5.0664   4  10   1.8047   1.7019   4.2763   0.7320  -1.0358   1.9910   0.00    0.0
2158 455600.000   22.304161787  114.186647989    -1.5382   4  10   1.8047   1.7017   4.2768   0.7322  -1.0347   1.9914   0.00    0.0
2158 455601.000   22.304201973  114.186625805    -1.6668   4  10   1.8047   1.7015   4.2767   0.7324  -1.0334   1.9916   0.00    0.0
2158 455602.000   22.304224096  114.186605741     0.9271   4  10   1.8046   1.7013   4.2769   0.7326  -1.0325   1.9918   0.00    0.0
2158 455603.000   22.304238108  114.186576971     1.5538   4  10   1.8046   1.7012   4.2775   0.7327  -1.0319   1.9922   0.00    0.0
2158 455604.000   22.304258950  114.186565907     0.6681   4  10   1.8046   1.7010   4.2784   0.7327  -1.0312   1.9927   0.00    0.0
2158 455605.000   22.304281223  114.186543593    -0.4434   4  10   1.8047   1.7009   4.2795   0.7328  -1.0306   1.9932   0.00    0.0
2158 455606.000   22.304293466  114.186510022     0.8027   4  10   1.8047   1.7007   4.2805   0.7329  -1.0301   1.9938   0.00    0.0
2158 455607.000   22.304304156  114.186477810     2.4743   4  10   1.8047   1.7006   4.2816   0.7330  -1.0295   1.9944   0.00    0.0
2158 455608.000   22.304314925  114.186451617     2.9887   4  10   1.8048   1.7004   4.2827   0.7330  -1.0289   1.9950   0.00    0.0
2158 455609.000   22.304323556  114.186426347     3.1162   4  10   1.8048   1.7003   4.2838   0.7331  -1.0283   1.9956   0.00    0.0
2158 455610.000   22.304331956  114.186408010     3.1687   4  10   1.8048   1.7001   4.2849   0.7332  -1.0277   1.9962   0.00    0.0
2158 455611.000   22.304355145  114.186382974    10.7309   4  12   1.7276   1.8875   4.4760   0.5392  -1.6373   1.9595   0.00    0.0
2158 455612.000   22.304373814  114.186359457    16.3154   4  12   1.6513   1.9081   4.5058   0.4911  -1.7192   1.8980   0.00    0.0
2158 455613.000   22.304372049  114.186369991    12.9323   4  12   1.6393   1.6838   4.1979   0.6292  -1.2146   1.8194   0.00    0.0
2158 455614.000   22.304372142  114.186369904     9.9787   4  12   1.6355   1.6733   4.1295   0.6455  -1.1532   1.7974   0.00    0.0
2158 455615.000   22.304371132  114.186372292     7.2090   4  12   1.6345   1.6729   4.1243   0.6440  -1.1569   1.7943   0.00    0.0
2158 455616.000   22.304366231  114.186370987     5.5507   4  12   1.6347   1.6722   4.1266   0.6439  -1.1555   1.7956   0.00    0.0
2158 455617.000   22.304368669  114.186362521     6.7480   4  12   1.6346   1.6720   4.1256   0.6443  -1.1540   1.7955   0.00    0.0
2158 455618.000   22.304371405  114.186363137     7.9743   4  12   1.6343   1.6718   4.1237   0.6444  -1.1535   1.7946   0.00    0.0
2158 455619.000   22.304373904  114.186361646     9.1011   4  12   1.6341   1.6716   4.1231   0.6444  -1.1530   1.7942   0.00    0.0
2158 455620.000   22.304376396  114.186356474    10.5174   4  12   1.6340   1.6715   4.1236   0.6445  -1.1525   1.7944   0.00    0.0
2158 455621.000   22.304373879  114.186359517    12.7413   4  12   1.6331   1.6563   4.1042   0.6539  -1.1910   1.8009   0.00    0.0
2158 455622.000   22.304381210  114.186360203    13.6648   4  12   1.6328   1.6560   4.1000   0.6535  -1.1929   1.7999   0.00    0.0
2158 455623.000   22.304390056  114.186367811    12.7985   4  12   1.6326   1.6556   4.1001   0.6539  -1.1918   1.7997   0.00    0.0
2158 455624.000   22.304388369  114.186367653    11.5794   4  12   1.6326   1.6555   4.1007   0.6540  -1.1915   1.8000   0.00    0.0
2158 455625.000   22.304392952  114.186364303    10.5122   4  12   1.6325   1.6553   4.1012   0.6541  -1.1910   1.8002   0.00    0.0
2158 455626.000   22.304404002  114.186369049     9.3025   4  12   1.6324   1.6551   4.1018   0.6543  -1.1905   1.8004   0.00    0.0
2158 455627.000   22.304412458  114.186371347     9.8672   4  13   1.5313   1.6383   3.6943   0.5436  -1.3546   1.4946   0.00    0.0
2158 455628.000   22.304418854  114.186373297     9.2920   4  13   1.5214   1.6379   3.6136   0.5479  -1.3467   1.4494   0.00    0.0
2158 455629.000   22.304420669  114.186373399     7.6806   4  13   1.5212   1.6366   3.6077   0.5489  -1.3415   1.4484   0.00    0.0
2158 455630.000   22.304421091  114.186368460     5.1966   4  13   1.5209   1.6363   3.6075   0.5486  -1.3417   1.4479   0.00    0.0
2158 455631.000   22.304429156  114.186349592     2.9970   4  13   1.5206   1.6360   3.6041   0.5492  -1.3400   1.4465   0.00    0.0
2158 455632.000   22.304458723  114.186331431     4.8573   4  13   1.5204   1.6356   3.6014   0.5498  -1.3382   1.4457   0.00    0.0
2158 455633.000   22.304486788  114.186301108     4.5697   4  12   1.6129   1.6527   3.9693   0.6566  -1.1788   1.7290   0.00    0.0
2158 455634.000   22.304525257  114.186268055     5.9425   4  12   1.6301   1.6526   4.0823   0.6580  -1.1754   1.7932   0.00    0.0
2158 455635.000   22.304564038  114.186226936     7.7834   4  12   1.6310   1.6534   4.0986   0.6557  -1.1835   1.7990   0.00    0.0
2158 455636.000   22.304604999  114.186181617     8.9952   4  12   1.8123   1.7522   4.0997   0.9426  -1.1978   1.7859   0.00    0.0
2158 455637.000   22.304632589  114.186132409     9.9514   4  12   1.8219   1.7591   4.1033   0.9578  -1.1998   1.7861   0.00    0.0
2158 455638.000   22.304688987  114.186117270    14.1091   4  11   2.1006   2.0395   4.3117   1.4126  -0.3013   2.1366   0.00    0.0
2158 455639.000   22.304753401  114.186104110    16.9505   4  11   2.1457   2.0654   4.3855   1.4621   0.4011   2.2158   0.00    0.0
2158 455640.000   22.304784417  114.186064969    18.1334   4  11   1.8364   1.8616   4.3799   1.0680  -0.4594   2.1172   0.00    0.0
2158 455641.000   22.304821634  114.186030625    19.2751   4  11   1.8234   1.8537   4.3764   1.0501  -0.4985   2.1069   0.00    0.0
2158 455642.000   22.304862657  114.185995711    23.6457   4  13   1.7705   1.5044   4.0181   0.7062  -0.6031   1.9709   0.00    0.0
2158 455643.000   22.304868003  114.185951982    23.6814   4  12   1.9654   1.6677   4.2443   1.0624   0.8971   2.2636   0.00    0.0
2158 455644.000   22.304884680  114.185935915    21.1851   4  13   1.7784   1.4971   3.9986   0.7141  -0.5262   1.9796   0.00    0.0
2158 455645.000   22.304932577  114.185968644    15.4861   4  12   1.6631   1.3550   3.8564   0.4690   0.1570   1.9464   0.00    0.0
2158 455646.000   22.304971396  114.185994944    14.5772   4  13   1.8162   1.3832   3.8523   0.6623   0.4300   2.0159   0.00    0.0
2158 455647.000   22.304968702  114.186002506    13.5180   4  13   1.7302   1.3533   3.8504   0.5297   0.3633   1.9927   0.00    0.0
2158 455648.000   22.304973134  114.186060724    10.3502   4  12   1.7425   1.4456   3.9403   0.3901  -0.5527   2.0389   0.00    0.0
2158 455649.000   22.304980044  114.186122144     8.1067   4  12   1.7718   1.5807   4.1013  -0.2202  -1.0070   2.1268   0.00    0.0
2158 455650.000   22.305037943  114.186194546     8.2992   4  11   1.8592   1.6262   4.1438   0.3461  -1.0279   2.1611   0.00    0.0
2158 455651.000   22.305103558  114.186230793    13.4798   4  11   1.8736   1.6809   4.1861   0.2254  -0.9654   2.1548   0.00    0.0
2158 455652.000   22.305173785  114.186260653     8.7556   4  10   1.9155   1.6874   4.2780   0.0699  -0.9077   2.0802   0.00    0.0
2158 455653.000   22.305220647  114.186297839     8.5768   4  10   1.9165   1.6879   4.3042   0.0707  -0.9053   2.0804   0.00    0.0
2158 455654.000   22.305233275  114.186331073     4.6723   4  10   1.9184   1.6882   4.3096   0.0658  -0.9053   2.0846   0.00    0.0
2158 455655.000   22.305196442  114.186373029     2.4446   4  11   1.8499   1.6768   4.5793  -0.7852  -1.1718   2.3423   0.00    0.0
2158 455656.000   22.305209925  114.186457586     4.0386   4  12   1.9864   1.6854   4.5108  -0.6818  -1.2280   2.4426   0.00    0.0
2158 455657.000   22.305242501  114.186543374    11.1921   4  12   2.3011   1.8872   5.1734  -0.8286  -1.1386   2.9618   0.00    0.0
2158 455658.000   22.305280405  114.186547477    17.6724   4  12   1.8658   1.8223   4.6480   0.2482   0.3658   2.3710   0.00    0.0
2158 455659.000   22.305324366  114.186553392    23.8695   4  11   1.8005   1.6950   4.4771   0.5476   1.0800   2.2111   0.00    0.0
2158 455660.000   22.305412598  114.186477905    31.7603   4  10   1.7962   1.6930   4.4499   0.5614   1.1088   2.1977   0.00    0.0
2158 455661.000   22.305494458  114.186326873    22.5130   4  12   1.9452   1.5254   4.4556  -0.2816  -0.4277   2.3092   0.00    0.0
2158 455662.000   22.305547985  114.186267146     7.7600   4   9   2.6865   2.1781   6.1742   0.8021  -1.1906   3.3571   0.00    0.0
2158 455663.000   22.305524094  114.186240291    -7.4800   4   9   2.6745   2.6798   6.2592   1.8115  -1.4748   2.5124   0.00    0.0
2158 455664.000   22.305565909  114.186292866    -1.1369   4   9   2.1861   2.4160   5.3398   1.4916  -2.3193   1.2571   0.00    0.0
2158 455665.000   22.305607042  114.186342958   -12.1040   4   9   2.1600   2.4094   5.1293   1.4850  -2.3104   1.0980   0.00    0.0
2158 455666.000   22.305647317  114.186328842   -17.2741   4   9   2.1633   2.4053   5.1079   1.4889  -2.2891   1.1115   0.00    0.0
2158 455667.000   22.305694124  114.186297420   -20.3441   4   9   2.1616   2.4049   5.1231   1.4869  -2.2966   1.1107   0.00    0.0
2158 455668.000   22.305727314  114.186214570   -15.4445   4   9   2.1391   1.9987   4.6304   1.3407  -1.5296   1.3826   0.00    0.0
2158 455669.000   22.305717444  114.186133610    -2.3487   4   9   2.1599   2.3507   4.9538   1.4727  -2.1466   1.1606   0.00    0.0
2158 455670.000   22.305740235  114.186078100     6.2857   4   7   2.5432   4.0897   6.5105   2.5096  -3.7757  -0.7602   0.00    0.0
2158 455671.000   22.305806395  114.186144025     4.6026   4   7   2.6637   4.6759   7.4331   2.8170  -4.6077  -1.4838   0.00    0.0
2158 455672.000   22.305880018  114.186248767    -8.5638   4   7   2.4183   2.8691   5.8497   1.9458  -1.9830   1.7835   0.00    0.0
2158 455673.000   22.305914955  114.186280189    -8.5542   4   8   2.1810   2.4185   5.2299   1.5078  -2.2742   1.2214   0.00    0.0
2158 455674.000   22.306006276  114.186368339   -19.5793   4   8   2.2451   3.4946   6.5869   1.9331  -3.9662  -1.1014   0.00    0.0
2158 455675.000   22.306040121  114.186410923   -24.2860   4   8   2.2698   3.8863   7.4716   2.0770  -4.6629  -1.5578   0.00    0.0
2158 455676.000   22.306075061  114.186436657   -31.9597   4   8   2.2690   3.9614   7.7699   2.0892  -4.8388  -1.6144   0.00    0.0
2158 455677.000   22.306139386  114.186499770   -44.2078   4   8   2.2441   3.9096   7.5104   2.0336  -4.7054  -1.3696   0.00    0.0
2158 455678.000   22.306216956  114.186552417   -54.3393   4   7   2.5946   3.9821   7.6997   2.2948  -4.8401  -2.1342   0.00    0.0
2158 455679.000   22.306291476  114.186587312   -57.9449   4   7   2.6346   4.0249   7.8051   2.3574  -4.9167  -2.2799   0.00    0.0
2158 455680.000   22.306245111  114.186497225   -56.9949   4   7   2.6081   4.6506   7.5107   2.7390  -4.7549  -1.5154   0.00    0.0
2158 455681.000   22.306214346  114.186387395   -37.2392   4   8   2.5674   4.5268   6.3833   2.6434  -4.0799   0.8552   0.00    0.0
2158 455682.000   22.306230015  114.186341683   -17.2103   4   9   2.5665   4.4594   6.1180   2.6339  -3.9001   0.9371   0.00    0.0
2158 455683.000   22.306274908  114.186334059    -6.4894   4   9   2.5685   4.4552   6.0804   2.6431  -3.8727   0.9172   0.00    0.0
2158 455684.000   22.306324367  114.186309773     0.8563   4   9   2.5715   4.4592   6.0793   2.6481  -3.8706   0.9191   0.00    0.0
2158 455685.000   22.306374498  114.186291968     3.7979   4   9   2.5720   4.4570   6.0709   2.6493  -3.8630   0.9197   0.00    0.0
2158 455686.000   22.306401205  114.186249175     8.8650   4   9   2.7004   4.5298   6.6947   2.5184  -4.1480   1.7849   0.00    0.0
2158 455687.000   22.306414337  114.186219749    10.1013   4   8   2.7200   4.5678   7.0578   2.4845  -4.2961   1.9273   0.00    0.0
2158 455688.000   22.306399218  114.186161342    12.2645   4   8   2.7209   4.5847   7.1623   2.4801  -4.3501   1.9479   0.00    0.0
2158 455689.000   22.306416387  114.186117318    15.7736   4   8   2.7213   4.5893   7.1774   2.4802  -4.3603   1.9497   0.00    0.0
2158 455690.000   22.306403630  114.185984714    20.1484   4   9   2.2372   3.6298   7.1690   1.3420  -4.2398   2.0917   0.00    0.0
2158 455691.000   22.306343720  114.185761223    30.4208   4   9   2.2138   3.5791   7.1710   1.2665  -4.2263   2.1096   0.00    0.0
2158 455692.000   22.306187098  114.185294127    52.4709   4  10   2.0481   2.9235   6.6495  -0.3636  -3.5102   2.5905   0.00    0.0
2158 455693.000   22.306140039  114.184971510    68.5965   4   8   3.1356   4.7837   8.0330   2.3141  -3.3256   3.9567   0.00    0.0
2158 455694.000   22.306071475  114.184826134    42.5745   4   8   3.2338   5.8801   7.1868   3.5285   0.6946   3.5556   0.00    0.0
2158 455695.000   22.306065134  114.184789628    30.6149   4   6   3.6415   6.0652   8.2957   3.6098   1.0243   4.4204   0.00    0.0
2158 455696.000   22.306077875  114.184802253    26.1023   4   6   3.7914   6.0669   8.9064   3.6028   0.9202   4.7920   0.00    0.0
2158 455697.000   22.306079725  114.184790050    31.8855   4   6   3.8321   6.0897   9.1198   3.6139   0.8848   4.8983   0.00    0.0
2158 455698.000   22.306201541  114.184954113    57.8043   4   7   2.8972   3.8139   8.5164   1.0534  -3.9151   3.9567   0.00    0.0
2158 455699.000   22.306315992  114.184968461    81.4922   4   7   2.8082   3.7717   7.9946   0.8457  -4.0501   3.7460   0.00    0.0
2158 455700.000   22.306371056  114.184908226    94.8200   4   7   2.7929   3.7480   7.8486   0.8928  -3.9870   3.6876   0.00    0.0
2158 455701.000   22.306418233  114.184846555   102.9987   4   7   2.7852   3.7266   7.8317   0.8824  -3.9709   3.6781   0.00    0.0
2158 455702.000   22.306435257  114.184840290   102.7230   4   7   2.7830   3.7257   7.8396   0.8728  -3.9767   3.6790   0.00    0.0
2158 455703.000   22.306465061  114.184845696   101.2419   4   8   2.4371   3.1878   7.7983  -1.3513  -4.1713   3.5259   0.00    0.0
2158 455704.000   22.306452195  114.184798405    98.8992   4   8   2.4162   3.1727   7.7813  -1.3797  -4.1800   3.5047   0.00    0.0
2158 455705.000   22.306472602  114.184789753    99.3659   4   7   2.7239   3.6565   7.8084   0.6380  -4.0036   3.6344   0.00    0.0
2158 455706.000   22.306466944  114.184764752    98.2717   4   8   2.4335   3.1756   7.7772  -1.3434  -4.1524   3.5177   0.00    0.0
2158 455707.000   22.306458344  114.184756639    92.6817   4  10   2.4128   3.1612   7.7694  -1.3788  -4.1675   3.5005   0.00    0.0
2158 455708.000   22.306442796  114.184798256    76.2137   4  10   2.4866   2.9656   7.9869  -1.5291  -4.0331   3.7657   0.00    0.0
2158 455709.000   22.306398053  114.184830125    58.1895   4  12   2.4217   2.9370   7.6884  -1.4952  -3.9562   3.6076   0.00    0.0
2158 455710.000   22.306341135  114.184904609    32.9559   4  11   2.0195   2.6552   6.2914  -0.7482  -3.1829   2.6675   0.00    0.0
2158 455711.000   22.306315596  114.184935835    19.7669   4  11   1.9741   2.6031   5.9802  -0.5836  -3.0185   2.5076   0.00    0.0
2158 455712.000   22.306313223  114.184956206    15.2777   4  11   1.9719   2.5960   5.9373  -0.5690  -2.9961   2.4948   0.00    0.0
2158 455713.000   22.306316353  114.184961156    16.0148   4  11   1.9715   2.5956   5.9369  -0.5681  -2.9954   2.4944   0.00    0.0
2158 455714.000   22.306356437  114.184943708    26.8271   4  12   1.9051   2.6943   6.2429  -0.7523  -3.2296   2.5586   0.00    0.0
2158 455715.000   22.306377770  114.184930492    34.2948   4  12   1.9079   2.7165   6.3352  -0.7894  -3.2878   2.5889   0.00    0.0
2158 455716.000   22.306414918  114.184908824    45.8891   4  11   2.2959   2.8376   7.0896  -1.2933  -3.6633   3.2807   0.00    0.0
2158 455717.000   22.306428816  114.184892070    51.7940   4  11   2.3763   2.8901   7.4126  -1.4180  -3.8219   3.4775   0.00    0.0
2158 455718.000   22.306436555  114.184897371    53.8720   4  11   2.3855   2.9055   7.5023  -1.4400  -3.8668   3.5126   0.00    0.0
2158 455719.000   22.306438294  114.184892875    55.2432   4  11   2.3863   2.9076   7.5162  -1.4421  -3.8733   3.5168   0.00    0.0
2158 455720.000   22.306436563  114.184886361    55.8001   4  11   2.3867   2.9074   7.5201  -1.4424  -3.8740   3.5186   0.00    0.0
2158 455721.000   22.306440573  114.184892279    54.2991   4  11   2.3875   2.9081   7.5283  -1.4438  -3.8770   3.5219   0.00    0.0
2158 455722.000   22.306441518  114.184902668    52.7912   4  11   2.3884   2.9091   7.5377  -1.4456  -3.8808   3.5257   0.00    0.0
2158 455723.000   22.306440363  114.184905244    52.0963   4  11   2.3891   2.9097   7.5443  -1.4468  -3.8832   3.5286   0.00    0.0
2158 455724.000   22.306446115  114.184893215    52.4395   4  10   2.4025   3.1084   7.6869  -1.3485  -4.0839   3.4776   0.00    0.0
2158 455725.000   22.306454415  114.184878952    53.9866   4  11   2.3898   2.9345   7.5932  -1.4539  -3.9239   3.5368   0.00    0.0
2158 455726.000   22.306466398  114.184845369    56.2293   4  11   2.3919   2.9090   7.5591  -1.4485  -3.8857   3.5368   0.00    0.0
2158 455727.000   22.306486787  114.184786342    53.1765   4   9   2.4028   3.1066   7.6888  -1.3453  -4.0808   3.4786   0.00    0.0
2158 455728.000   22.306481063  114.184773712    35.3410   4  11   2.3631   2.7945   7.9321  -1.7163  -3.9198   3.8110   0.00    0.0
2158 455729.000   22.306474877  114.184851275     2.7717   4  10   1.9512   2.5976   6.7130  -1.1027  -3.2760   2.9137   0.00    0.0
2158 455730.000   22.306486581  114.184864137   -15.4999   4  10   1.8663   2.5387   6.0913  -0.9400  -3.0291   2.6251   0.00    0.0
2158 455731.000   22.306501763  114.184849143   -19.8332   4  10   1.9951   2.7573   6.0398  -0.0679  -3.1481   2.4299   0.00    0.0
2158 455732.000   22.306540024  114.184872497   -29.5509   4  10   1.9951   1.8253   4.9341  -0.4598  -1.6462   2.5023   0.00    0.0
2158 455733.000   22.306567730  114.184843286   -28.7900   4  10   1.9943   2.5912   5.5640   0.4836  -2.7649   2.3283   0.00    0.0
2158 455734.000   22.306597551  114.184749600   -10.7179   4  10   1.8229   1.8210   4.8005  -0.5325  -1.6584   2.3344   0.00    0.0
2158 455735.000   22.306611284  114.184665078     5.9792   4  12   1.7240   1.5516   4.3537  -0.5932  -1.1318   2.2350   0.00    0.0
2158 455736.000   22.306636443  114.184655936    10.5902   4  12   1.7078   1.7470   4.4710  -0.5640  -1.5156   2.1839   0.00    0.0
2158 455737.000   22.306678490  114.184625367    17.8368   4  12   1.7000   2.3948   5.0525   0.4884  -2.4810   1.9692   0.00    0.0
2158 455738.000   22.306689683  114.184584870    26.1096   4  13   1.6993   1.7682   4.3034   0.5166  -1.3565   1.9596   0.00    0.0
2158 455739.000   22.306676355  114.184579545    27.9396   4  14   1.5687   1.3642   3.8607  -0.1625   0.1669   1.9371   0.00    0.0
2158 455740.000   22.306659084  114.184609971    18.8344   4  14   1.5534   1.2867   3.7379  -0.2593   0.5871   1.9204   0.00    0.0
2158 455741.000   22.306653368  114.184633678    11.6834   4  14   1.7133   1.2266   3.7878   0.3437   0.8318   2.0537   0.00    0.0
2158 455742.000   22.306623619  114.184630727     2.0450   4  13   1.8633   1.3627   4.1410   0.7419   1.3034   2.3336   0.00    0.0
2158 455743.000   22.306599087  114.184620167    -4.4008   4  13   1.9232   1.4928   4.2428   0.9006   1.3224   2.3820   0.00    0.0
2158 455744.000   22.306615823  114.184638553     0.3653   4  14   1.7553   1.3193   3.9120   0.5062   0.7411   2.0899   0.00    0.0
2158 455745.000   22.306625936  114.184647062     3.6776   4  14   1.7357   1.3150   3.8392   0.4772   0.6814   2.0422   0.00    0.0
2158 455746.000   22.306634372  114.184651583     5.8764   4  14   1.7356   1.3148   3.8358   0.4799   0.6883   2.0413   0.00    0.0
2158 455747.000   22.306644371  114.184655574     8.9274   4  14   1.7359   1.3146   3.8397   0.4795   0.6882   2.0429   0.00    0.0
2158 455748.000   22.306644388  114.184654128     9.6370   4  14   1.7356   1.3147   3.8388   0.4801   0.6892   2.0424   0.00    0.0
2158 455749.000   22.306642571  114.184652489     9.5920   4  14   1.7351   1.3147   3.8365   0.4807   0.6906   2.0413   0.00    0.0
2158 455750.000   22.306640412  114.184655429    10.0567   4  14   1.7348   1.3148   3.8357   0.4811   0.6915   2.0408   0.00    0.0
2158 455751.000   22.306643877  114.184653393    10.5176   4  14   1.7347   1.3148   3.8360   0.4816   0.6924   2.0409   0.00    0.0
2158 455752.000   22.306643362  114.184641243     9.1923   4  14   1.6065   1.2965   3.8027   0.2983   0.6076   1.9577   0.00    0.0
2158 455753.000   22.306630616  114.184616016     4.6353   4  13   1.7082   1.4408   4.0528   0.6786   1.1209   2.1560   0.00    0.0
2158 455754.000   22.306626142  114.184628827     2.5195   4  14   1.5989   1.2363   3.8036   0.4379   0.8199   1.9508   0.00    0.0
2158 455755.000   22.306621825  114.184624582     0.8042   4  14   1.5840   1.2311   3.7430   0.4162   0.7824   1.9126   0.00    0.0
2158 455756.000   22.306620719  114.184615359     0.5070   4  14   1.5834   1.2305   3.7365   0.4174   0.7851   1.9102   0.00    0.0
2158 455757.000   22.306619514  114.184609302     1.3061   4  14   1.5835   1.2303   3.7387   0.4175   0.7856   1.9112   0.00    0.0
2158 455758.000   22.306616423  114.184603439     1.9185   4  14   1.5834   1.2303   3.7388   0.4176   0.7858   1.9111   0.00    0.0
2158 455759.000   22.306614880  114.184598166     2.7003   4  14   1.5831   1.2303   3.7378   0.4178   0.7863   1.9106   0.00    0.0
2158 455760.000   22.306612125  114.184590314     2.6053   4  14   1.5830   1.2303   3.7374   0.4181   0.7868   1.9104   0.00    0.0
2158 455761.000   22.306609712  114.184587621     3.1791   4  14   1.5829   1.2303   3.7378   0.4183   0.7874   1.9105   0.00    0.0
2158 455762.000   22.306611865  114.184592334     4.7002   4  14   1.4987   1.2286   3.6819   0.3769   0.7607   1.8223   0.00    0.0
2158 455763.000   22.306616164  114.184592167     6.6708   4  14   1.4933   1.2284   3.6691   0.3741   0.7574   1.8116   0.00    0.0
2158 455764.000   22.306621990  114.184590706     8.4517   4  14   1.4933   1.2284   3.6683   0.3743   0.7579   1.8118   0.00    0.0
2158 455765.000   22.306616031  114.184593778     7.2561   4  14   1.5225   1.2865   3.7324   0.1630   0.5596   1.8674   0.00    0.0
2158 455766.000   22.306616944  114.184595701     6.7896   4  14   1.5263   1.2879   3.7487   0.1426   0.5416   1.8775   0.00    0.0
2158 455767.000   22.306630806  114.184613672    10.6994   4  13   1.6118   1.4225   3.9760   0.5776   1.0461   2.0521   0.00    0.0
2158 455768.000   22.306611868  114.184624858     6.1482   4  13   1.5559   1.3745   3.8609  -0.2746   0.1948   1.9501   0.00    0.0
2158 455769.000   22.306603883  114.184626258     4.1405   4  13   1.5493   1.3745   3.8339  -0.3199  -0.2376   1.9332   0.00    0.0
2158 455770.000   22.306620807  114.184651209     8.4921   4  12   1.6269   1.5218   4.0352   0.4753   0.8858   2.0889   0.00    0.0
2158 455771.000   22.306633243  114.184660866    12.0536   4  12   1.6416   1.5300   4.0986   0.5103   0.9474   2.1263   0.00    0.0
2158 455772.000   22.306629547  114.184636337    15.2492   4  13   1.7698   1.4681   4.1291   0.7619   1.1898   2.2159   0.00    0.0
2158 455773.000   22.306623686  114.184630070    14.8643   4  13   1.7786   1.4693   4.1367   0.7769   1.2121   2.2272   0.00    0.0
2158 455774.000   22.306615790  114.184631425    13.5822   4  13   1.7785   1.4686   4.1399   0.7765   1.2110   2.2277   0.00    0.0
2158 455775.000   22.306605183  114.184609449     7.1870   4  14   1.5443   1.2933   3.8302   0.2131   0.6089   1.9245   0.00    0.0
2158 455776.000   22.306591590  114.184598820     2.0582   4  14   1.5274   1.2894   3.7677   0.1528   0.5489   1.8844   0.00    0.0
2158 455777.000   22.306582773  114.184595394    -0.6430   4  14   1.5269   1.2887   3.7634   0.1566   0.5567   1.8834   0.00    0.0
2158 455778.000   22.306590867  114.184603735     0.4189   4  14   1.5266   1.2885   3.7636   0.1555   0.5563   1.8832   0.00    0.0
2158 455779.000   22.306605027  114.184609041     2.8216   4  14   1.5261   1.2885   3.7612   0.1566   0.5575   1.8820   0.00    0.0
2158 455780.000   22.306617063  114.184612770     5.2747   4  14   1.5257   1.2885   3.7591   0.1580   0.5591   1.8810   0.00    0.0
2158 455781.000   22.306613230  114.184629258     4.5497   4  14   1.4960   1.2300   3.6946   0.3740   0.7610   1.8250   0.00    0.0
2158 455782.000   22.306614173  114.184631976     4.6057   4  14   1.4927   1.2292   3.6804   0.3801   0.7710   1.8162   0.00    0.0
2158 455783.000   22.306619444  114.184632398     5.8906   4  14   1.4926   1.2288   3.6796   0.3796   0.7694   1.8160   0.00    0.0
